NAV 2024/05/28 20:00:00.351 DPS112 $GPZDA,200000.33,28,05,2024,,*6F
NAV 2024/05/28 20:00:00.440 DPS112 $GPGGA,200000.00,4131.436282,N,07040.329930,W,2,11,1.1,19.50,M,-33.66,M,9.0,1007*41
NAV 2024/05/28 20:00:00.496 DPS112 $GPGLL,4131.436282,N,07040.329930,W,200000.00,A,D*73
NAV 2024/05/28 20:00:00.534 DPS112 $GPVTG,338.34,T,,M,0.0,N,0.0,K,A*32
NAV 2024/05/28 20:00:01.341 DPS112 $GPZDA,200001.32,28,05,2024,,*6F
NAV 2024/05/28 20:00:01.430 DPS112 $GPGGA,200001.00,4131.436280,N,07040.329935,W,2,11,1.1,19.51,M,-33.66,M,10.0,1007*7E
NAV 2024/05/28 20:00:01.486 DPS112 $GPGLL,4131.436280,N,07040.329935,W,200001.00,A,D*75
NAV 2024/05/28 20:00:01.525 DPS112 $GPVTG,294.27,T,,M,0.0,N,0.0,K,A*37
NAV 2024/05/28 20:00:02.345 DPS112 $GPZDA,200002.32,28,05,2024,,*6C
NAV 2024/05/28 20:00:02.434 DPS112 $GPGGA,200002.00,4131.436278,N,07040.329942,W,2,11,1.1,19.52,M,-33.66,M,11.0,1007*78
NAV 2024/05/28 20:00:02.491 DPS112 $GPGLL,4131.436278,N,07040.329942,W,200002.00,A,D*71
NAV 2024/05/28 20:00:02.529 DPS112 $GPVTG,287.33,T,,M,0.0,N,0.0,K,A*30
NAV 2024/05/28 20:00:03.340 DPS112 $GPZDA,200003.32,28,05,2024,,*6D
NAV 2024/05/28 20:00:03.430 DPS112 $GPGGA,200003.00,4131.436275,N,07040.329943,W,2,11,1.1,19.52,M,-33.66,M,12.0,1007*76
NAV 2024/05/28 20:00:03.486 DPS112 $GPGLL,4131.436275,N,07040.329943,W,200003.00,A,D*7C
NAV 2024/05/28 20:00:03.525 DPS112 $GPVTG,276.32,T,,M,0.0,N,0.0,K,A*3F
NAV 2024/05/28 20:00:04.344 DPS112 $GPZDA,200004.32,28,05,2024,,*6A
NAV 2024/05/28 20:00:04.434 DPS112 $GPGGA,200004.00,4131.436272,N,07040.329940,W,2,11,1.1,19.53,M,-33.66,M,13.0,1007*75
NAV 2024/05/28 20:00:04.490 DPS112 $GPGLL,4131.436272,N,07040.329940,W,200004.00,A,D*7F
NAV 2024/05/28 20:00:04.529 DPS112 $GPVTG,102.93,T,,M,0.0,N,0.0,K,A*34
NAV 2024/05/28 20:00:05.339 DPS112 $GPZDA,200005.32,28,05,2024,,*6B
NAV 2024/05/28 20:00:05.429 DPS112 $GPGGA,200005.00,4131.436270,N,07040.329935,W,2,11,1.1,19.53,M,-33.66,M,14.0,1007*73
NAV 2024/05/28 20:00:05.485 DPS112 $GPGLL,4131.436270,N,07040.329935,W,200005.00,A,D*7E
NAV 2024/05/28 20:00:05.523 DPS112 $GPVTG,87.23,T,,M,0.0,N,0.0,K,A*03
NAV 2024/05/28 20:00:06.344 DPS112 $GPZDA,200006.32,28,05,2024,,*68
NAV 2024/05/28 20:00:06.433 DPS112 $GPGGA,200006.00,4131.436269,N,07040.329934,W,2,11,1.1,19.53,M,-33.66,M,9.0,1007*45
NAV 2024/05/28 20:00:06.489 DPS112 $GPGLL,4131.436269,N,07040.329934,W,200006.00,A,D*74
NAV 2024/05/28 20:00:06.527 DPS112 $GPVTG,103.88,T,,M,0.0,N,0.0,K,A*3F
NAV 2024/05/28 20:00:07.339 DPS112 $GPZDA,200007.31,28,05,2024,,*6A
NAV 2024/05/28 20:00:07.429 DPS112 $GPGGA,200007.00,4131.436266,N,07040.329934,W,2,11,1.1,19.53,M,-33.66,M,10.0,1007*73
NAV 2024/05/28 20:00:07.485 DPS112 $GPGLL,4131.436266,N,07040.329934,W,200007.00,A,D*7A
NAV 2024/05/28 20:00:07.523 DPS112 $GPVTG,170.10,T,,M,0.0,N,0.0,K,A*3A
NAV 2024/05/28 20:00:08.356 DPS112 $GPZDA,200008.33,28,05,2024,,*67
NAV 2024/05/28 20:00:08.445 DPS112 $GPGGA,200008.00,4131.436267,N,07040.329936,W,2,11,1.1,19.53,M,-33.66,M,11.0,1007*7E
NAV 2024/05/28 20:00:08.502 DPS112 $GPGLL,4131.436267,N,07040.329936,W,200008.00,A,D*76
NAV 2024/05/28 20:00:08.540 DPS112 $GPVTG,317.22,T,,M,0.0,N,0.0,K,A*38
NAV 2024/05/28 20:00:09.352 DPS112 $GPZDA,200009.33,28,05,2024,,*66
NAV 2024/05/28 20:00:09.441 DPS112 $GPGGA,200009.00,4131.436268,N,07040.329945,W,2,11,1.1,19.54,M,-33.66,M,12.0,1007*70
NAV 2024/05/28 20:00:09.497 DPS112 $GPGLL,4131.436268,N,07040.329945,W,200009.00,A,D*7C
NAV 2024/05/28 20:00:09.536 DPS112 $GPVTG,289.68,T,,M,0.0,N,0.0,K,A*30
NAV 2024/05/28 20:00:10.343 DPS112 $GPZDA,200010.32,28,05,2024,,*6F
NAV 2024/05/28 20:00:10.432 DPS112 $GPGGA,200010.00,4131.436272,N,07040.329960,W,2,11,1.1,19.57,M,-33.66,M,8.0,1007*4C
NAV 2024/05/28 20:00:10.488 DPS112 $GPGLL,4131.436272,N,07040.329960,W,200010.00,A,D*78
NAV 2024/05/28 20:00:10.527 DPS112 $GPVTG,300.09,T,,M,0.0,N,0.1,K,A*36
NAV 2024/05/28 20:00:11.347 DPS112 $GPZDA,200011.32,28,05,2024,,*6E
NAV 2024/05/28 20:00:11.435 DPS112 $GPGGA,200011.00,4131.436273,N,07040.329969,W,2,11,1.1,19.57,M,-33.66,M,9.0,1007*44
NAV 2024/05/28 20:00:11.492 DPS112 $GPGLL,4131.436273,N,07040.329969,W,200011.00,A,D*71
NAV 2024/05/28 20:00:11.530 DPS112 $GPVTG,297.51,T,,M,0.0,N,0.0,K,A*35
NAV 2024/05/28 20:00:12.352 DPS112 $GPZDA,200012.33,28,05,2024,,*6C
NAV 2024/05/28 20:00:12.441 DPS112 $GPGGA,200012.00,4131.436271,N,07040.329970,W,2,11,1.1,19.58,M,-33.66,M,10.0,1007*7A
NAV 2024/05/28 20:00:12.497 DPS112 $GPGLL,4131.436271,N,07040.329970,W,200012.00,A,D*78
NAV 2024/05/28 20:00:12.536 DPS112 $GPVTG,214.40,T,,M,0.0,N,0.0,K,A*3E
NAV 2024/05/28 20:00:13.346 DPS112 $GPZDA,200013.32,28,05,2024,,*6C
NAV 2024/05/28 20:00:13.436 DPS112 $GPGGA,200013.00,4131.436264,N,07040.329962,W,2,11,1.1,19.56,M,-33.66,M,11.0,1007*73
NAV 2024/05/28 20:00:13.492 DPS112 $GPGLL,4131.436264,N,07040.329962,W,200013.00,A,D*7E
NAV 2024/05/28 20:00:13.531 DPS112 $GPVTG,135.72,T,,M,0.0,N,0.1,K,A*3E
NAV 2024/05/28 20:00:14.365 DPS112 $GPZDA,200014.34,28,05,2024,,*6D
NAV 2024/05/28 20:00:14.454 DPS112 $GPGGA,200014.00,4131.436197,N,07040.329897,W,2,12,1.0,19.72,M,-33.66,M,12.0,1007*77
NAV 2024/05/28 20:00:14.510 DPS112 $GPGLL,4131.436197,N,07040.329897,W,200014.00,A,D*7D
NAV 2024/05/28 20:00:14.549 DPS112 $GPVTG,131.41,T,,M,0.0,N,0.0,K,A*3B
NAV 2024/05/28 20:00:15.346 DPS112 $GPZDA,200015.32,28,05,2024,,*6A
NAV 2024/05/28 20:00:15.435 DPS112 $GPGGA,200015.00,4131.436189,N,07040.329886,W,2,12,1.0,19.73,M,-33.66,M,13.0,1007*79
NAV 2024/05/28 20:00:15.492 DPS112 $GPGLL,4131.436189,N,07040.329886,W,200015.00,A,D*73
NAV 2024/05/28 20:00:15.530 DPS112 $GPVTG,129.96,T,,M,0.1,N,0.1,K,A*38
NAV 2024/05/28 20:00:16.341 DPS112 $GPZDA,200016.32,28,05,2024,,*69
NAV 2024/05/28 20:00:16.429 DPS112 $GPGGA,200016.00,4131.436188,N,07040.329889,W,2,12,1.0,19.75,M,-33.66,M,9.0,1007*49
NAV 2024/05/28 20:00:16.486 DPS112 $GPGLL,4131.436188,N,07040.329889,W,200016.00,A,D*7E
NAV 2024/05/28 20:00:16.524 DPS112 $GPVTG,334.32,T,,M,0.0,N,0.1,K,A*39
NAV 2024/05/28 20:00:17.345 DPS112 $GPZDA,200017.32,28,05,2024,,*68
NAV 2024/05/28 20:00:17.435 DPS112 $GPGGA,200017.00,4131.436188,N,07040.329894,W,2,12,1.0,19.76,M,-33.66,M,10.0,1007*7F
NAV 2024/05/28 20:00:17.491 DPS112 $GPGLL,4131.436188,N,07040.329894,W,200017.00,A,D*73
NAV 2024/05/28 20:00:17.529 DPS112 $GPVTG,309.55,T,,M,0.0,N,0.0,K,A*37
NAV 2024/05/28 20:00:18.351 DPS112 $GPZDA,200018.33,28,05,2024,,*66
NAV 2024/05/28 20:00:18.441 DPS112 $GPGGA,200018.00,4131.436250,N,07040.329963,W,2,11,1.1,19.60,M,-33.66,M,11.0,1007*7B
NAV 2024/05/28 20:00:18.497 DPS112 $GPGLL,4131.436250,N,07040.329963,W,200018.00,A,D*73
NAV 2024/05/28 20:00:18.536 DPS112 $GPVTG,282.36,T,,M,0.0,N,0.0,K,A*30
NAV 2024/05/28 20:00:19.347 DPS112 $GPZDA,200019.32,28,05,2024,,*66
NAV 2024/05/28 20:00:19.437 DPS112 $GPGGA,200019.00,4131.436251,N,07040.329972,W,2,11,1.1,19.60,M,-33.66,M,12.0,1007*78
NAV 2024/05/28 20:00:19.493 DPS112 $GPGLL,4131.436251,N,07040.329972,W,200019.00,A,D*73
NAV 2024/05/28 20:00:19.532 DPS112 $GPVTG,293.17,T,,M,0.0,N,0.0,K,A*33
NAV 2024/05/28 20:00:20.339 DPS112 $GPZDA,200020.32,28,05,2024,,*6C
NAV 2024/05/28 20:00:20.428 DPS112 $GPGGA,200020.00,4131.436250,N,07040.329977,W,2,11,1.1,19.63,M,-33.66,M,9.0,1007*4F
NAV 2024/05/28 20:00:20.484 DPS112 $GPGLL,4131.436250,N,07040.329977,W,200020.00,A,D*7D
NAV 2024/05/28 20:00:20.523 DPS112 $GPVTG,325.22,T,,M,0.0,N,0.0,K,A*39
NAV 2024/05/28 20:00:21.367 DPS112 $GPZDA,200021.34,28,05,2024,,*6B
NAV 2024/05/28 20:00:21.457 DPS112 $GPGGA,200021.00,4131.436190,N,07040.329913,W,2,12,1.0,19.79,M,-33.66,M,10.0,1007*72
NAV 2024/05/28 20:00:21.513 DPS112 $GPGLL,4131.436190,N,07040.329913,W,200021.00,A,D*71
NAV 2024/05/28 20:00:21.550 DPS112 $GPVTG,76.36,T,,M,0.0,N,0.0,K,A*09
NAV 2024/05/28 20:00:22.339 DPS112 $GPZDA,200022.31,28,05,2024,,*6D
NAV 2024/05/28 20:00:22.428 DPS112 $GPGGA,200022.00,4131.436190,N,07040.329903,W,2,12,1.0,19.79,M,-33.66,M,11.0,1007*71
NAV 2024/05/28 20:00:22.484 DPS112 $GPGLL,4131.436190,N,07040.329903,W,200022.00,A,D*73
NAV 2024/05/28 20:00:22.522 DPS112 $GPVTG,74.56,T,,M,0.0,N,0.0,K,A*0D
NAV 2024/05/28 20:00:23.343 DPS112 $GPZDA,200023.32,28,05,2024,,*6F
NAV 2024/05/28 20:00:23.432 DPS112 $GPGGA,200023.00,4131.436188,N,07040.329898,W,2,12,1.0,19.80,M,-33.66,M,8.0,1007*44
NAV 2024/05/28 20:00:23.488 DPS112 $GPGLL,4131.436188,N,07040.329898,W,200023.00,A,D*78
NAV 2024/05/28 20:00:23.527 DPS112 $GPVTG,102.43,T,,M,0.0,N,0.0,K,A*39
NAV 2024/05/28 20:00:24.348 DPS112 $GPZDA,200024.32,28,05,2024,,*68
NAV 2024/05/28 20:00:24.436 DPS112 $GPGGA,200024.00,4131.436190,N,07040.329896,W,2,12,1.0,19.80,M,-33.66,M,9.0,1007*45
NAV 2024/05/28 20:00:24.492 DPS112 $GPGLL,4131.436190,N,07040.329896,W,200024.00,A,D*78
NAV 2024/05/28 20:00:24.530 DPS112 $GPVTG,28.45,T,,M,0.0,N,0.0,K,A*06
NAV 2024/05/28 20:00:25.342 DPS112 $GPZDA,200025.32,28,05,2024,,*69
NAV 2024/05/28 20:00:25.432 DPS112 $GPGGA,200025.00,4131.436249,N,07040.329953,W,2,11,1.1,19.65,M,-33.66,M,10.0,1007*7A
NAV 2024/05/28 20:00:25.488 DPS112 $GPGLL,4131.436249,N,07040.329953,W,200025.00,A,D*76
NAV 2024/05/28 20:00:25.527 DPS112 $GPVTG,324.69,T,,M,0.0,N,0.0,K,A*37
NAV 2024/05/28 20:00:26.347 DPS112 $GPZDA,200026.32,28,05,2024,,*6A
NAV 2024/05/28 20:00:26.436 DPS112 $GPGGA,200026.00,4131.436259,N,07040.329966,W,2,11,1.1,19.65,M,-33.66,M,6.0,1007*49
NAV 2024/05/28 20:00:26.492 DPS112 $GPGLL,4131.436259,N,07040.329966,W,200026.00,A,D*72
NAV 2024/05/28 20:00:26.531 DPS112 $GPVTG,330.66,T,,M,0.0,N,0.0,K,A*3D
NAV 2024/05/28 20:00:27.343 DPS112 $GPZDA,200027.32,28,05,2024,,*6B
NAV 2024/05/28 20:00:27.431 DPS112 $GPGGA,200027.00,4131.436264,N,07040.329969,W,2,11,1.1,19.66,M,-33.66,M,7.0,1007*4B
NAV 2024/05/28 20:00:27.487 DPS112 $GPGLL,4131.436264,N,07040.329969,W,200027.00,A,D*72
NAV 2024/05/28 20:00:27.526 DPS112 $GPVTG,345.89,T,,M,0.0,N,0.0,K,A*3E
NAV 2024/05/28 20:00:28.347 DPS112 $GPZDA,200028.32,28,05,2024,,*64
NAV 2024/05/28 20:00:28.436 DPS112 $GPGGA,200028.00,4131.436267,N,07040.329969,W,2,11,1.1,19.66,M,-33.66,M,8.0,1007*48
NAV 2024/05/28 20:00:28.492 DPS112 $GPGLL,4131.436267,N,07040.329969,W,200028.00,A,D*7E
NAV 2024/05/28 20:00:28.530 DPS112 $GPVTG,38.73,T,,M,0.0,N,0.0,K,A*02
NAV 2024/05/28 20:00:29.351 DPS112 $GPZDA,200029.33,28,05,2024,,*64
NAV 2024/05/28 20:00:29.440 DPS112 $GPGGA,200029.00,4131.436269,N,07040.329966,W,2,11,1.1,19.66,M,-33.66,M,9.0,1007*49
NAV 2024/05/28 20:00:29.496 DPS112 $GPGLL,4131.436269,N,07040.329966,W,200029.00,A,D*7E
NAV 2024/05/28 20:00:29.534 DPS112 $GPVTG,81.14,T,,M,0.0,N,0.0,K,A*01
NAV 2024/05/28 20:00:30.346 DPS112 $GPZDA,200030.32,28,05,2024,,*6D
NAV 2024/05/28 20:00:30.435 DPS112 $GPGGA,200030.00,4131.436267,N,07040.329956,W,2,11,1.1,19.65,M,-33.66,M,10.0,1007*77
NAV 2024/05/28 20:00:30.492 DPS112 $GPGLL,4131.436267,N,07040.329956,W,200030.00,A,D*7B
NAV 2024/05/28 20:00:30.530 DPS112 $GPVTG,114.08,T,,M,0.0,N,0.1,K,A*30
NAV 2024/05/28 20:00:31.350 DPS112 $GPZDA,200031.33,28,05,2024,,*6D
NAV 2024/05/28 20:00:31.440 DPS112 $GPGGA,200031.00,4131.436268,N,07040.329947,W,2,11,1.1,19.64,M,-33.66,M,11.0,1007*79
NAV 2024/05/28 20:00:31.496 DPS112 $GPGLL,4131.436268,N,07040.329947,W,200031.00,A,D*75
NAV 2024/05/28 20:00:31.534 DPS112 $GPVTG,90.90,T,,M,0.0,N,0.1,K,A*0C
NAV 2024/05/28 20:00:32.368 DPS112 $GPZDA,200032.34,28,05,2024,,*69
NAV 2024/05/28 20:00:32.458 DPS112 $GPGGA,200032.00,4131.436205,N,07040.329886,W,2,12,1.0,19.80,M,-33.66,M,12.0,1007*76
NAV 2024/05/28 20:00:32.514 DPS112 $GPGLL,4131.436205,N,07040.329886,W,200032.00,A,D*71
NAV 2024/05/28 20:00:32.553 DPS112 $GPVTG,143.37,T,,M,0.1,N,0.1,K,A*3F
NAV 2024/05/28 20:00:33.350 DPS112 $GPZDA,200033.33,28,05,2024,,*6F
NAV 2024/05/28 20:00:33.439 DPS112 $GPGGA,200033.00,4131.436209,N,07040.329891,W,2,12,1.0,19.81,M,-33.66,M,9.0,1007*46
NAV 2024/05/28 20:00:33.495 DPS112 $GPGLL,4131.436209,N,07040.329891,W,200033.00,A,D*7A
NAV 2024/05/28 20:00:33.533 DPS112 $GPVTG,251.94,T,,M,0.0,N,0.0,K,A*36
NAV 2024/05/28 20:00:34.345 DPS112 $GPZDA,200034.32,28,05,2024,,*69
NAV 2024/05/28 20:00:34.434 DPS112 $GPGGA,200034.00,4131.436272,N,07040.329957,W,2,11,1.1,19.65,M,-33.66,M,10.0,1007*76
NAV 2024/05/28 20:00:34.491 DPS112 $GPGLL,4131.436272,N,07040.329957,W,200034.00,A,D*7A
NAV 2024/05/28 20:00:34.529 DPS112 $GPVTG,302.76,T,,M,0.0,N,0.0,K,A*3D
NAV 2024/05/28 20:00:35.340 DPS112 $GPZDA,200035.32,28,05,2024,,*68
NAV 2024/05/28 20:00:35.430 DPS112 $GPGGA,200035.00,4131.436274,N,07040.329962,W,2,11,1.1,19.65,M,-33.66,M,11.0,1007*76
NAV 2024/05/28 20:00:35.486 DPS112 $GPGLL,4131.436274,N,07040.329962,W,200035.00,A,D*7B
NAV 2024/05/28 20:00:35.524 DPS112 $GPVTG,282.93,T,,M,0.0,N,0.0,K,A*3F
NAV 2024/05/28 20:00:36.346 DPS112 $GPZDA,200036.32,28,05,2024,,*6B
NAV 2024/05/28 20:00:36.435 DPS112 $GPGGA,200036.00,4131.436272,N,07040.329963,W,2,11,1.1,19.65,M,-33.66,M,12.0,1007*71
NAV 2024/05/28 20:00:36.492 DPS112 $GPGLL,4131.436272,N,07040.329963,W,200036.00,A,D*7F
NAV 2024/05/28 20:00:36.530 DPS112 $GPVTG,162.98,T,,M,0.0,N,0.0,K,A*39
NAV 2024/05/28 20:00:37.340 DPS112 $GPZDA,200037.32,28,05,2024,,*6A
NAV 2024/05/28 20:00:37.428 DPS112 $GPGGA,200037.00,4131.436268,N,07040.329962,W,2,11,1.1,19.65,M,-33.66,M,9.0,1007*40
NAV 2024/05/28 20:00:37.485 DPS112 $GPGLL,4131.436268,N,07040.329962,W,200037.00,A,D*74
NAV 2024/05/28 20:00:37.523 DPS112 $GPVTG,132.88,T,,M,0.0,N,0.0,K,A*3D
NAV 2024/05/28 20:00:38.367 DPS112 $GPZDA,200038.34,28,05,2024,,*63
NAV 2024/05/28 20:00:38.457 DPS112 $GPGGA,200038.00,4131.436209,N,07040.329905,W,2,12,1.0,19.81,M,-33.66,M,10.0,1007*79
NAV 2024/05/28 20:00:38.513 DPS112 $GPGLL,4131.436209,N,07040.329905,W,200038.00,A,D*7D
NAV 2024/05/28 20:00:38.552 DPS112 $GPVTG,326.68,T,,M,0.0,N,0.0,K,A*34
NAV 2024/05/28 20:00:39.348 DPS112 $GPZDA,200039.32,28,05,2024,,*64
NAV 2024/05/28 20:00:39.438 DPS112 $GPGGA,200039.00,4131.436205,N,07040.329904,W,2,12,1.0,19.81,M,-33.66,M,11.0,1007*74
NAV 2024/05/28 20:00:39.494 DPS112 $GPGLL,4131.436205,N,07040.329904,W,200039.00,A,D*71
NAV 2024/05/28 20:00:39.533 DPS112 $GPVTG,133.06,T,,M,0.0,N,0.0,K,A*3A
NAV 2024/05/28 20:00:40.343 DPS112 $GPZDA,200040.32,28,05,2024,,*6A
NAV 2024/05/28 20:00:40.432 DPS112 $GPGGA,200040.00,4131.436263,N,07040.329960,W,2,11,1.1,19.65,M,-33.66,M,12.0,1007*73
NAV 2024/05/28 20:00:40.489 DPS112 $GPGLL,4131.436263,N,07040.329960,W,200040.00,A,D*7D
NAV 2024/05/28 20:00:40.527 DPS112 $GPVTG,124.53,T,,M,0.0,N,0.0,K,A*3C
NAV 2024/05/28 20:00:41.347 DPS112 $GPZDA,200041.32,28,05,2024,,*6B
NAV 2024/05/28 20:00:41.437 DPS112 $GPGGA,200041.00,4131.436263,N,07040.329962,W,2,11,1.1,19.65,M,-33.66,M,13.0,1007*71
NAV 2024/05/28 20:00:41.493 DPS112 $GPGLL,4131.436263,N,07040.329962,W,200041.00,A,D*7E
NAV 2024/05/28 20:00:41.531 DPS112 $GPVTG,122.57,T,,M,0.0,N,0.0,K,A*3E
NAV 2024/05/28 20:00:42.342 DPS112 $GPZDA,200042.32,28,05,2024,,*68
NAV 2024/05/28 20:00:42.432 DPS112 $GPGGA,200042.00,4131.436285,N,07040.330021,W,2,10,1.3,19.46,M,-33.66,M,14.0,1007*79
NAV 2024/05/28 20:00:42.488 DPS112 $GPGLL,4131.436285,N,07040.330021,W,200042.00,A,D*73
NAV 2024/05/28 20:00:42.526 DPS112 $GPVTG,55.55,T,,M,0.0,N,0.0,K,A*0D
NAV 2024/05/28 20:00:43.347 DPS112 $GPZDA,200043.32,28,05,2024,,*69
NAV 2024/05/28 20:00:43.435 DPS112 $GPGGA,200043.00,4131.436286,N,07040.330013,W,2,10,1.3,19.48,M,-33.66,M,6.0,1007*47
NAV 2024/05/28 20:00:43.491 DPS112 $GPGLL,4131.436286,N,07040.330013,W,200043.00,A,D*70
NAV 2024/05/28 20:00:43.529 DPS112 $GPVTG,67.79,T,,M,0.0,N,0.0,K,A*02
NAV 2024/05/28 20:00:44.374 DPS112 $GPZDA,200044.35,28,05,2024,,*69
NAV 2024/05/28 20:00:44.463 DPS112 $GPGGA,200044.00,4131.436218,N,07040.329927,W,2,11,1.1,19.77,M,-33.66,M,7.0,1007*4F
NAV 2024/05/28 20:00:44.519 DPS112 $GPGLL,4131.436218,N,07040.329927,W,200044.00,A,D*76
NAV 2024/05/28 20:00:44.557 DPS112 $GPVTG,65.79,T,,M,0.0,N,0.0,K,A*00
NAV 2024/05/28 20:00:45.346 DPS112 $GPZDA,200045.32,28,05,2024,,*6F
NAV 2024/05/28 20:00:45.434 DPS112 $GPGGA,200045.00,4131.436220,N,07040.329931,W,2,11,1.1,19.78,M,-33.66,M,8.0,1007*42
NAV 2024/05/28 20:00:45.491 DPS112 $GPGLL,4131.436220,N,07040.329931,W,200045.00,A,D*7B
NAV 2024/05/28 20:00:45.529 DPS112 $GPVTG,325.76,T,,M,0.0,N,0.0,K,A*38
NAV 2024/05/28 20:00:46.346 DPS112 $GPZDA,200046.32,28,05,2024,,*6C
NAV 2024/05/28 20:00:46.434 DPS112 $GPGGA,200046.00,4131.436221,N,07040.329937,W,2,11,1.1,19.77,M,-33.66,M,9.0,1007*48
NAV 2024/05/28 20:00:46.491 DPS112 $GPGLL,4131.436221,N,07040.329937,W,200046.00,A,D*7F
NAV 2024/05/28 20:00:46.529 DPS112 $GPVTG,296.59,T,,M,0.0,N,0.0,K,A*3C
NAV 2024/05/28 20:00:47.346 DPS112 $GPZDA,200047.32,28,05,2024,,*6D
NAV 2024/05/28 20:00:47.436 DPS112 $GPGGA,200047.00,4131.436218,N,07040.329936,W,2,11,1.1,19.78,M,-33.66,M,10.0,1007*75
NAV 2024/05/28 20:00:47.492 DPS112 $GPGLL,4131.436218,N,07040.329936,W,200047.00,A,D*75
NAV 2024/05/28 20:00:47.530 DPS112 $GPVTG,151.69,T,,M,0.0,N,0.0,K,A*37
NAV 2024/05/28 20:00:48.341 DPS112 $GPZDA,200048.32,28,05,2024,,*62
NAV 2024/05/28 20:00:48.431 DPS112 $GPGGA,200048.00,4131.436220,N,07040.329941,W,2,11,1.1,19.77,M,-33.66,M,11.0,1007*7F
NAV 2024/05/28 20:00:48.487 DPS112 $GPGLL,4131.436220,N,07040.329941,W,200048.00,A,D*71
NAV 2024/05/28 20:00:48.525 DPS112 $GPVTG,303.77,T,,M,0.0,N,0.0,K,A*3D
NAV 2024/05/28 20:00:49.345 DPS112 $GPZDA,200049.32,28,05,2024,,*63
NAV 2024/05/28 20:00:49.434 DPS112 $GPGGA,200049.00,4131.436218,N,07040.329939,W,2,11,1.1,19.78,M,-33.66,M,12.0,1007*76
NAV 2024/05/28 20:00:49.491 DPS112 $GPGLL,4131.436218,N,07040.329939,W,200049.00,A,D*74
NAV 2024/05/28 20:00:49.529 DPS112 $GPVTG,114.01,T,,M,0.0,N,0.0,K,A*38
NAV 2024/05/28 20:00:50.349 DPS112 $GPZDA,200050.33,28,05,2024,,*6A
NAV 2024/05/28 20:00:50.438 DPS112 $GPGGA,200050.00,4131.436213,N,07040.329936,W,2,11,1.1,19.78,M,-33.66,M,6.0,1007*4F
NAV 2024/05/28 20:00:50.494 DPS112 $GPGLL,4131.436213,N,07040.329936,W,200050.00,A,D*78
NAV 2024/05/28 20:00:50.533 DPS112 $GPVTG,260.20,T,,M,0.0,N,0.0,K,A*3B
NAV 2024/05/28 20:00:51.344 DPS112 $GPZDA,200051.32,28,05,2024,,*6A
NAV 2024/05/28 20:00:51.432 DPS112 $GPGGA,200051.00,4131.436206,N,07040.329934,W,2,11,1.1,19.79,M,-33.66,M,7.0,1007*48
NAV 2024/05/28 20:00:51.489 DPS112 $GPGLL,4131.436206,N,07040.329934,W,200051.00,A,D*7F
NAV 2024/05/28 20:00:51.527 DPS112 $GPVTG,146.92,T,,M,0.0,N,0.1,K,A*34
NAV 2024/05/28 20:00:52.348 DPS112 $GPZDA,200052.32,28,05,2024,,*69
NAV 2024/05/28 20:00:52.437 DPS112 $GPGGA,200052.00,4131.436206,N,07040.329939,W,2,11,1.1,19.79,M,-33.66,M,8.0,1007*49
NAV 2024/05/28 20:00:52.493 DPS112 $GPGLL,4131.436206,N,07040.329939,W,200052.00,A,D*71
NAV 2024/05/28 20:00:52.532 DPS112 $GPVTG,269.29,T,,M,0.0,N,0.0,K,A*3B
NAV 2024/05/28 20:00:53.344 DPS112 $GPZDA,200053.32,28,05,2024,,*68
NAV 2024/05/28 20:00:53.432 DPS112 $GPGGA,200053.00,4131.436207,N,07040.329945,W,2,11,1.1,19.79,M,-33.66,M,9.0,1007*43
NAV 2024/05/28 20:00:53.488 DPS112 $GPGLL,4131.436207,N,07040.329945,W,200053.00,A,D*7A
NAV 2024/05/28 20:00:53.527 DPS112 $GPVTG,293.84,T,,M,0.0,N,0.0,K,A*39
NAV 2024/05/28 20:00:54.348 DPS112 $GPZDA,200054.32,28,05,2024,,*6F
NAV 2024/05/28 20:00:54.437 DPS112 $GPGGA,200054.00,4131.436205,N,07040.329949,W,2,11,1.1,19.81,M,-33.66,M,10.0,1007*75
NAV 2024/05/28 20:00:54.494 DPS112 $GPGLL,4131.436205,N,07040.329949,W,200054.00,A,D*73
NAV 2024/05/28 20:00:54.532 DPS112 $GPVTG,242.75,T,,M,0.0,N,0.0,K,A*3B
NAV 2024/05/28 20:00:55.343 DPS112 $GPZDA,200055.32,28,05,2024,,*6E
NAV 2024/05/28 20:00:55.433 DPS112 $GPGGA,200055.00,4131.436208,N,07040.329961,W,2,11,1.1,19.81,M,-33.66,M,11.0,1007*72
NAV 2024/05/28 20:00:55.489 DPS112 $GPGLL,4131.436208,N,07040.329961,W,200055.00,A,D*75
NAV 2024/05/28 20:00:55.528 DPS112 $GPVTG,292.67,T,,M,0.0,N,0.1,K,A*34
NAV 2024/05/28 20:00:56.349 DPS112 $GPZDA,200056.32,28,05,2024,,*6D
NAV 2024/05/28 20:00:56.439 DPS112 $GPGGA,200056.00,4131.436202,N,07040.329966,W,2,11,1.1,19.82,M,-33.66,M,12.0,1007*7C
NAV 2024/05/28 20:00:56.495 DPS112 $GPGLL,4131.436202,N,07040.329966,W,200056.00,A,D*7B
NAV 2024/05/28 20:00:56.533 DPS112 $GPVTG,194.70,T,,M,0.0,N,0.0,K,A*36
NAV 2024/05/28 20:00:57.343 DPS112 $GPZDA,200057.32,28,05,2024,,*6C
NAV 2024/05/28 20:00:57.431 DPS112 $GPGGA,200057.00,4131.436208,N,07040.329972,W,2,11,1.1,19.82,M,-33.66,M,8.0,1007*49
NAV 2024/05/28 20:00:57.488 DPS112 $GPGLL,4131.436208,N,07040.329972,W,200057.00,A,D*75
NAV 2024/05/28 20:00:57.526 DPS112 $GPVTG,321.12,T,,M,0.0,N,0.1,K,A*3F
NAV 2024/05/28 20:00:58.347 DPS112 $GPZDA,200058.32,28,05,2024,,*63
NAV 2024/05/28 20:00:58.436 DPS112 $GPGGA,200058.00,4131.436202,N,07040.329970,W,2,11,1.1,19.84,M,-33.66,M,9.0,1007*49
NAV 2024/05/28 20:00:58.492 DPS112 $GPGLL,4131.436202,N,07040.329970,W,200058.00,A,D*72
NAV 2024/05/28 20:00:58.531 DPS112 $GPVTG,146.69,T,,M,0.0,N,0.0,K,A*31
NAV 2024/05/28 20:00:59.351 DPS112 $GPZDA,200059.33,28,05,2024,,*63
NAV 2024/05/28 20:00:59.440 DPS112 $GPGGA,200059.00,4131.436201,N,07040.329964,W,2,11,1.1,19.84,M,-33.66,M,10.0,1007*76
NAV 2024/05/28 20:00:59.496 DPS112 $GPGLL,4131.436201,N,07040.329964,W,200059.00,A,D*75
NAV 2024/05/28 20:00:59.534 DPS112 $GPVTG,91.46,T,,M,0.0,N,0.0,K,A*07
NAV 2024/05/28 20:01:00.357 DPS112 $GPZDA,200100.33,28,05,2024,,*6E
NAV 2024/05/28 20:01:00.446 DPS112 $GPGGA,200100.00,4131.436195,N,07040.329954,W,2,11,1.1,19.86,M,-33.66,M,11.0,1007*75
NAV 2024/05/28 20:01:00.503 DPS112 $GPGLL,4131.436195,N,07040.329954,W,200100.00,A,D*75
NAV 2024/05/28 20:01:00.541 DPS112 $GPVTG,122.13,T,,M,0.0,N,0.1,K,A*3F
NAV 2024/05/28 20:01:01.364 DPS112 $GPZDA,200101.34,28,05,2024,,*68
NAV 2024/05/28 20:01:01.454 DPS112 $GPGGA,200101.00,4131.436194,N,07040.329953,W,2,11,1.1,19.87,M,-33.66,M,12.0,1007*70
NAV 2024/05/28 20:01:01.510 DPS112 $GPGLL,4131.436194,N,07040.329953,W,200101.00,A,D*72
NAV 2024/05/28 20:01:01.548 DPS112 $GPVTG,232.77,T,,M,0.0,N,0.0,K,A*3E
NAV 2024/05/28 20:01:02.345 DPS112 $GPZDA,200102.32,28,05,2024,,*6D
NAV 2024/05/28 20:01:02.435 DPS112 $GPGGA,200102.00,4131.436197,N,07040.329959,W,2,11,1.1,19.87,M,-33.66,M,13.0,1007*7B
NAV 2024/05/28 20:01:02.491 DPS112 $GPGLL,4131.436197,N,07040.329959,W,200102.00,A,D*78
NAV 2024/05/28 20:01:02.530 DPS112 $GPVTG,310.08,T,,M,0.0,N,0.1,K,A*36
NAV 2024/05/28 20:01:03.340 DPS112 $GPZDA,200103.32,28,05,2024,,*6C
NAV 2024/05/28 20:01:03.429 DPS112 $GPGGA,200103.00,4131.436196,N,07040.329959,W,2,11,1.1,19.87,M,-33.66,M,6.0,1007*4F
NAV 2024/05/28 20:01:03.485 DPS112 $GPGLL,4131.436196,N,07040.329959,W,200103.00,A,D*78
NAV 2024/05/28 20:01:03.524 DPS112 $GPVTG,258.23,T,,M,0.0,N,0.0,K,A*33
NAV 2024/05/28 20:01:04.345 DPS112 $GPZDA,200104.32,28,05,2024,,*6B
NAV 2024/05/28 20:01:04.433 DPS112 $GPGGA,200104.00,4131.436194,N,07040.329960,W,2,11,1.1,19.89,M,-33.66,M,7.0,1007*4F
NAV 2024/05/28 20:01:04.489 DPS112 $GPGLL,4131.436194,N,07040.329960,W,200104.00,A,D*77
NAV 2024/05/28 20:01:04.528 DPS112 $GPVTG,272.15,T,,M,0.0,N,0.0,K,A*3E
NAV 2024/05/28 20:01:05.340 DPS112 $GPZDA,200105.32,28,05,2024,,*6A
NAV 2024/05/28 20:01:05.429 DPS112 $GPGGA,200105.00,4131.436192,N,07040.329963,W,2,11,1.1,19.90,M,-33.66,M,8.0,1007*4C
NAV 2024/05/28 20:01:05.485 DPS112 $GPGLL,4131.436192,N,07040.329963,W,200105.00,A,D*73
NAV 2024/05/28 20:01:05.523 DPS112 $GPVTG,248.18,T,,M,0.0,N,0.0,K,A*3A
NAV 2024/05/28 20:01:06.345 DPS112 $GPZDA,200106.32,28,05,2024,,*69
NAV 2024/05/28 20:01:06.433 DPS112 $GPGGA,200106.00,4131.436187,N,07040.329960,W,2,11,1.1,19.92,M,-33.66,M,9.0,1007*4B
NAV 2024/05/28 20:01:06.489 DPS112 $GPGLL,4131.436187,N,07040.329960,W,200106.00,A,D*77
NAV 2024/05/28 20:01:06.528 DPS112 $GPVTG,148.38,T,,M,0.0,N,0.0,K,A*3B
NAV 2024/05/28 20:01:07.414 DPS112 $GPZDA,200107.39,28,05,2024,,*63
NAV 2024/05/28 20:01:07.504 DPS112 $GPGGA,200107.00,4131.436175,N,07040.329955,W,2,11,1.1,19.95,M,-33.66,M,10.0,1007*7E
NAV 2024/05/28 20:01:07.560 DPS112 $GPGLL,4131.436175,N,07040.329955,W,200107.00,A,D*7D
NAV 2024/05/28 20:01:07.599 DPS112 $GPVTG,159.80,T,,M,0.0,N,0.0,K,A*38
NAV 2024/05/28 20:01:08.345 DPS112 $GPZDA,200108.32,28,05,2024,,*67
NAV 2024/05/28 20:01:08.434 DPS112 $GPGGA,200108.00,4131.436174,N,07040.329956,W,2,11,1.1,19.95,M,-33.66,M,11.0,1007*72
NAV 2024/05/28 20:01:08.490 DPS112 $GPGLL,4131.436174,N,07040.329956,W,200108.00,A,D*70
NAV 2024/05/28 20:01:08.529 DPS112 $GPVTG,154.37,T,,M,0.0,N,0.0,K,A*39
NAV 2024/05/28 20:01:09.348 DPS112 $GPZDA,200109.32,28,05,2024,,*66
NAV 2024/05/28 20:01:09.438 DPS112 $GPGGA,200109.00,4131.436172,N,07040.329958,W,2,11,1.1,19.96,M,-33.66,M,12.0,1007*7B
NAV 2024/05/28 20:01:09.494 DPS112 $GPGLL,4131.436172,N,07040.329958,W,200109.00,A,D*79
NAV 2024/05/28 20:01:09.532 DPS112 $GPVTG,286.55,T,,M,0.0,N,0.0,K,A*31
NAV 2024/05/28 20:01:10.343 DPS112 $GPZDA,200110.32,28,05,2024,,*6E
NAV 2024/05/28 20:01:10.432 DPS112 $GPGGA,200110.00,4131.436177,N,07040.329960,W,2,11,1.1,19.95,M,-33.66,M,6.0,1007*4B
NAV 2024/05/28 20:01:10.488 DPS112 $GPGLL,4131.436177,N,07040.329960,W,200110.00,A,D*7F
NAV 2024/05/28 20:01:10.527 DPS112 $GPVTG,290.98,T,,M,0.0,N,0.0,K,A*37
NAV 2024/05/28 20:01:11.347 DPS112 $GPZDA,200111.32,28,05,2024,,*6F
NAV 2024/05/28 20:01:11.436 DPS112 $GPGGA,200111.00,4131.436182,N,07040.329961,W,2,11,1.1,19.95,M,-33.66,M,7.0,1007*40
NAV 2024/05/28 20:01:11.492 DPS112 $GPGLL,4131.436182,N,07040.329961,W,200111.00,A,D*75
NAV 2024/05/28 20:01:11.529 DPS112 $GPVTG,3.64,T,,M,0.0,N,0.0,K,A*3C
NAV 2024/05/28 20:01:12.343 DPS112 $GPZDA,200112.32,28,05,2024,,*6C
NAV 2024/05/28 20:01:12.431 DPS112 $GPGGA,200112.00,4131.436182,N,07040.329960,W,2,11,1.1,19.96,M,-33.66,M,8.0,1007*4E
NAV 2024/05/28 20:01:12.487 DPS112 $GPGLL,4131.436182,N,07040.329960,W,200112.00,A,D*77
NAV 2024/05/28 20:01:12.526 DPS112 $GPVTG,103.64,T,,M,0.0,N,0.0,K,A*3D
NAV 2024/05/28 20:01:13.347 DPS112 $GPZDA,200113.32,28,05,2024,,*6D
NAV 2024/05/28 20:01:13.436 DPS112 $GPGGA,200113.00,4131.436187,N,07040.329957,W,2,11,1.1,19.95,M,-33.66,M,9.0,1007*4C
NAV 2024/05/28 20:01:13.492 DPS112 $GPGLL,4131.436187,N,07040.329957,W,200113.00,A,D*77
NAV 2024/05/28 20:01:13.529 DPS112 $GPVTG,46.94,T,,M,0.0,N,0.0,K,A*02
NAV 2024/05/28 20:01:14.352 DPS112 $GPZDA,200114.33,28,05,2024,,*6B
NAV 2024/05/28 20:01:14.441 DPS112 $GPGGA,200114.00,4131.436184,N,07040.329957,W,2,11,1.1,19.94,M,-33.66,M,10.0,1007*71
NAV 2024/05/28 20:01:14.497 DPS112 $GPGLL,4131.436184,N,07040.329957,W,200114.00,A,D*73
NAV 2024/05/28 20:01:14.536 DPS112 $GPVTG,163.85,T,,M,0.0,N,0.0,K,A*34
NAV 2024/05/28 20:01:15.347 DPS112 $GPZDA,200115.32,28,05,2024,,*6B
NAV 2024/05/28 20:01:15.436 DPS112 $GPGGA,200115.00,4131.436182,N,07040.329955,W,2,11,1.1,19.94,M,-33.66,M,11.0,1007*75
NAV 2024/05/28 20:01:15.492 DPS112 $GPGLL,4131.436182,N,07040.329955,W,200115.00,A,D*76
NAV 2024/05/28 20:01:15.531 DPS112 $GPVTG,124.87,T,,M,0.0,N,0.0,K,A*35
NAV 2024/05/28 20:01:16.351 DPS112 $GPZDA,200116.33,28,05,2024,,*69
NAV 2024/05/28 20:01:16.441 DPS112 $GPGGA,200116.00,4131.436182,N,07040.329954,W,2,11,1.1,19.95,M,-33.66,M,12.0,1007*75
NAV 2024/05/28 20:01:16.497 DPS112 $GPGLL,4131.436182,N,07040.329954,W,200116.00,A,D*74
NAV 2024/05/28 20:01:16.534 DPS112 $GPVTG,51.15,T,,M,0.0,N,0.0,K,A*0D
NAV 2024/05/28 20:01:17.346 DPS112 $GPZDA,200117.32,28,05,2024,,*69
NAV 2024/05/28 20:01:17.435 DPS112 $GPGGA,200117.00,4131.436185,N,07040.329954,W,2,11,1.1,19.96,M,-33.66,M,6.0,1007*45
NAV 2024/05/28 20:01:17.491 DPS112 $GPGLL,4131.436185,N,07040.329954,W,200117.00,A,D*72
NAV 2024/05/28 20:01:17.528 DPS112 $GPVTG,69.10,T,,M,0.0,N,0.0,K,A*03
NAV 2024/05/28 20:01:18.350 DPS112 $GPZDA,200118.33,28,05,2024,,*67
NAV 2024/05/28 20:01:18.438 DPS112 $GPGGA,200118.00,4131.436187,N,07040.329955,W,2,11,1.1,19.96,M,-33.66,M,7.0,1007*48
NAV 2024/05/28 20:01:18.495 DPS112 $GPGLL,4131.436187,N,07040.329955,W,200118.00,A,D*7E
NAV 2024/05/28 20:01:18.533 DPS112 $GPVTG,60.05,T,,M,0.0,N,0.0,K,A*0E
NAV 2024/05/28 20:01:19.345 DPS112 $GPZDA,200119.32,28,05,2024,,*67
NAV 2024/05/28 20:01:19.433 DPS112 $GPGGA,200119.00,4131.436189,N,07040.329954,W,2,11,1.1,19.96,M,-33.66,M,8.0,1007*49
NAV 2024/05/28 20:01:19.489 DPS112 $GPGLL,4131.436189,N,07040.329954,W,200119.00,A,D*70
NAV 2024/05/28 20:01:19.526 DPS112 $GPVTG,5.70,T,,M,0.0,N,0.0,K,A*3F
NAV 2024/05/28 20:01:20.349 DPS112 $GPZDA,200120.33,28,05,2024,,*6C
NAV 2024/05/28 20:01:20.438 DPS112 $GPGGA,200120.00,4131.436190,N,07040.329957,W,2,11,1.1,19.95,M,-33.66,M,9.0,1007*4A
NAV 2024/05/28 20:01:20.494 DPS112 $GPGLL,4131.436190,N,07040.329957,W,200120.00,A,D*71
NAV 2024/05/28 20:01:20.532 DPS112 $GPVTG,306.07,T,,M,0.0,N,0.0,K,A*3F
NAV 2024/05/28 20:01:21.344 DPS112 $GPZDA,200121.32,28,05,2024,,*6C
NAV 2024/05/28 20:01:21.434 DPS112 $GPGGA,200121.00,4131.436188,N,07040.329955,W,2,11,1.1,19.95,M,-33.66,M,10.0,1007*78
NAV 2024/05/28 20:01:21.490 DPS112 $GPGLL,4131.436188,N,07040.329955,W,200121.00,A,D*7B
NAV 2024/05/28 20:01:21.529 DPS112 $GPVTG,124.93,T,,M,0.0,N,0.0,K,A*30
NAV 2024/05/28 20:01:22.349 DPS112 $GPZDA,200122.32,28,05,2024,,*6F
NAV 2024/05/28 20:01:22.438 DPS112 $GPGGA,200122.00,4131.436185,N,07040.329950,W,2,11,1.1,19.97,M,-33.66,M,11.0,1007*70
NAV 2024/05/28 20:01:22.494 DPS112 $GPGLL,4131.436185,N,07040.329950,W,200122.00,A,D*70
NAV 2024/05/28 20:01:22.533 DPS112 $GPVTG,127.33,T,,M,0.0,N,0.0,K,A*39
NAV 2024/05/28 20:01:23.347 DPS112 $GPZDA,200123.32,28,05,2024,,*6E
NAV 2024/05/28 20:01:23.437 DPS112 $GPGGA,200123.00,4131.436188,N,07040.329949,W,2,11,1.1,19.96,M,-33.66,M,12.0,1007*76
NAV 2024/05/28 20:01:23.493 DPS112 $GPGLL,4131.436188,N,07040.329949,W,200123.00,A,D*74
NAV 2024/05/28 20:01:23.532 DPS112 $GPVTG,348.96,T,,M,0.0,N,0.0,K,A*3D
NAV 2024/05/28 20:01:24.372 DPS112 $GPZDA,200124.35,28,05,2024,,*6E
NAV 2024/05/28 20:01:24.460 DPS112 $GPGGA,200124.00,4131.436195,N,07040.329946,W,2,11,1.1,19.95,M,-33.66,M,8.0,1007*4A
NAV 2024/05/28 20:01:24.516 DPS112 $GPGLL,4131.436195,N,07040.329946,W,200124.00,A,D*70
NAV 2024/05/28 20:01:24.554 DPS112 $GPVTG,77.06,T,,M,0.0,N,0.0,K,A*0B
NAV 2024/05/28 20:01:25.343 DPS112 $GPZDA,200125.32,28,05,2024,,*68
NAV 2024/05/28 20:01:25.432 DPS112 $GPGGA,200125.00,4131.436194,N,07040.329942,W,2,11,1.1,19.95,M,-33.66,M,9.0,1007*4F
NAV 2024/05/28 20:01:25.488 DPS112 $GPGLL,4131.436194,N,07040.329942,W,200125.00,A,D*74
NAV 2024/05/28 20:01:25.526 DPS112 $GPVTG,100.52,T,,M,0.0,N,0.0,K,A*3B
NAV 2024/05/28 20:01:26.348 DPS112 $GPZDA,200126.32,28,05,2024,,*6B
NAV 2024/05/28 20:01:26.437 DPS112 $GPGGA,200126.00,4131.436192,N,07040.329938,W,2,11,1.1,19.94,M,-33.66,M,10.0,1007*7E
NAV 2024/05/28 20:01:26.494 DPS112 $GPGLL,4131.436192,N,07040.329938,W,200126.00,A,D*7C
NAV 2024/05/28 20:01:26.532 DPS112 $GPVTG,126.84,T,,M,0.0,N,0.0,K,A*34
NAV 2024/05/28 20:01:27.343 DPS112 $GPZDA,200127.32,28,05,2024,,*6A
NAV 2024/05/28 20:01:27.432 DPS112 $GPGGA,200127.00,4131.436191,N,07040.329937,W,2,11,1.1,19.94,M,-33.66,M,11.0,1007*72
NAV 2024/05/28 20:01:27.488 DPS112 $GPGLL,4131.436191,N,07040.329937,W,200127.00,A,D*71
NAV 2024/05/28 20:01:27.527 DPS112 $GPVTG,136.30,T,,M,0.0,N,0.0,K,A*3A
NAV 2024/05/28 20:01:28.346 DPS112 $GPZDA,200128.32,28,05,2024,,*65
NAV 2024/05/28 20:01:28.436 DPS112 $GPGGA,200128.00,4131.436187,N,07040.329935,W,2,11,1.1,19.94,M,-33.66,M,12.0,1007*7B
NAV 2024/05/28 20:01:28.492 DPS112 $GPGLL,4131.436187,N,07040.329935,W,200128.00,A,D*7B
NAV 2024/05/28 20:01:28.530 DPS112 $GPVTG,154.35,T,,M,0.0,N,0.0,K,A*3B
NAV 2024/05/28 20:01:29.351 DPS112 $GPZDA,200129.33,28,05,2024,,*65
NAV 2024/05/28 20:01:29.440 DPS112 $GPGGA,200129.00,4131.436184,N,07040.329933,W,2,11,1.1,19.96,M,-33.66,M,13.0,1007*7C
NAV 2024/05/28 20:01:29.497 DPS112 $GPGLL,4131.436184,N,07040.329933,W,200129.00,A,D*7F
NAV 2024/05/28 20:01:29.535 DPS112 $GPVTG,109.88,T,,M,0.0,N,0.0,K,A*35
NAV 2024/05/28 20:01:30.346 DPS112 $GPZDA,200130.32,28,05,2024,,*6C
NAV 2024/05/28 20:01:30.434 DPS112 $GPGGA,200130.00,4131.436190,N,07040.329940,W,2,11,1.1,19.95,M,-33.66,M,8.0,1007*4C
NAV 2024/05/28 20:01:30.491 DPS112 $GPGLL,4131.436190,N,07040.329940,W,200130.00,A,D*76
NAV 2024/05/28 20:01:30.529 DPS112 $GPVTG,245.36,T,,M,0.0,N,0.0,K,A*3B
NAV 2024/05/28 20:01:31.350 DPS112 $GPZDA,200131.33,28,05,2024,,*6C
NAV 2024/05/28 20:01:31.439 DPS112 $GPGGA,200131.00,4131.436190,N,07040.329944,W,2,11,1.1,19.96,M,-33.66,M,9.0,1007*4B
NAV 2024/05/28 20:01:31.495 DPS112 $GPGLL,4131.436190,N,07040.329944,W,200131.00,A,D*73
NAV 2024/05/28 20:01:31.534 DPS112 $GPVTG,160.77,T,,M,0.0,N,0.0,K,A*3A
NAV 2024/05/28 20:01:32.345 DPS112 $GPZDA,200132.32,28,05,2024,,*6E
NAV 2024/05/28 20:01:32.435 DPS112 $GPGGA,200132.00,4131.436190,N,07040.329951,W,2,11,1.1,19.94,M,-33.66,M,10.0,1007*76
NAV 2024/05/28 20:01:32.491 DPS112 $GPGLL,4131.436190,N,07040.329951,W,200132.00,A,D*74
NAV 2024/05/28 20:01:32.530 DPS112 $GPVTG,266.51,T,,M,0.0,N,0.0,K,A*3B
NAV 2024/05/28 20:01:33.340 DPS112 $GPZDA,200133.32,28,05,2024,,*6F
NAV 2024/05/28 20:01:33.430 DPS112 $GPGGA,200133.00,4131.436192,N,07040.329951,W,2,11,1.1,19.93,M,-33.66,M,11.0,1007*73
NAV 2024/05/28 20:01:33.486 DPS112 $GPGLL,4131.436192,N,07040.329951,W,200133.00,A,D*77
NAV 2024/05/28 20:01:33.524 DPS112 $GPVTG,85.39,T,,M,0.0,N,0.0,K,A*0A
NAV 2024/05/28 20:01:34.344 DPS112 $GPZDA,200134.32,28,05,2024,,*68
NAV 2024/05/28 20:01:34.434 DPS112 $GPGGA,200134.00,4131.436190,N,07040.329948,W,2,11,1.1,19.94,M,-33.66,M,12.0,1007*7A
NAV 2024/05/28 20:01:34.490 DPS112 $GPGLL,4131.436190,N,07040.329948,W,200134.00,A,D*7A
NAV 2024/05/28 20:01:34.529 DPS112 $GPVTG,128.52,T,,M,0.0,N,0.0,K,A*31
NAV 2024/05/28 20:01:35.349 DPS112 $GPZDA,200135.32,28,05,2024,,*69
NAV 2024/05/28 20:01:35.438 DPS112 $GPGGA,200135.00,4131.436193,N,07040.329948,W,2,11,1.1,19.93,M,-33.66,M,13.0,1007*7E
NAV 2024/05/28 20:01:35.495 DPS112 $GPGLL,4131.436193,N,07040.329948,W,200135.00,A,D*78
NAV 2024/05/28 20:01:35.532 DPS112 $GPVTG,83.98,T,,M,0.0,N,0.0,K,A*07
NAV 2024/05/28 20:01:36.344 DPS112 $GPZDA,200136.32,28,05,2024,,*6A
NAV 2024/05/28 20:01:36.434 DPS112 $GPGGA,200136.00,4131.436193,N,07040.329949,W,2,11,1.1,19.94,M,-33.66,M,14.0,1007*7C
NAV 2024/05/28 20:01:36.490 DPS112 $GPGLL,4131.436193,N,07040.329949,W,200136.00,A,D*7A
NAV 2024/05/28 20:01:36.528 DPS112 $GPVTG,149.02,T,,M,0.0,N,0.0,K,A*33
NAV 2024/05/28 20:01:37.348 DPS112 $GPZDA,200137.32,28,05,2024,,*6B
NAV 2024/05/28 20:01:37.438 DPS112 $GPGGA,200137.00,4131.436197,N,07040.329955,W,2,11,1.1,19.94,M,-33.66,M,10.0,1007*70
NAV 2024/05/28 20:01:37.494 DPS112 $GPGLL,4131.436197,N,07040.329955,W,200137.00,A,D*72
NAV 2024/05/28 20:01:37.533 DPS112 $GPVTG,231.94,T,,M,0.0,N,0.0,K,A*30
NAV 2024/05/28 20:01:38.343 DPS112 $GPZDA,200138.32,28,05,2024,,*64
NAV 2024/05/28 20:01:38.432 DPS112 $GPGGA,200138.00,4131.436198,N,07040.329962,W,2,11,1.1,19.93,M,-33.66,M,11.0,1007*72
NAV 2024/05/28 20:01:38.489 DPS112 $GPGLL,4131.436198,N,07040.329962,W,200138.00,A,D*76
NAV 2024/05/28 20:01:38.527 DPS112 $GPVTG,280.42,T,,M,0.0,N,0.0,K,A*31
NAV 2024/05/28 20:01:39.347 DPS112 $GPZDA,200139.32,28,05,2024,,*65
NAV 2024/05/28 20:01:39.437 DPS112 $GPGGA,200139.00,4131.436195,N,07040.329967,W,2,11,1.1,19.94,M,-33.66,M,12.0,1007*7F
NAV 2024/05/28 20:01:39.493 DPS112 $GPGLL,4131.436195,N,07040.329967,W,200139.00,A,D*7F
NAV 2024/05/28 20:01:39.531 DPS112 $GPVTG,187.89,T,,M,0.0,N,0.0,K,A*32
NAV 2024/05/28 20:01:40.342 DPS112 $GPZDA,200140.32,28,05,2024,,*6B
NAV 2024/05/28 20:01:40.431 DPS112 $GPGGA,200140.00,4131.436197,N,07040.329969,W,2,11,1.1,19.93,M,-33.66,M,9.0,1007*40
NAV 2024/05/28 20:01:40.487 DPS112 $GPGLL,4131.436197,N,07040.329969,W,200140.00,A,D*7D
NAV 2024/05/28 20:01:40.526 DPS112 $GPVTG,186.10,T,,M,0.0,N,0.0,K,A*33
NAV 2024/05/28 20:01:41.347 DPS112 $GPZDA,200141.32,28,05,2024,,*6A
NAV 2024/05/28 20:01:41.436 DPS112 $GPGGA,200141.00,4131.436200,N,07040.329977,W,2,11,1.1,19.93,M,-33.66,M,10.0,1007*7B
NAV 2024/05/28 20:01:41.492 DPS112 $GPGLL,4131.436200,N,07040.329977,W,200141.00,A,D*7E
NAV 2024/05/28 20:01:41.531 DPS112 $GPVTG,292.30,T,,M,0.0,N,0.0,K,A*37
NAV 2024/05/28 20:01:42.342 DPS112 $GPZDA,200142.32,28,05,2024,,*69
NAV 2024/05/28 20:01:42.432 DPS112 $GPGGA,200142.00,4131.436200,N,07040.329980,W,2,11,1.1,19.92,M,-33.66,M,11.0,1007*70
NAV 2024/05/28 20:01:42.488 DPS112 $GPGLL,4131.436200,N,07040.329980,W,200142.00,A,D*75
NAV 2024/05/28 20:01:42.526 DPS112 $GPVTG,157.35,T,,M,0.0,N,0.0,K,A*38
NAV 2024/05/28 20:01:43.346 DPS112 $GPZDA,200143.32,28,05,2024,,*68
NAV 2024/05/28 20:01:43.436 DPS112 $GPGGA,200143.00,4131.436198,N,07040.329982,W,2,11,1.1,19.92,M,-33.66,M,12.0,1007*72
NAV 2024/05/28 20:01:43.492 DPS112 $GPGLL,4131.436198,N,07040.329982,W,200143.00,A,D*74
NAV 2024/05/28 20:01:43.531 DPS112 $GPVTG,174.66,T,,M,0.0,N,0.0,K,A*3F
NAV 2024/05/28 20:01:44.342 DPS112 $GPZDA,200144.32,28,05,2024,,*6F
NAV 2024/05/28 20:01:44.431 DPS112 $GPGGA,200144.00,4131.436200,N,07040.329981,W,2,11,1.1,19.91,M,-33.66,M,13.0,1007*76
NAV 2024/05/28 20:01:44.487 DPS112 $GPGLL,4131.436200,N,07040.329981,W,200144.00,A,D*72
NAV 2024/05/28 20:01:44.525 DPS112 $GPVTG,14.12,T,,M,0.0,N,0.0,K,A*0B
NAV 2024/05/28 20:01:45.346 DPS112 $GPZDA,200145.32,28,05,2024,,*6E
NAV 2024/05/28 20:01:45.435 DPS112 $GPGGA,200145.00,4131.436193,N,07040.329976,W,2,11,1.1,19.92,M,-33.66,M,14.0,1007*72
NAV 2024/05/28 20:01:45.491 DPS112 $GPGLL,4131.436193,N,07040.329976,W,200145.00,A,D*72
NAV 2024/05/28 20:01:45.530 DPS112 $GPVTG,140.32,T,,M,0.0,N,0.1,K,A*38
NAV 2024/05/28 20:01:46.341 DPS112 $GPZDA,200146.32,28,05,2024,,*6D
NAV 2024/05/28 20:01:46.430 DPS112 $GPGGA,200146.00,4131.436200,N,07040.329981,W,2,11,1.1,19.91,M,-33.66,M,15.0,1007*72
NAV 2024/05/28 20:01:46.487 DPS112 $GPGLL,4131.436200,N,07040.329981,W,200146.00,A,D*70
NAV 2024/05/28 20:01:46.525 DPS112 $GPVTG,339.94,T,,M,0.0,N,0.1,K,A*38
NAV 2024/05/28 20:01:47.345 DPS112 $GPZDA,200147.32,28,05,2024,,*6C
NAV 2024/05/28 20:01:47.434 DPS112 $GPGGA,200147.00,4131.436205,N,07040.329983,W,2,11,1.1,19.89,M,-33.66,M,7.0,1007*4E
NAV 2024/05/28 20:01:47.490 DPS112 $GPGLL,4131.436205,N,07040.329983,W,200147.00,A,D*76
NAV 2024/05/28 20:01:47.528 DPS112 $GPVTG,175.64,T,,M,0.0,N,0.0,K,A*3C
NAV 2024/05/28 20:01:48.339 DPS112 $GPZDA,200148.32,28,05,2024,,*63
NAV 2024/05/28 20:01:48.428 DPS112 $GPGGA,200148.00,4131.436205,N,07040.329985,W,2,11,1.1,19.89,M,-33.66,M,8.0,1007*48
NAV 2024/05/28 20:01:48.484 DPS112 $GPGLL,4131.436205,N,07040.329985,W,200148.00,A,D*7F
NAV 2024/05/28 20:01:48.523 DPS112 $GPVTG,307.95,T,,M,0.0,N,0.0,K,A*35
NAV 2024/05/28 20:01:49.344 DPS112 $GPZDA,200149.32,28,05,2024,,*62
NAV 2024/05/28 20:01:49.432 DPS112 $GPGGA,200149.00,4131.436203,N,07040.329984,W,2,11,1.1,19.91,M,-33.66,M,9.0,1007*46
NAV 2024/05/28 20:01:49.488 DPS112 $GPGLL,4131.436203,N,07040.329984,W,200149.00,A,D*79
NAV 2024/05/28 20:01:49.527 DPS112 $GPVTG,137.20,T,,M,0.0,N,0.0,K,A*3A
NAV 2024/05/28 20:01:50.348 DPS112 $GPZDA,200150.32,28,05,2024,,*6A
NAV 2024/05/28 20:01:50.438 DPS112 $GPGGA,200150.00,4131.436203,N,07040.329990,W,2,11,1.1,19.91,M,-33.66,M,10.0,1007*73
NAV 2024/05/28 20:01:50.494 DPS112 $GPGLL,4131.436203,N,07040.329990,W,200150.00,A,D*74
NAV 2024/05/28 20:01:50.532 DPS112 $GPVTG,275.62,T,,M,0.0,N,0.0,K,A*39
NAV 2024/05/28 20:01:51.343 DPS112 $GPZDA,200151.32,28,05,2024,,*6B
NAV 2024/05/28 20:01:51.433 DPS112 $GPGGA,200151.00,4131.436203,N,07040.329993,W,2,11,1.1,19.91,M,-33.66,M,11.0,1007*70
NAV 2024/05/28 20:01:51.489 DPS112 $GPGLL,4131.436203,N,07040.329993,W,200151.00,A,D*76
NAV 2024/05/28 20:01:51.528 DPS112 $GPVTG,229.57,T,,M,0.0,N,0.0,K,A*36
NAV 2024/05/28 20:01:52.348 DPS112 $GPZDA,200152.32,28,05,2024,,*68
NAV 2024/05/28 20:01:52.438 DPS112 $GPGGA,200152.00,4131.436201,N,07040.329990,W,2,11,1.1,19.92,M,-33.66,M,12.0,1007*72
NAV 2024/05/28 20:01:52.494 DPS112 $GPGLL,4131.436201,N,07040.329990,W,200152.00,A,D*74
NAV 2024/05/28 20:01:52.532 DPS112 $GPVTG,120.02,T,,M,0.0,N,0.0,K,A*3C
NAV 2024/05/28 20:01:53.342 DPS112 $GPZDA,200153.32,28,05,2024,,*69
NAV 2024/05/28 20:01:53.432 DPS112 $GPGGA,200153.00,4131.436202,N,07040.329991,W,2,11,1.1,19.91,M,-33.66,M,13.0,1007*73
NAV 2024/05/28 20:01:53.488 DPS112 $GPGLL,4131.436202,N,07040.329991,W,200153.00,A,D*77
NAV 2024/05/28 20:01:53.527 DPS112 $GPVTG,331.31,T,,M,0.0,N,0.0,K,A*3E
NAV 2024/05/28 20:01:54.338 DPS112 $GPZDA,200154.31,28,05,2024,,*6D
NAV 2024/05/28 20:01:54.426 DPS112 $GPGGA,200154.00,4131.436199,N,07040.329989,W,2,11,1.1,19.90,M,-33.66,M,8.0,1007*47
NAV 2024/05/28 20:01:54.483 DPS112 $GPGLL,4131.436199,N,07040.329989,W,200154.00,A,D*78
NAV 2024/05/28 20:01:54.521 DPS112 $GPVTG,143.35,T,,M,0.0,N,0.0,K,A*3D
NAV 2024/05/28 20:01:55.342 DPS112 $GPZDA,200155.32,28,05,2024,,*6F
NAV 2024/05/28 20:01:55.431 DPS112 $GPGGA,200155.00,4131.436200,N,07040.329986,W,2,11,1.1,19.89,M,-33.66,M,9.0,1007*43
NAV 2024/05/28 20:01:55.487 DPS112 $GPGLL,4131.436200,N,07040.329986,W,200155.00,A,D*75
NAV 2024/05/28 20:01:55.525 DPS112 $GPVTG,99.35,T,,M,0.0,N,0.0,K,A*0B
NAV 2024/05/28 20:01:56.337 DPS112 $GPZDA,200156.31,28,05,2024,,*6F
NAV 2024/05/28 20:01:56.427 DPS112 $GPGGA,200156.00,4131.436199,N,07040.329985,W,2,11,1.1,19.88,M,-33.66,M,10.0,1007*79
NAV 2024/05/28 20:01:56.483 DPS112 $GPGLL,4131.436199,N,07040.329985,W,200156.00,A,D*76
NAV 2024/05/28 20:01:56.521 DPS112 $GPVTG,135.00,T,,M,0.0,N,0.0,K,A*3A
NAV 2024/05/28 20:01:57.341 DPS112 $GPZDA,200157.32,28,05,2024,,*6D
NAV 2024/05/28 20:01:57.430 DPS112 $GPGGA,200157.00,4131.436196,N,07040.329984,W,2,11,1.1,19.88,M,-33.66,M,11.0,1007*77
NAV 2024/05/28 20:01:57.487 DPS112 $GPGLL,4131.436196,N,07040.329984,W,200157.00,A,D*79
NAV 2024/05/28 20:01:57.525 DPS112 $GPVTG,139.83,T,,M,0.0,N,0.0,K,A*3D
NAV 2024/05/28 20:01:58.335 DPS112 $GPZDA,200158.31,28,05,2024,,*61
NAV 2024/05/28 20:01:58.425 DPS112 $GPGGA,200158.00,4131.436198,N,07040.329989,W,2,11,1.1,19.89,M,-33.66,M,12.0,1007*79
NAV 2024/05/28 20:01:58.481 DPS112 $GPGLL,4131.436198,N,07040.329989,W,200158.00,A,D*75
NAV 2024/05/28 20:01:58.520 DPS112 $GPVTG,300.23,T,,M,0.0,N,0.0,K,A*3F
NAV 2024/05/28 20:01:59.331 DPS112 $GPZDA,200159.31,28,05,2024,,*60
NAV 2024/05/28 20:01:59.420 DPS112 $GPGGA,200159.00,4131.436196,N,07040.329992,W,2,11,1.1,19.90,M,-33.66,M,13.0,1007*75
NAV 2024/05/28 20:01:59.476 DPS112 $GPGLL,4131.436196,N,07040.329992,W,200159.00,A,D*70
NAV 2024/05/28 20:01:59.515 DPS112 $GPVTG,186.56,T,,M,0.0,N,0.0,K,A*31
NAV 2024/05/28 20:02:00.336 DPS112 $GPZDA,200200.31,28,05,2024,,*6F
NAV 2024/05/28 20:02:00.426 DPS112 $GPGGA,200200.00,4131.436199,N,07040.329997,W,2,11,1.1,19.90,M,-33.66,M,14.0,1007*77
NAV 2024/05/28 20:02:00.482 DPS112 $GPGLL,4131.436199,N,07040.329997,W,200200.00,A,D*75
NAV 2024/05/28 20:02:00.521 DPS112 $GPVTG,285.64,T,,M,0.0,N,0.0,K,A*30
NAV 2024/05/28 20:02:01.340 DPS112 $GPZDA,200201.32,28,05,2024,,*6D
NAV 2024/05/28 20:02:01.428 DPS112 $GPGGA,200201.00,4131.436199,N,07040.329996,W,2,11,1.1,19.90,M,-33.66,M,9.0,1007*4B
NAV 2024/05/28 20:02:01.484 DPS112 $GPGLL,4131.436199,N,07040.329996,W,200201.00,A,D*75
NAV 2024/05/28 20:02:01.523 DPS112 $GPVTG,154.58,T,,M,0.0,N,0.0,K,A*30
NAV 2024/05/28 20:02:02.335 DPS112 $GPZDA,200202.31,28,05,2024,,*6D
NAV 2024/05/28 20:02:02.424 DPS112 $GPGGA,200202.00,4131.436198,N,07040.329992,W,2,11,1.1,19.89,M,-33.66,M,10.0,1007*7D
NAV 2024/05/28 20:02:02.481 DPS112 $GPGLL,4131.436198,N,07040.329992,W,200202.00,A,D*73
NAV 2024/05/28 20:02:02.518 DPS112 $GPVTG,89.30,T,,M,0.0,N,0.0,K,A*0F
NAV 2024/05/28 20:02:03.339 DPS112 $GPZDA,200203.31,28,05,2024,,*6C
NAV 2024/05/28 20:02:03.429 DPS112 $GPGGA,200203.00,4131.436195,N,07040.329986,W,2,11,1.1,19.89,M,-33.66,M,11.0,1007*75
NAV 2024/05/28 20:02:03.485 DPS112 $GPGLL,4131.436195,N,07040.329986,W,200203.00,A,D*7A
NAV 2024/05/28 20:02:03.524 DPS112 $GPVTG,112.64,T,,M,0.0,N,0.0,K,A*3D
NAV 2024/05/28 20:02:04.344 DPS112 $GPZDA,200204.32,28,05,2024,,*68
NAV 2024/05/28 20:02:04.433 DPS112 $GPGGA,200204.00,4131.436194,N,07040.329987,W,2,11,1.1,19.88,M,-33.66,M,12.0,1007*70
NAV 2024/05/28 20:02:04.490 DPS112 $GPGLL,4131.436194,N,07040.329987,W,200204.00,A,D*7D
NAV 2024/05/28 20:02:04.528 DPS112 $GPVTG,237.88,T,,M,0.0,N,0.0,K,A*3B
NAV 2024/05/28 20:02:05.339 DPS112 $GPZDA,200205.31,28,05,2024,,*6A
NAV 2024/05/28 20:02:05.429 DPS112 $GPGGA,200205.00,4131.436193,N,07040.329991,W,2,11,1.1,19.89,M,-33.66,M,13.0,1007*71
NAV 2024/05/28 20:02:05.485 DPS112 $GPGLL,4131.436193,N,07040.329991,W,200205.00,A,D*7C
NAV 2024/05/28 20:02:05.524 DPS112 $GPVTG,262.08,T,,M,0.0,N,0.0,K,A*33
NAV 2024/05/28 20:02:06.344 DPS112 $GPZDA,200206.32,28,05,2024,,*6A
NAV 2024/05/28 20:02:06.433 DPS112 $GPGGA,200206.00,4131.436194,N,07040.329997,W,2,11,1.1,19.89,M,-33.66,M,14.0,1007*74
NAV 2024/05/28 20:02:06.489 DPS112 $GPGLL,4131.436194,N,07040.329997,W,200206.00,A,D*7E
NAV 2024/05/28 20:02:06.527 DPS112 $GPVTG,291.00,T,,M,0.0,N,0.0,K,A*37
NAV 2024/05/28 20:02:07.338 DPS112 $GPZDA,200207.31,28,05,2024,,*68
NAV 2024/05/28 20:02:07.427 DPS112 $GPGGA,200207.00,4131.436197,N,07040.330004,W,2,11,1.1,19.88,M,-33.66,M,11.0,1007*79
NAV 2024/05/28 20:02:07.484 DPS112 $GPGLL,4131.436197,N,07040.330004,W,200207.00,A,D*77
NAV 2024/05/28 20:02:07.522 DPS112 $GPVTG,207.81,T,,M,0.0,N,0.0,K,A*31
NAV 2024/05/28 20:02:08.342 DPS112 $GPZDA,200208.32,28,05,2024,,*64
NAV 2024/05/28 20:02:08.432 DPS112 $GPGGA,200208.00,4131.436200,N,07040.330007,W,2,11,1.1,19.87,M,-33.66,M,12.0,1007*74
NAV 2024/05/28 20:02:08.488 DPS112 $GPGLL,4131.436200,N,07040.330007,W,200208.00,A,D*76
NAV 2024/05/28 20:02:08.527 DPS112 $GPVTG,192.18,T,,M,0.0,N,0.0,K,A*3E
NAV 2024/05/28 20:02:09.337 DPS112 $GPZDA,200209.31,28,05,2024,,*66
NAV 2024/05/28 20:02:09.427 DPS112 $GPGGA,200209.00,4131.436203,N,07040.330001,W,2,11,1.1,19.86,M,-33.66,M,13.0,1007*70
NAV 2024/05/28 20:02:09.483 DPS112 $GPGLL,4131.436203,N,07040.330001,W,200209.00,A,D*72
NAV 2024/05/28 20:02:09.521 DPS112 $GPVTG,86.36,T,,M,0.0,N,0.0,K,A*06
NAV 2024/05/28 20:02:10.337 DPS112 $GPZDA,200210.31,28,05,2024,,*6E
NAV 2024/05/28 20:02:10.426 DPS112 $GPGGA,200210.00,4131.436202,N,07040.329998,W,2,11,1.1,19.85,M,-33.66,M,14.0,1007*7C
NAV 2024/05/28 20:02:10.483 DPS112 $GPGLL,4131.436202,N,07040.329998,W,200210.00,A,D*7A
NAV 2024/05/28 20:02:10.521 DPS112 $GPVTG,129.48,T,,M,0.0,N,0.0,K,A*3B
NAV 2024/05/28 20:02:11.337 DPS112 $GPZDA,200211.31,28,05,2024,,*6F
NAV 2024/05/28 20:02:11.427 DPS112 $GPGGA,200211.00,4131.436203,N,07040.329998,W,2,11,1.1,19.84,M,-33.66,M,10.0,1007*79
NAV 2024/05/28 20:02:11.483 DPS112 $GPGLL,4131.436203,N,07040.329998,W,200211.00,A,D*7A
NAV 2024/05/28 20:02:11.521 DPS112 $GPVTG,160.17,T,,M,0.0,N,0.0,K,A*3C
NAV 2024/05/28 20:02:12.332 DPS112 $GPZDA,200212.31,28,05,2024,,*6C
NAV 2024/05/28 20:02:12.422 DPS112 $GPGGA,200212.00,4131.436203,N,07040.329998,W,2,11,1.1,19.84,M,-33.66,M,11.0,1007*7B
NAV 2024/05/28 20:02:12.478 DPS112 $GPGLL,4131.436203,N,07040.329998,W,200212.00,A,D*79
NAV 2024/05/28 20:02:12.515 DPS112 $GPVTG,51.97,T,,M,0.0,N,0.0,K,A*07
NAV 2024/05/28 20:02:13.336 DPS112 $GPZDA,200213.31,28,05,2024,,*6D
NAV 2024/05/28 20:02:13.426 DPS112 $GPGGA,200213.00,4131.436202,N,07040.330000,W,2,11,1.1,19.85,M,-33.66,M,12.0,1007*79
NAV 2024/05/28 20:02:13.482 DPS112 $GPGLL,4131.436202,N,07040.330000,W,200213.00,A,D*79
NAV 2024/05/28 20:02:13.521 DPS112 $GPVTG,247.89,T,,M,0.0,N,0.0,K,A*3D
NAV 2024/05/28 20:02:14.332 DPS112 $GPZDA,200214.31,28,05,2024,,*6A
NAV 2024/05/28 20:02:14.420 DPS112 $GPGGA,200214.00,4131.436207,N,07040.330008,W,2,11,1.1,19.86,M,-33.66,M,9.0,1007*4A
NAV 2024/05/28 20:02:14.477 DPS112 $GPGLL,4131.436207,N,07040.330008,W,200214.00,A,D*73
NAV 2024/05/28 20:02:14.515 DPS112 $GPVTG,297.38,T,,M,0.0,N,0.0,K,A*3A
NAV 2024/05/28 20:02:15.336 DPS112 $GPZDA,200215.31,28,05,2024,,*6B
NAV 2024/05/28 20:02:15.426 DPS112 $GPGGA,200215.00,4131.436212,N,07040.330014,W,2,11,1.1,19.85,M,-33.66,M,10.0,1007*79
NAV 2024/05/28 20:02:15.482 DPS112 $GPGLL,4131.436212,N,07040.330014,W,200215.00,A,D*7B
NAV 2024/05/28 20:02:15.521 DPS112 $GPVTG,310.12,T,,M,0.0,N,0.0,K,A*3C
NAV 2024/05/28 20:02:16.341 DPS112 $GPZDA,200216.32,28,05,2024,,*6B
NAV 2024/05/28 20:02:16.430 DPS112 $GPGGA,200216.00,4131.436215,N,07040.330013,W,2,11,1.1,19.85,M,-33.66,M,11.0,1007*7B
NAV 2024/05/28 20:02:16.487 DPS112 $GPGLL,4131.436215,N,07040.330013,W,200216.00,A,D*78
NAV 2024/05/28 20:02:16.524 DPS112 $GPVTG,80.08,T,,M,0.0,N,0.0,K,A*0D
NAV 2024/05/28 20:02:17.335 DPS112 $GPZDA,200217.31,28,05,2024,,*69
NAV 2024/05/28 20:02:17.423 DPS112 $GPGGA,200217.00,4131.436215,N,07040.330004,W,2,11,1.1,19.84,M,-33.66,M,7.0,1007*4A
NAV 2024/05/28 20:02:17.479 DPS112 $GPGLL,4131.436215,N,07040.330004,W,200217.00,A,D*7F
NAV 2024/05/28 20:02:17.518 DPS112 $GPVTG,125.60,T,,M,0.0,N,0.0,K,A*3D
NAV 2024/05/28 20:02:18.339 DPS112 $GPZDA,200218.32,28,05,2024,,*65
NAV 2024/05/28 20:02:18.427 DPS112 $GPGGA,200218.00,4131.436219,N,07040.330002,W,2,11,1.1,19.83,M,-33.66,M,8.0,1007*47
NAV 2024/05/28 20:02:18.484 DPS112 $GPGLL,4131.436219,N,07040.330002,W,200218.00,A,D*7A
NAV 2024/05/28 20:02:18.521 DPS112 $GPVTG,98.65,T,,M,0.0,N,0.0,K,A*0F
NAV 2024/05/28 20:02:19.334 DPS112 $GPZDA,200219.31,28,05,2024,,*67
NAV 2024/05/28 20:02:19.423 DPS112 $GPGGA,200219.00,4131.436219,N,07040.329995,W,2,11,1.1,19.83,M,-33.66,M,9.0,1007*48
NAV 2024/05/28 20:02:19.479 DPS112 $GPGLL,4131.436219,N,07040.329995,W,200219.00,A,D*74
NAV 2024/05/28 20:02:19.517 DPS112 $GPVTG,103.36,T,,M,0.0,N,0.0,K,A*3A
NAV 2024/05/28 20:02:20.341 DPS112 $GPZDA,200220.32,28,05,2024,,*6E
NAV 2024/05/28 20:02:20.430 DPS112 $GPGGA,200220.00,4131.436224,N,07040.329997,W,2,11,1.1,19.81,M,-33.66,M,10.0,1007*74
NAV 2024/05/28 20:02:20.487 DPS112 $GPGLL,4131.436224,N,07040.329997,W,200220.00,A,D*72
NAV 2024/05/28 20:02:20.523 DPS112 $GPVTG,9.27,T,,M,0.0,N,0.0,K,A*31
NAV 2024/05/28 20:02:21.334 DPS112 $GPZDA,200221.31,28,05,2024,,*6C
NAV 2024/05/28 20:02:21.423 DPS112 $GPGGA,200221.00,4131.436229,N,07040.329996,W,2,11,1.1,19.81,M,-33.66,M,11.0,1007*78
NAV 2024/05/28 20:02:21.480 DPS112 $GPGLL,4131.436229,N,07040.329996,W,200221.00,A,D*7F
NAV 2024/05/28 20:02:21.517 DPS112 $GPVTG,43.87,T,,M,0.0,N,0.0,K,A*05
NAV 2024/05/28 20:02:22.338 DPS112 $GPZDA,200222.31,28,05,2024,,*6F
NAV 2024/05/28 20:02:22.427 DPS112 $GPGGA,200222.00,4131.436235,N,07040.330005,W,2,11,1.1,19.79,M,-33.66,M,12.0,1007*79
NAV 2024/05/28 20:02:22.484 DPS112 $GPGLL,4131.436235,N,07040.330005,W,200222.00,A,D*7A
NAV 2024/05/28 20:02:22.522 DPS112 $GPVTG,310.91,T,,M,0.0,N,0.1,K,A*36
NAV 2024/05/28 20:02:23.333 DPS112 $GPZDA,200223.31,28,05,2024,,*6E
NAV 2024/05/28 20:02:23.423 DPS112 $GPGGA,200223.00,4131.436232,N,07040.330011,W,2,11,1.1,19.81,M,-33.66,M,13.0,1007*7C
NAV 2024/05/28 20:02:23.479 DPS112 $GPGLL,4131.436232,N,07040.330011,W,200223.00,A,D*79
NAV 2024/05/28 20:02:23.518 DPS112 $GPVTG,222.04,T,,M,0.0,N,0.0,K,A*3B
NAV 2024/05/28 20:02:24.338 DPS112 $GPZDA,200224.31,28,05,2024,,*69
NAV 2024/05/28 20:02:24.426 DPS112 $GPGGA,200224.00,4131.436234,N,07040.330006,W,2,11,1.1,19.82,M,-33.66,M,7.0,1007*4D
NAV 2024/05/28 20:02:24.483 DPS112 $GPGLL,4131.436234,N,07040.330006,W,200224.00,A,D*7E
NAV 2024/05/28 20:02:24.521 DPS112 $GPVTG,217.08,T,,M,0.0,N,0.0,K,A*31
NAV 2024/05/28 20:02:25.356 DPS112 $GPZDA,200225.33,28,05,2024,,*6A
NAV 2024/05/28 20:02:25.444 DPS112 $GPGGA,200225.00,4131.436237,N,07040.330005,W,2,11,1.1,19.82,M,-33.66,M,8.0,1007*43
NAV 2024/05/28 20:02:25.501 DPS112 $GPGLL,4131.436237,N,07040.330005,W,200225.00,A,D*7F
NAV 2024/05/28 20:02:25.539 DPS112 $GPVTG,123.38,T,,M,0.0,N,0.0,K,A*36
NAV 2024/05/28 20:02:26.336 DPS112 $GPZDA,200226.31,28,05,2024,,*6B
NAV 2024/05/28 20:02:26.426 DPS112 $GPGGA,200226.00,4131.436240,N,07040.330003,W,2,11,1.1,19.81,M,-33.66,M,9.0,1007*44
NAV 2024/05/28 20:02:26.482 DPS112 $GPGLL,4131.436240,N,07040.330003,W,200226.00,A,D*7A
NAV 2024/05/28 20:02:26.519 DPS112 $GPVTG,11.34,T,,M,0.0,N,0.0,K,A*0A
NAV 2024/05/28 20:02:27.332 DPS112 $GPZDA,200227.31,28,05,2024,,*6A
NAV 2024/05/28 20:02:27.422 DPS112 $GPGGA,200227.00,4131.436240,N,07040.329997,W,2,11,1.1,19.80,M,-33.66,M,10.0,1007*70
NAV 2024/05/28 20:02:27.478 DPS112 $GPGLL,4131.436240,N,07040.329997,W,200227.00,A,D*77
NAV 2024/05/28 20:02:27.515 DPS112 $GPVTG,75.99,T,,M,0.0,N,0.0,K,A*0F
NAV 2024/05/28 20:02:28.336 DPS112 $GPZDA,200228.31,28,05,2024,,*65
NAV 2024/05/28 20:02:28.426 DPS112 $GPGGA,200228.00,4131.436230,N,07040.329990,W,2,11,1.1,19.81,M,-33.66,M,11.0,1007*7F
NAV 2024/05/28 20:02:28.482 DPS112 $GPGLL,4131.436230,N,07040.329990,W,200228.00,A,D*78
NAV 2024/05/28 20:02:28.520 DPS112 $GPVTG,157.70,T,,M,0.0,N,0.1,K,A*38
NAV 2024/05/28 20:02:29.340 DPS112 $GPZDA,200229.32,28,05,2024,,*67
NAV 2024/05/28 20:02:29.430 DPS112 $GPGGA,200229.00,4131.436233,N,07040.329989,W,2,11,1.1,19.79,M,-33.66,M,12.0,1007*71
NAV 2024/05/28 20:02:29.486 DPS112 $GPGLL,4131.436233,N,07040.329989,W,200229.00,A,D*72
NAV 2024/05/28 20:02:29.523 DPS112 $GPVTG,3.50,T,,M,0.0,N,0.0,K,A*3B
NAV 2024/05/28 20:02:30.336 DPS112 $GPZDA,200230.31,28,05,2024,,*6C
NAV 2024/05/28 20:02:30.425 DPS112 $GPGGA,200230.00,4131.436232,N,07040.329988,W,2,11,1.1,19.80,M,-33.66,M,13.0,1007*7E
NAV 2024/05/28 20:02:30.481 DPS112 $GPGLL,4131.436232,N,07040.329988,W,200230.00,A,D*7A
NAV 2024/05/28 20:02:30.520 DPS112 $GPVTG,143.36,T,,M,0.0,N,0.0,K,A*3E
NAV 2024/05/28 20:02:31.331 DPS112 $GPZDA,200231.31,28,05,2024,,*6D
NAV 2024/05/28 20:02:31.419 DPS112 $GPGGA,200231.00,4131.436234,N,07040.329991,W,2,11,1.1,19.82,M,-33.66,M,9.0,1007*48
NAV 2024/05/28 20:02:31.476 DPS112 $GPGLL,4131.436234,N,07040.329991,W,200231.00,A,D*75
NAV 2024/05/28 20:02:31.514 DPS112 $GPVTG,254.82,T,,M,0.0,N,0.0,K,A*34
NAV 2024/05/28 20:02:32.335 DPS112 $GPZDA,200232.31,28,05,2024,,*6E
NAV 2024/05/28 20:02:32.425 DPS112 $GPGGA,200232.00,4131.436238,N,07040.329993,W,2,11,1.1,19.82,M,-33.66,M,10.0,1007*7D
NAV 2024/05/28 20:02:32.481 DPS112 $GPGLL,4131.436238,N,07040.329993,W,200232.00,A,D*78
NAV 2024/05/28 20:02:32.520 DPS112 $GPVTG,315.37,T,,M,0.0,N,0.0,K,A*3E
NAV 2024/05/28 20:02:33.340 DPS112 $GPZDA,200233.32,28,05,2024,,*6C
NAV 2024/05/28 20:02:33.429 DPS112 $GPGGA,200233.00,4131.436238,N,07040.329997,W,2,11,1.1,19.82,M,-33.66,M,11.0,1007*79
NAV 2024/05/28 20:02:33.485 DPS112 $GPGLL,4131.436238,N,07040.329997,W,200233.00,A,D*7D
NAV 2024/05/28 20:02:33.524 DPS112 $GPVTG,229.93,T,,M,0.0,N,0.0,K,A*3E
NAV 2024/05/28 20:02:34.335 DPS112 $GPZDA,200234.31,28,05,2024,,*68
NAV 2024/05/28 20:02:34.424 DPS112 $GPGGA,200234.00,4131.436236,N,07040.329997,W,2,11,1.1,19.81,M,-33.66,M,12.0,1007*70
NAV 2024/05/28 20:02:34.481 DPS112 $GPGLL,4131.436236,N,07040.329997,W,200234.00,A,D*74
NAV 2024/05/28 20:02:34.519 DPS112 $GPVTG,169.22,T,,M,0.0,N,0.0,K,A*33
NAV 2024/05/28 20:02:35.339 DPS112 $GPZDA,200235.31,28,05,2024,,*69
NAV 2024/05/28 20:02:35.429 DPS112 $GPGGA,200235.00,4131.436238,N,07040.329995,W,2,11,1.1,19.79,M,-33.66,M,13.0,1007*7B
NAV 2024/05/28 20:02:35.484 DPS112 $GPGLL,4131.436238,N,07040.329995,W,200235.00,A,D*79
NAV 2024/05/28 20:02:35.523 DPS112 $GPVTG,108.44,T,,M,0.0,N,0.0,K,A*34
NAV 2024/05/28 20:02:36.333 DPS112 $GPZDA,200236.31,28,05,2024,,*6A
NAV 2024/05/28 20:02:36.423 DPS112 $GPGGA,200236.00,4131.436241,N,07040.329994,W,2,11,1.1,19.78,M,-33.66,M,14.0,1007*71
NAV 2024/05/28 20:02:36.479 DPS112 $GPGLL,4131.436241,N,07040.329994,W,200236.00,A,D*75
NAV 2024/05/28 20:02:36.517 DPS112 $GPVTG,52.15,T,,M,0.0,N,0.0,K,A*0E
NAV 2024/05/28 20:02:37.338 DPS112 $GPZDA,200237.31,28,05,2024,,*6B
NAV 2024/05/28 20:02:37.427 DPS112 $GPGGA,200237.00,4131.436243,N,07040.329989,W,2,11,1.1,19.78,M,-33.66,M,8.0,1007*43
NAV 2024/05/28 20:02:37.483 DPS112 $GPGLL,4131.436243,N,07040.329989,W,200237.00,A,D*7A
NAV 2024/05/28 20:02:37.522 DPS112 $GPVTG,101.82,T,,M,0.0,N,0.0,K,A*37
NAV 2024/05/28 20:02:38.333 DPS112 $GPZDA,200238.31,28,05,2024,,*64
NAV 2024/05/28 20:02:38.422 DPS112 $GPGGA,200238.00,4131.436246,N,07040.329990,W,2,11,1.1,19.78,M,-33.66,M,9.0,1007*40
NAV 2024/05/28 20:02:38.478 DPS112 $GPGLL,4131.436246,N,07040.329990,W,200238.00,A,D*78
NAV 2024/05/28 20:02:38.516 DPS112 $GPVTG,49.02,T,,M,0.0,N,0.0,K,A*02
NAV 2024/05/28 20:02:39.337 DPS112 $GPZDA,200239.31,28,05,2024,,*65
NAV 2024/05/28 20:02:39.427 DPS112 $GPGGA,200239.00,4131.436250,N,07040.329993,W,2,11,1.1,19.77,M,-33.66,M,10.0,1007*72
NAV 2024/05/28 20:02:39.483 DPS112 $GPGLL,4131.436250,N,07040.329993,W,200239.00,A,D*7D
NAV 2024/05/28 20:02:39.521 DPS112 $GPVTG,52.12,T,,M,0.0,N,0.0,K,A*09
NAV 2024/05/28 20:02:40.333 DPS112 $GPZDA,200240.31,28,05,2024,,*6B
NAV 2024/05/28 20:02:40.422 DPS112 $GPGGA,200240.00,4131.436250,N,07040.329992,W,2,11,1.1,19.77,M,-33.66,M,11.0,1007*7C
NAV 2024/05/28 20:02:40.479 DPS112 $GPGLL,4131.436250,N,07040.329992,W,200240.00,A,D*72
NAV 2024/05/28 20:02:40.517 DPS112 $GPVTG,134.92,T,,M,0.0,N,0.0,K,A*30
NAV 2024/05/28 20:02:41.337 DPS112 $GPZDA,200241.31,28,05,2024,,*6A
NAV 2024/05/28 20:02:41.426 DPS112 $GPGGA,200241.00,4131.436255,N,07040.329989,W,2,11,1.1,19.76,M,-33.66,M,8.0,1007*4B
NAV 2024/05/28 20:02:41.482 DPS112 $GPGLL,4131.436255,N,07040.329989,W,200241.00,A,D*7C
NAV 2024/05/28 20:02:41.519 DPS112 $GPVTG,51.21,T,,M,0.0,N,0.0,K,A*0A
NAV 2024/05/28 20:02:42.332 DPS112 $GPZDA,200242.31,28,05,2024,,*69
NAV 2024/05/28 20:02:42.421 DPS112 $GPGGA,200242.00,4131.436264,N,07040.329983,W,2,11,1.1,19.75,M,-33.66,M,9.0,1007*42
NAV 2024/05/28 20:02:42.477 DPS112 $GPGLL,4131.436264,N,07040.329983,W,200242.00,A,D*77
NAV 2024/05/28 20:02:42.515 DPS112 $GPVTG,53.91,T,,M,0.0,N,0.0,K,A*03
NAV 2024/05/28 20:02:43.337 DPS112 $GPZDA,200243.31,28,05,2024,,*68
NAV 2024/05/28 20:02:43.426 DPS112 $GPGGA,200243.00,4131.436270,N,07040.329982,W,2,11,1.1,19.76,M,-33.66,M,10.0,1007*7C
NAV 2024/05/28 20:02:43.482 DPS112 $GPGLL,4131.436270,N,07040.329982,W,200243.00,A,D*72
NAV 2024/05/28 20:02:43.520 DPS112 $GPVTG,51.46,T,,M,0.0,N,0.0,K,A*0B
NAV 2024/05/28 20:02:44.341 DPS112 $GPZDA,200244.32,28,05,2024,,*6C
NAV 2024/05/28 20:02:44.431 DPS112 $GPGGA,200244.00,4131.436274,N,07040.329982,W,2,11,1.1,19.75,M,-33.66,M,11.0,1007*7D
NAV 2024/05/28 20:02:44.487 DPS112 $GPGLL,4131.436274,N,07040.329982,W,200244.00,A,D*71
NAV 2024/05/28 20:02:44.524 DPS112 $GPVTG,76.10,T,,M,0.0,N,0.0,K,A*0D
NAV 2024/05/28 20:02:45.335 DPS112 $GPZDA,200245.31,28,05,2024,,*6E
NAV 2024/05/28 20:02:45.425 DPS112 $GPGGA,200245.00,4131.436276,N,07040.329978,W,2,11,1.1,19.75,M,-33.66,M,12.0,1007*78
NAV 2024/05/28 20:02:45.481 DPS112 $GPGLL,4131.436276,N,07040.329978,W,200245.00,A,D*77
NAV 2024/05/28 20:02:45.521 DPS112 $GPVTG,118.97,T,,M,0.0,N,0.0,K,A*3B
NAV 2024/05/28 20:02:46.330 DPS112 $GPZDA,200246.31,28,05,2024,,*6D
NAV 2024/05/28 20:02:46.420 DPS112 $GPGGA,200246.00,4131.436282,N,07040.329974,W,2,11,1.1,19.74,M,-33.66,M,13.0,1007*7C
NAV 2024/05/28 20:02:46.476 DPS112 $GPGLL,4131.436282,N,07040.329974,W,200246.00,A,D*73
NAV 2024/05/28 20:02:46.514 DPS112 $GPVTG,61.20,T,,M,0.0,N,0.0,K,A*08
NAV 2024/05/28 20:02:47.335 DPS112 $GPZDA,200247.31,28,05,2024,,*6C
NAV 2024/05/28 20:02:47.424 DPS112 $GPGGA,200247.00,4131.436284,N,07040.329976,W,2,11,1.1,19.73,M,-33.66,M,14.0,1007*79
NAV 2024/05/28 20:02:47.481 DPS112 $GPGLL,4131.436284,N,07040.329976,W,200247.00,A,D*76
NAV 2024/05/28 20:02:47.519 DPS112 $GPVTG,106.18,T,,M,0.0,N,0.0,K,A*33
NAV 2024/05/28 20:02:48.339 DPS112 $GPZDA,200248.32,28,05,2024,,*60
NAV 2024/05/28 20:02:48.429 DPS112 $GPGGA,200248.00,4131.436289,N,07040.329982,W,2,11,1.1,19.74,M,-33.66,M,15.0,1007*76
NAV 2024/05/28 20:02:48.485 DPS112 $GPGLL,4131.436289,N,07040.329982,W,200248.00,A,D*7F
NAV 2024/05/28 20:02:48.523 DPS112 $GPVTG,323.95,T,,M,0.0,N,0.0,K,A*33
NAV 2024/05/28 20:02:49.334 DPS112 $GPZDA,200249.31,28,05,2024,,*62
NAV 2024/05/28 20:02:49.424 DPS112 $GPGGA,200249.00,4131.436290,N,07040.329986,W,2,11,1.1,19.74,M,-33.66,M,16.0,1007*78
NAV 2024/05/28 20:02:49.480 DPS112 $GPGLL,4131.436290,N,07040.329986,W,200249.00,A,D*72
NAV 2024/05/28 20:02:49.519 DPS112 $GPVTG,185.58,T,,M,0.0,N,0.0,K,A*3C
NAV 2024/05/28 20:02:50.339 DPS112 $GPZDA,200250.31,28,05,2024,,*6A
NAV 2024/05/28 20:02:50.428 DPS112 $GPGGA,200250.00,4131.436289,N,07040.329992,W,2,11,1.1,19.72,M,-33.66,M,17.0,1007*7A
NAV 2024/05/28 20:02:50.484 DPS112 $GPGLL,4131.436289,N,07040.329992,W,200250.00,A,D*77
NAV 2024/05/28 20:02:50.523 DPS112 $GPVTG,223.79,T,,M,0.0,N,0.0,K,A*30
NAV 2024/05/28 20:02:51.334 DPS112 $GPZDA,200251.31,28,05,2024,,*6B
NAV 2024/05/28 20:02:51.424 DPS112 $GPGGA,200251.00,4131.436292,N,07040.329989,W,2,11,1.1,19.71,M,-33.66,M,11.0,1007*7E
NAV 2024/05/28 20:02:51.480 DPS112 $GPGLL,4131.436292,N,07040.329989,W,200251.00,A,D*76
NAV 2024/05/28 20:02:51.519 DPS112 $GPVTG,144.02,T,,M,0.0,N,0.0,K,A*3E
NAV 2024/05/28 20:02:52.338 DPS112 $GPZDA,200252.31,28,05,2024,,*68
NAV 2024/05/28 20:02:52.428 DPS112 $GPGGA,200252.00,4131.436295,N,07040.329991,W,2,11,1.1,19.69,M,-33.66,M,12.0,1007*79
NAV 2024/05/28 20:02:52.484 DPS112 $GPGLL,4131.436295,N,07040.329991,W,200252.00,A,D*7B
NAV 2024/05/28 20:02:52.523 DPS112 $GPVTG,358.53,T,,M,0.0,N,0.0,K,A*35
NAV 2024/05/28 20:02:53.334 DPS112 $GPZDA,200253.31,28,05,2024,,*69
