NAV 2024/05/28 20:00:00.281 CNAV $GPZDA,200000.00,28,05,2024,00,00*6F
NAV 2024/05/28 20:00:00.357 CNAV $GPRMC,200000.00,A,4131.440987,N,07040.337007,W,0.01,63.4,280524,,,D*40
NAV 2024/05/28 20:00:00.395 CNAV $GPVTG,63.4,T,,M,0.01,N,0.02,K,D*3A
NAV 2024/05/28 20:00:00.487 CNAV $GPGGA,200000.00,4131.440987,N,07040.337007,W,2,17,0.9,18.281,M,-30.109,M,26.0,0000*7C
NAV 2024/05/28 20:00:01.297 CNAV $GPZDA,200001.00,28,05,2024,00,00*6E
NAV 2024/05/28 20:00:01.371 CNAV $GPRMC,200001.00,A,4131.440994,N,07040.337013,W,0.01,0.0,280524,,,D*77
NAV 2024/05/28 20:00:01.408 CNAV $GPVTG,0.0,T,,M,0.01,N,0.02,K,D*0B
NAV 2024/05/28 20:00:01.503 CNAV $GPGGA,200001.00,4131.440994,N,07040.337013,W,2,17,0.9,18.277,M,-30.109,M,27.0,0000*72
NAV 2024/05/28 20:00:02.262 CNAV $GPZDA,200002.00,28,05,2024,00,00*6D
NAV 2024/05/28 20:00:02.339 CNAV $GPRMC,200002.00,A,4131.440995,N,07040.337018,W,0.01,323.1,280524,,,D*7D
NAV 2024/05/28 20:00:02.379 CNAV $GPVTG,323.1,T,,M,0.01,N,0.02,K,D*08
NAV 2024/05/28 20:00:02.470 CNAV $GPGGA,200002.00,4131.440995,N,07040.337018,W,2,17,0.9,18.267,M,-30.109,M,28.0,0000*75
NAV 2024/05/28 20:00:03.286 CNAV $GPZDA,200003.00,28,05,2024,00,00*6C
NAV 2024/05/28 20:00:03.364 CNAV $GPRMC,200003.00,A,4131.440993,N,07040.337022,W,0.01,284.0,280524,,,D*7E
NAV 2024/05/28 20:00:03.403 CNAV $GPVTG,284.0,T,,M,0.01,N,0.01,K,D*06
NAV 2024/05/28 20:00:03.495 CNAV $GPGGA,200003.00,4131.440993,N,07040.337022,W,2,17,0.9,18.276,M,-30.109,M,29.0,0000*7A
NAV 2024/05/28 20:00:04.301 CNAV $GPZDA,200004.00,28,05,2024,00,00*6B
NAV 2024/05/28 20:00:04.378 CNAV $GPRMC,200004.00,A,4131.440991,N,07040.337023,W,0.01,270.0,280524,,,D*71
NAV 2024/05/28 20:00:04.418 CNAV $GPVTG,270.0,T,,M,0.01,N,0.01,K,D*0D
NAV 2024/05/28 20:00:04.509 CNAV $GPGGA,200004.00,4131.440991,N,07040.337023,W,2,17,0.9,18.279,M,-30.109,M,30.0,0000*79
NAV 2024/05/28 20:00:05.274 CNAV $GPZDA,200005.00,28,05,2024,00,00*6A
NAV 2024/05/28 20:00:05.350 CNAV $GPRMC,200005.00,A,4131.440992,N,07040.337016,W,0.00,63.4,280524,,,D*40
NAV 2024/05/28 20:00:05.389 CNAV $GPVTG,63.4,T,,M,0.00,N,0.01,K,D*38
NAV 2024/05/28 20:00:05.480 CNAV $GPGGA,200005.00,4131.440992,N,07040.337016,W,2,17,0.9,18.275,M,-30.109,M,31.0,0000*70
NAV 2024/05/28 20:00:06.246 CNAV $GPZDA,200006.00,28,05,2024,00,00*69
NAV 2024/05/28 20:00:06.322 CNAV $GPRMC,200006.00,A,4131.440993,N,07040.337006,W,0.01,80.5,280524,,,D*4E
NAV 2024/05/28 20:00:06.361 CNAV $GPVTG,80.5,T,,M,0.01,N,0.02,K,D*36
NAV 2024/05/28 20:00:06.452 CNAV $GPGGA,200006.00,4131.440993,N,07040.337006,W,2,17,0.9,18.266,M,-30.109,M,32.0,0000*72
NAV 2024/05/28 20:00:07.314 CNAV $GPZDA,200007.00,28,05,2024,00,00*68
NAV 2024/05/28 20:00:07.391 CNAV $GPRMC,200007.00,A,4131.440990,N,07040.337006,W,0.01,116.6,280524,,,D*71
NAV 2024/05/28 20:00:07.431 CNAV $GPVTG,116.6,T,,M,0.01,N,0.02,K,D*0B
NAV 2024/05/28 20:00:07.523 CNAV $GPGGA,200007.00,4131.440990,N,07040.337006,W,2,17,0.9,18.268,M,-30.109,M,33.0,0000*7F
NAV 2024/05/28 20:00:08.282 CNAV $GPZDA,200008.00,28,05,2024,00,00*67
NAV 2024/05/28 20:00:08.358 CNAV $GPRMC,200008.00,A,4131.440991,N,07040.337010,W,0.00,90.0,280524,,,D*40
NAV 2024/05/28 20:00:08.397 CNAV $GPVTG,90.0,T,,M,0.00,N,0.00,K,D*31
NAV 2024/05/28 20:00:08.489 CNAV $GPGGA,200008.00,4131.440991,N,07040.337010,W,2,17,0.9,18.261,M,-30.109,M,34.0,0000*78
NAV 2024/05/28 20:00:09.257 CNAV $GPZDA,200009.00,28,05,2024,00,00*66
NAV 2024/05/28 20:00:09.334 CNAV $GPRMC,200009.00,A,4131.440996,N,07040.337021,W,0.01,301.0,280524,,,D*7E
NAV 2024/05/28 20:00:09.374 CNAV $GPVTG,301.0,T,,M,0.01,N,0.02,K,D*09
NAV 2024/05/28 20:00:09.466 CNAV $GPGGA,200009.00,4131.440996,N,07040.337021,W,2,17,0.9,18.252,M,-30.109,M,35.0,0000*7D
NAV 2024/05/28 20:00:10.273 CNAV $GPZDA,200010.00,28,05,2024,00,00*6E
NAV 2024/05/28 20:00:10.351 CNAV $GPRMC,200010.00,A,4131.440999,N,07040.337033,W,0.02,294.0,280524,,,D*74
NAV 2024/05/28 20:00:10.390 CNAV $GPVTG,294.0,T,,M,0.02,N,0.03,K,D*06
NAV 2024/05/28 20:00:10.483 CNAV $GPGGA,200010.00,4131.440999,N,07040.337033,W,2,17,0.9,18.258,M,-30.109,M,36.0,0000*70
NAV 2024/05/28 20:00:11.289 CNAV $GPZDA,200011.00,28,05,2024,00,00*6F
NAV 2024/05/28 20:00:11.365 CNAV $GPRMC,200011.00,A,4131.441005,N,07040.337037,W,0.02,307.9,280524,,,D*7E
NAV 2024/05/28 20:00:11.405 CNAV $GPVTG,307.9,T,,M,0.02,N,0.04,K,D*03
NAV 2024/05/28 20:00:11.497 CNAV $GPGGA,200011.00,4131.441005,N,07040.337037,W,2,17,0.9,18.245,M,-30.109,M,37.0,0000*75
NAV 2024/05/28 20:00:12.258 CNAV $GPZDA,200012.00,28,05,2024,00,00*6C
NAV 2024/05/28 20:00:12.335 CNAV $GPRMC,200012.00,A,4131.441004,N,07040.337037,W,0.01,308.7,280524,,,D*7E
NAV 2024/05/28 20:00:12.375 CNAV $GPVTG,308.7,T,,M,0.01,N,0.02,K,D*07
NAV 2024/05/28 20:00:12.467 CNAV $GPGGA,200012.00,4131.441004,N,07040.337037,W,2,17,0.9,18.238,M,-30.109,M,38.0,0000*72
NAV 2024/05/28 20:00:13.273 CNAV $GPZDA,200013.00,28,05,2024,00,00*6D
NAV 2024/05/28 20:00:13.350 CNAV $GPRMC,200013.00,A,4131.440997,N,07040.337033,W,0.00,206.6,280524,,,D*76
NAV 2024/05/28 20:00:13.390 CNAV $GPVTG,206.6,T,,M,0.00,N,0.01,K,D*0B
NAV 2024/05/28 20:00:13.482 CNAV $GPGGA,200013.00,4131.440997,N,07040.337033,W,2,17,0.9,18.247,M,-30.109,M,39.0,0000*7C
NAV 2024/05/28 20:00:14.288 CNAV $GPZDA,200014.00,28,05,2024,00,00*6A
NAV 2024/05/28 20:00:14.365 CNAV $GPRMC,200014.00,A,4131.440990,N,07040.337025,W,0.01,156.8,280524,,,D*78
NAV 2024/05/28 20:00:14.405 CNAV $GPVTG,156.8,T,,M,0.01,N,0.03,K,D*00
NAV 2024/05/28 20:00:14.497 CNAV $GPGGA,200014.00,4131.440990,N,07040.337025,W,2,17,0.9,18.241,M,-30.109,M,40.0,0000*73
NAV 2024/05/28 20:00:15.308 CNAV $GPZDA,200015.00,28,05,2024,00,00*6B
NAV 2024/05/28 20:00:15.385 CNAV $GPRMC,200015.00,A,4131.440988,N,07040.337014,W,0.02,126.9,280524,,,D*77
NAV 2024/05/28 20:00:15.425 CNAV $GPVTG,126.9,T,,M,0.02,N,0.04,K,D*02
NAV 2024/05/28 20:00:15.517 CNAV $GPGGA,200015.00,4131.440988,N,07040.337014,W,2,17,0.9,18.239,M,-30.109,M,41.0,0000*77
NAV 2024/05/28 20:00:16.274 CNAV $GPZDA,200016.00,28,05,2024,00,00*68
NAV 2024/05/28 20:00:16.351 CNAV $GPRMC,200016.00,A,4131.440987,N,07040.337013,W,0.01,123.7,280524,,,D*74
NAV 2024/05/28 20:00:16.390 CNAV $GPVTG,123.7,T,,M,0.01,N,0.03,K,D*0D
NAV 2024/05/28 20:00:16.482 CNAV $GPGGA,200016.00,4131.440987,N,07040.337013,W,2,17,0.9,18.230,M,-30.109,M,42.0,0000*76
NAV 2024/05/28 20:00:17.287 CNAV $GPZDA,200017.00,28,05,2024,00,00*69
NAV 2024/05/28 20:00:17.365 CNAV $GPRMC,200017.00,A,4131.440989,N,07040.337018,W,0.00,135.0,280524,,,D*71
NAV 2024/05/28 20:00:17.404 CNAV $GPVTG,135.0,T,,M,0.00,N,0.00,K,D*0F
NAV 2024/05/28 20:00:17.496 CNAV $GPGGA,200017.00,4131.440989,N,07040.337018,W,2,17,0.9,18.240,M,-30.109,M,43.0,0000*74
NAV 2024/05/28 20:00:18.259 CNAV $GPZDA,200018.00,28,05,2024,00,00*66
NAV 2024/05/28 20:00:18.337 CNAV $GPRMC,200018.00,A,4131.440991,N,07040.337033,W,0.01,270.0,280524,,,D*7D
NAV 2024/05/28 20:00:18.376 CNAV $GPVTG,270.0,T,,M,0.01,N,0.02,K,D*0E
NAV 2024/05/28 20:00:18.468 CNAV $GPGGA,200018.00,4131.440991,N,07040.337033,W,2,17,0.9,18.221,M,-30.109,M,44.0,0000*7B
NAV 2024/05/28 20:00:19.224 CNAV $GPZDA,200019.00,28,05,2024,00,00*67
NAV 2024/05/28 20:00:19.301 CNAV $GPRMC,200019.00,A,4131.440991,N,07040.337040,W,0.02,270.0,280524,,,D*7B
NAV 2024/05/28 20:00:19.340 CNAV $GPVTG,270.0,T,,M,0.02,N,0.03,K,D*0C
NAV 2024/05/28 20:00:19.432 CNAV $GPGGA,200019.00,4131.440991,N,07040.337040,W,2,17,0.9,18.212,M,-30.109,M,45.0,0000*7F
NAV 2024/05/28 20:00:20.287 CNAV $GPZDA,200020.00,28,05,2024,00,00*6D
NAV 2024/05/28 20:00:20.365 CNAV $GPRMC,200020.00,A,4131.440993,N,07040.337042,W,0.01,288.4,280524,,,D*71
NAV 2024/05/28 20:00:20.404 CNAV $GPVTG,288.4,T,,M,0.01,N,0.02,K,D*0D
NAV 2024/05/28 20:00:20.496 CNAV $GPGGA,200020.00,4131.440993,N,07040.337042,W,2,17,0.9,18.209,M,-30.109,M,46.0,0000*7C
NAV 2024/05/28 20:00:21.257 CNAV $GPZDA,200021.00,28,05,2024,00,00*6C
NAV 2024/05/28 20:00:21.334 CNAV $GPRMC,200021.00,A,4131.440994,N,07040.337036,W,0.00,333.4,280524,,,D*74
NAV 2024/05/28 20:00:21.373 CNAV $GPVTG,333.4,T,,M,0.00,N,0.01,K,D*0E
NAV 2024/05/28 20:00:21.465 CNAV $GPGGA,200021.00,4131.440994,N,07040.337036,W,2,17,0.9,18.198,M,-30.109,M,47.0,0000*73
NAV 2024/05/28 20:00:22.223 CNAV $GPZDA,200022.00,28,05,2024,00,00*6F
NAV 2024/05/28 20:00:22.299 CNAV $GPRMC,200022.00,A,4131.440993,N,07040.337025,W,0.01,90.0,280524,,,D*4D
NAV 2024/05/28 20:00:22.337 CNAV $GPVTG,90.0,T,,M,0.01,N,0.02,K,D*32
NAV 2024/05/28 20:00:22.429 CNAV $GPGGA,200022.00,4131.440993,N,07040.337025,W,2,17,0.9,18.205,M,-30.109,M,48.0,0000*7D
NAV 2024/05/28 20:00:23.289 CNAV $GPZDA,200023.00,28,05,2024,00,00*6E
NAV 2024/05/28 20:00:23.365 CNAV $GPRMC,200023.00,A,4131.440991,N,07040.337014,W,0.02,96.3,280524,,,D*4A
NAV 2024/05/28 20:00:23.403 CNAV $GPVTG,96.3,T,,M,0.02,N,0.03,K,D*35
NAV 2024/05/28 20:00:23.495 CNAV $GPGGA,200023.00,4131.440991,N,07040.337014,W,2,17,0.9,18.204,M,-30.109,M,49.0,0000*7C
NAV 2024/05/28 20:00:24.255 CNAV $GPZDA,200024.00,28,05,2024,00,00*69
NAV 2024/05/28 20:00:24.332 CNAV $GPRMC,200024.00,A,4131.440989,N,07040.337009,W,0.02,102.5,280524,,,D*72
NAV 2024/05/28 20:00:24.371 CNAV $GPVTG,102.5,T,,M,0.02,N,0.03,K,D*0F
NAV 2024/05/28 20:00:24.463 CNAV $GPGGA,200024.00,4131.440989,N,07040.337009,W,2,17,0.9,18.210,M,-30.109,M,50.0,0000*73
NAV 2024/05/28 20:00:25.274 CNAV $GPZDA,200025.00,28,05,2024,00,00*68
NAV 2024/05/28 20:00:25.351 CNAV $GPRMC,200025.00,A,4131.440990,N,07040.337009,W,0.01,101.3,280524,,,D*7D
NAV 2024/05/28 20:00:25.390 CNAV $GPVTG,101.3,T,,M,0.01,N,0.02,K,D*08
NAV 2024/05/28 20:00:25.482 CNAV $GPGGA,200025.00,4131.440990,N,07040.337009,W,2,17,0.9,18.205,M,-30.109,M,51.0,0000*7F
NAV 2024/05/28 20:00:26.289 CNAV $GPZDA,200026.00,28,05,2024,00,00*6B
NAV 2024/05/28 20:00:26.365 CNAV $GPRMC,200026.00,A,4131.440992,N,07040.337013,W,0.00,45.0,280524,,,D*44
NAV 2024/05/28 20:00:26.404 CNAV $GPVTG,45.0,T,,M,0.00,N,0.00,K,D*39
NAV 2024/05/28 20:00:26.495 CNAV $GPGGA,200026.00,4131.440992,N,07040.337013,W,2,17,0.9,18.205,M,-30.109,M,52.0,0000*76
NAV 2024/05/28 20:00:27.255 CNAV $GPZDA,200027.00,28,05,2024,00,00*6A
NAV 2024/05/28 20:00:27.332 CNAV $GPRMC,200027.00,A,4131.440998,N,07040.337016,W,0.01,348.7,280524,,,D*72
NAV 2024/05/28 20:00:27.372 CNAV $GPVTG,348.7,T,,M,0.01,N,0.02,K,D*03
NAV 2024/05/28 20:00:27.463 CNAV $GPGGA,200027.00,4131.440998,N,07040.337016,W,2,17,0.9,18.198,M,-30.109,M,53.0,0000*7E
NAV 2024/05/28 20:00:28.277 CNAV $GPZDA,200028.00,28,05,2024,00,00*65
NAV 2024/05/28 20:00:28.352 CNAV $GPRMC,200028.00,A,4131.441002,N,07040.337015,W,0.01,0.0,280524,,,D*7D
NAV 2024/05/28 20:00:28.390 CNAV $GPVTG,0.0,T,,M,0.01,N,0.02,K,D*0B
NAV 2024/05/28 20:00:28.482 CNAV $GPGGA,200028.00,4131.441002,N,07040.337015,W,2,17,0.9,18.199,M,-30.109,M,54.0,0000*7F
NAV 2024/05/28 20:00:29.293 CNAV $GPZDA,200029.00,28,05,2024,00,00*64
NAV 2024/05/28 20:00:29.369 CNAV $GPRMC,200029.00,A,4131.441005,N,07040.337005,W,0.01,45.0,280524,,,D*4B
NAV 2024/05/28 20:00:29.408 CNAV $GPVTG,45.0,T,,M,0.01,N,0.02,K,D*3A
NAV 2024/05/28 20:00:29.499 CNAV $GPGGA,200029.00,4131.441005,N,07040.337005,W,2,17,0.9,18.187,M,-30.109,M,55.0,0000*76
NAV 2024/05/28 20:00:30.308 CNAV $GPZDA,200030.00,28,05,2024,00,00*6C
NAV 2024/05/28 20:00:30.384 CNAV $GPRMC,200030.00,A,4131.441001,N,07040.336991,W,0.02,84.3,280524,,,D*4F
NAV 2024/05/28 20:00:30.423 CNAV $GPVTG,84.3,T,,M,0.02,N,0.04,K,D*31
NAV 2024/05/28 20:00:30.514 CNAV $GPGGA,200030.00,4131.441001,N,07040.336991,W,2,17,0.9,18.192,M,-30.109,M,56.0,0000*78
NAV 2024/05/28 20:00:31.277 CNAV $GPZDA,200031.00,28,05,2024,00,00*6D
NAV 2024/05/28 20:00:31.353 CNAV $GPRMC,200031.00,A,4131.440998,N,07040.336983,W,0.02,95.2,280524,,,D*44
NAV 2024/05/28 20:00:31.392 CNAV $GPVTG,95.2,T,,M,0.02,N,0.04,K,D*30
NAV 2024/05/28 20:00:31.483 CNAV $GPGGA,200031.00,4131.440998,N,07040.336983,W,2,17,0.9,18.192,M,-30.109,M,57.0,0000*73
NAV 2024/05/28 20:00:32.291 CNAV $GPZDA,200032.00,28,05,2024,00,00*6E
NAV 2024/05/28 20:00:32.367 CNAV $GPRMC,200032.00,A,4131.440999,N,07040.336977,W,0.02,90.0,280524,,,D*4A
NAV 2024/05/28 20:00:32.405 CNAV $GPVTG,90.0,T,,M,0.02,N,0.04,K,D*37
NAV 2024/05/28 20:00:32.497 CNAV $GPGGA,200032.00,4131.440999,N,07040.336977,W,2,17,0.9,18.197,M,-30.109,M,58.0,0000*70
NAV 2024/05/28 20:00:33.306 CNAV $GPZDA,200033.00,28,05,2024,00,00*6F
NAV 2024/05/28 20:00:33.383 CNAV $GPRMC,200033.00,A,4131.440997,N,07040.336980,W,0.01,101.3,280524,,,D*74
NAV 2024/05/28 20:00:33.423 CNAV $GPVTG,101.3,T,,M,0.01,N,0.02,K,D*08
NAV 2024/05/28 20:00:33.514 CNAV $GPGGA,200033.00,4131.440997,N,07040.336980,W,2,17,0.9,18.194,M,-30.109,M,59.0,0000*75
NAV 2024/05/28 20:00:34.225 CNAV $GPZDA,200034.00,28,05,2024,00,00*68
NAV 2024/05/28 20:00:34.300 CNAV $GPRMC,200034.00,A,4131.441003,N,07040.336986,W,0.01,0.0,280524,,,D*73
NAV 2024/05/28 20:00:34.338 CNAV $GPVTG,0.0,T,,M,0.01,N,0.01,K,D*08
NAV 2024/05/28 20:00:34.429 CNAV $GPGGA,200034.00,4131.441003,N,07040.336986,W,2,17,0.9,18.198,M,-30.109,M,60.0,0000*77
NAV 2024/05/28 20:00:35.289 CNAV $GPZDA,200035.00,28,05,2024,00,00*69
NAV 2024/05/28 20:00:35.366 CNAV $GPRMC,200035.00,A,4131.441004,N,07040.336991,W,0.01,303.7,280524,,,D*74
NAV 2024/05/28 20:00:35.406 CNAV $GPVTG,303.7,T,,M,0.01,N,0.01,K,D*0F
NAV 2024/05/28 20:00:35.497 CNAV $GPGGA,200035.00,4131.441004,N,07040.336991,W,2,17,0.9,18.197,M,-30.109,M,61.0,0000*79
NAV 2024/05/28 20:00:36.303 CNAV $GPZDA,200036.00,28,05,2024,00,00*6A
NAV 2024/05/28 20:00:36.380 CNAV $GPRMC,200036.00,A,4131.441002,N,07040.336990,W,0.00,315.0,280524,,,D*71
NAV 2024/05/28 20:00:36.420 CNAV $GPVTG,315.0,T,,M,0.00,N,0.00,K,D*0F
NAV 2024/05/28 20:00:36.511 CNAV $GPGGA,200036.00,4131.441002,N,07040.336990,W,2,17,0.9,18.188,M,-30.109,M,62.0,0000*70
NAV 2024/05/28 20:00:37.272 CNAV $GPZDA,200037.00,28,05,2024,00,00*6B
NAV 2024/05/28 20:00:37.348 CNAV $GPRMC,200037.00,A,4131.441001,N,07040.336984,W,0.00,90.0,280524,,,D*48
NAV 2024/05/28 20:00:37.387 CNAV $GPVTG,90.0,T,,M,0.00,N,0.01,K,D*30
NAV 2024/05/28 20:00:37.478 CNAV $GPGGA,200037.00,4131.441001,N,07040.336984,W,2,17,0.9,18.186,M,-30.109,M,63.0,0000*78
NAV 2024/05/28 20:00:38.287 CNAV $GPZDA,200038.00,28,05,2024,00,00*64
NAV 2024/05/28 20:00:38.364 CNAV $GPRMC,200038.00,A,4131.441001,N,07040.336983,W,0.00,116.6,280524,,,D*79
NAV 2024/05/28 20:00:38.404 CNAV $GPVTG,116.6,T,,M,0.00,N,0.01,K,D*09
NAV 2024/05/28 20:00:38.495 CNAV $GPGGA,200038.00,4131.441001,N,07040.336983,W,2,17,0.9,18.188,M,-30.109,M,64.0,0000*79
NAV 2024/05/28 20:00:39.252 CNAV $GPZDA,200039.00,28,05,2024,00,00*65
NAV 2024/05/28 20:00:39.328 CNAV $GPRMC,200039.00,A,4131.441002,N,07040.336979,W,0.01,90.0,280524,,,D*46
NAV 2024/05/28 20:00:39.367 CNAV $GPVTG,90.0,T,,M,0.01,N,0.01,K,D*31
NAV 2024/05/28 20:00:39.459 CNAV $GPGGA,200039.00,4131.441002,N,07040.336979,W,2,17,0.9,18.183,M,-30.109,M,65.0,0000*74
NAV 2024/05/28 20:00:40.271 CNAV $GPZDA,200040.00,28,05,2024,00,00*6B
NAV 2024/05/28 20:00:40.348 CNAV $GPRMC,200040.00,A,4131.441000,N,07040.336976,W,0.01,104.0,280524,,,D*79
NAV 2024/05/28 20:00:40.388 CNAV $GPVTG,104.0,T,,M,0.01,N,0.01,K,D*0D
NAV 2024/05/28 20:00:40.479 CNAV $GPGGA,200040.00,4131.441000,N,07040.336976,W,2,17,0.9,18.190,M,-30.109,M,66.0,0000*76
NAV 2024/05/28 20:00:41.287 CNAV $GPZDA,200041.00,28,05,2024,00,00*6A
NAV 2024/05/28 20:00:41.364 CNAV $GPRMC,200041.00,A,4131.440998,N,07040.336974,W,0.01,123.7,280524,,,D*71
NAV 2024/05/28 20:00:41.404 CNAV $GPVTG,123.7,T,,M,0.01,N,0.01,K,D*0F
NAV 2024/05/28 20:00:41.496 CNAV $GPGGA,200041.00,4131.440998,N,07040.336974,W,2,17,0.9,18.190,M,-30.109,M,67.0,0000*7D
NAV 2024/05/28 20:00:42.301 CNAV $GPZDA,200042.00,28,05,2024,00,00*69
NAV 2024/05/28 20:00:42.378 CNAV $GPRMC,200042.00,A,4131.440997,N,07040.336971,W,0.01,116.6,280524,,,D*7F
NAV 2024/05/28 20:00:42.418 CNAV $GPVTG,116.6,T,,M,0.01,N,0.02,K,D*0B
NAV 2024/05/28 20:00:42.510 CNAV $GPGGA,200042.00,4131.440997,N,07040.336971,W,2,17,0.9,18.195,M,-30.109,M,68.0,0000*7E
NAV 2024/05/28 20:00:43.270 CNAV $GPZDA,200043.00,28,05,2024,00,00*68
NAV 2024/05/28 20:00:43.346 CNAV $GPRMC,200043.00,A,4131.440999,N,07040.336966,W,0.01,90.0,280524,,,D*4F
NAV 2024/05/28 20:00:43.385 CNAV $GPVTG,90.0,T,,M,0.01,N,0.02,K,D*32
NAV 2024/05/28 20:00:43.477 CNAV $GPGGA,200043.00,4131.440999,N,07040.336966,W,2,17,0.9,18.198,M,-30.109,M,69.0,0000*7B
NAV 2024/05/28 20:00:44.286 CNAV $GPZDA,200044.00,28,05,2024,00,00*6F
NAV 2024/05/28 20:00:44.363 CNAV $GPRMC,200044.00,A,4131.440998,N,07040.336969,W,0.00,116.6,280524,,,D*7E
NAV 2024/05/28 20:00:44.403 CNAV $GPVTG,116.6,T,,M,0.00,N,0.01,K,D*09
NAV 2024/05/28 20:00:44.495 CNAV $GPGGA,200044.00,4131.440998,N,07040.336969,W,2,17,0.9,18.201,M,-30.109,M,70.0,0000*79
NAV 2024/05/28 20:00:45.300 CNAV $GPZDA,200045.00,28,05,2024,00,00*6E
NAV 2024/05/28 20:00:45.376 CNAV $GPRMC,200045.00,A,4131.441005,N,07040.336970,W,0.01,14.0,280524,,,D*4F
NAV 2024/05/28 20:00:45.415 CNAV $GPVTG,14.0,T,,M,0.01,N,0.01,K,D*3D
NAV 2024/05/28 20:00:45.507 CNAV $GPGGA,200045.00,4131.441005,N,07040.336970,W,2,17,0.9,18.189,M,-30.109,M,71.0,0000*7E
NAV 2024/05/28 20:00:46.270 CNAV $GPZDA,200046.00,28,05,2024,00,00*6D
NAV 2024/05/28 20:00:46.347 CNAV $GPRMC,200046.00,A,4131.441007,N,07040.336974,W,0.01,333.4,280524,,,D*78
NAV 2024/05/28 20:00:46.387 CNAV $GPVTG,333.4,T,,M,0.01,N,0.02,K,D*0C
NAV 2024/05/28 20:00:46.479 CNAV $GPGGA,200046.00,4131.441007,N,07040.336974,W,2,17,0.9,18.180,M,-30.109,M,72.0,0000*71
NAV 2024/05/28 20:00:47.285 CNAV $GPZDA,200047.00,28,05,2024,00,00*6C
NAV 2024/05/28 20:00:47.362 CNAV $GPRMC,200047.00,A,4131.441009,N,07040.336977,W,0.01,323.1,280524,,,D*70
NAV 2024/05/28 20:00:47.402 CNAV $GPVTG,323.1,T,,M,0.01,N,0.02,K,D*08
NAV 2024/05/28 20:00:47.494 CNAV $GPGGA,200047.00,4131.441009,N,07040.336977,W,2,17,0.9,18.185,M,-30.109,M,73.0,0000*79
NAV 2024/05/28 20:00:48.301 CNAV $GPZDA,200048.00,28,05,2024,00,00*63
NAV 2024/05/28 20:00:48.378 CNAV $GPRMC,200048.00,A,4131.441006,N,07040.336981,W,0.01,284.0,280524,,,D*74
NAV 2024/05/28 20:00:48.418 CNAV $GPVTG,284.0,T,,M,0.01,N,0.01,K,D*06
NAV 2024/05/28 20:00:48.510 CNAV $GPGGA,200048.00,4131.441006,N,07040.336981,W,2,17,0.9,18.185,M,-30.109,M,74.0,0000*77
NAV 2024/05/28 20:00:49.265 CNAV $GPZDA,200049.00,28,05,2024,00,00*62
NAV 2024/05/28 20:00:49.342 CNAV $GPRMC,200049.00,A,4131.441001,N,07040.336979,W,0.01,213.7,280524,,,D*7C
NAV 2024/05/28 20:00:49.381 CNAV $GPVTG,213.7,T,,M,0.01,N,0.01,K,D*0F
NAV 2024/05/28 20:00:49.473 CNAV $GPGGA,200049.00,4131.441001,N,07040.336979,W,2,17,0.9,18.198,M,-30.109,M,75.0,0000*7B
NAV 2024/05/28 20:00:50.285 CNAV $GPZDA,200050.00,28,05,2024,00,00*6A
NAV 2024/05/28 20:00:50.363 CNAV $GPRMC,200050.00,A,4131.440999,N,07040.336978,W,0.01,180.0,280524,,,D*72
NAV 2024/05/28 20:00:50.402 CNAV $GPVTG,180.0,T,,M,0.01,N,0.01,K,D*01
NAV 2024/05/28 20:00:50.494 CNAV $GPGGA,200050.00,4131.440999,N,07040.336978,W,2,17,0.9,18.199,M,-30.109,M,76.0,0000*79
NAV 2024/05/28 20:00:51.301 CNAV $GPZDA,200051.00,28,05,2024,00,00*6B
NAV 2024/05/28 20:00:51.378 CNAV $GPRMC,200051.00,A,4131.440996,N,07040.336978,W,0.01,180.0,280524,,,D*7C
NAV 2024/05/28 20:00:51.417 CNAV $GPVTG,180.0,T,,M,0.01,N,0.01,K,D*01
NAV 2024/05/28 20:00:51.509 CNAV $GPGGA,200051.00,4131.440996,N,07040.336978,W,2,17,0.9,18.194,M,-30.109,M,77.0,0000*7B
NAV 2024/05/28 20:00:52.267 CNAV $GPZDA,200052.00,28,05,2024,00,00*68
NAV 2024/05/28 20:00:52.345 CNAV $GPRMC,200052.00,A,4131.440993,N,07040.336980,W,0.01,191.3,280524,,,D*7E
NAV 2024/05/28 20:00:52.384 CNAV $GPVTG,191.3,T,,M,0.01,N,0.02,K,D*01
NAV 2024/05/28 20:00:52.476 CNAV $GPGGA,200052.00,4131.440993,N,07040.336980,W,2,17,0.9,18.197,M,-30.109,M,78.0,0000*76
NAV 2024/05/28 20:00:53.290 CNAV $GPZDA,200053.00,28,05,2024,00,00*69
NAV 2024/05/28 20:00:53.367 CNAV $GPRMC,200053.00,A,4131.440994,N,07040.336985,W,0.01,243.4,280524,,,D*76
NAV 2024/05/28 20:00:53.406 CNAV $GPVTG,243.4,T,,M,0.01,N,0.02,K,D*0A
NAV 2024/05/28 20:00:53.498 CNAV $GPGGA,200053.00,4131.440994,N,07040.336985,W,2,17,0.9,18.199,M,-30.109,M,79.0,0000*7A
NAV 2024/05/28 20:00:54.306 CNAV $GPZDA,200054.00,28,05,2024,00,00*6E
NAV 2024/05/28 20:00:54.383 CNAV $GPRMC,200054.00,A,4131.440997,N,07040.336992,W,0.01,279.5,280524,,,D*7C
NAV 2024/05/28 20:00:54.422 CNAV $GPVTG,279.5,T,,M,0.01,N,0.02,K,D*02
NAV 2024/05/28 20:00:54.514 CNAV $GPGGA,200054.00,4131.440997,N,07040.336992,W,2,17,0.9,18.199,M,-30.109,M,80.0,0000*7E
NAV 2024/05/28 20:00:55.270 CNAV $GPZDA,200055.00,28,05,2024,00,00*6F
NAV 2024/05/28 20:00:55.347 CNAV $GPRMC,200055.00,A,4131.440999,N,07040.337005,W,0.02,281.3,280524,,,D*77
NAV 2024/05/28 20:00:55.386 CNAV $GPVTG,281.3,T,,M,0.02,N,0.04,K,D*06
NAV 2024/05/28 20:00:55.478 CNAV $GPGGA,200055.00,4131.440999,N,07040.337005,W,2,17,0.9,18.200,M,-30.109,M,81.0,0000*75
NAV 2024/05/28 20:00:56.291 CNAV $GPZDA,200056.00,28,05,2024,00,00*6C
NAV 2024/05/28 20:00:56.368 CNAV $GPRMC,200056.00,A,4131.440996,N,07040.337013,W,0.02,264.8,280524,,,D*7C
NAV 2024/05/28 20:00:56.407 CNAV $GPVTG,264.8,T,,M,0.02,N,0.04,K,D*06
NAV 2024/05/28 20:00:56.499 CNAV $GPGGA,200056.00,4131.440996,N,07040.337013,W,2,17,0.9,18.199,M,-30.109,M,82.0,0000*7E
NAV 2024/05/28 20:00:57.306 CNAV $GPZDA,200057.00,28,05,2024,00,00*6D
NAV 2024/05/28 20:00:57.383 CNAV $GPRMC,200057.00,A,4131.440996,N,07040.337014,W,0.01,261.9,280524,,,D*7D
NAV 2024/05/28 20:00:57.422 CNAV $GPVTG,261.9,T,,M,0.01,N,0.02,K,D*07
NAV 2024/05/28 20:00:57.514 CNAV $GPGGA,200057.00,4131.440996,N,07040.337014,W,2,17,0.9,18.205,M,-30.109,M,83.0,0000*7F
NAV 2024/05/28 20:00:58.271 CNAV $GPZDA,200058.00,28,05,2024,00,00*62
NAV 2024/05/28 20:00:58.348 CNAV $GPRMC,200058.00,A,4131.440987,N,07040.337047,W,0.04,252.3,280524,,,D*7B
NAV 2024/05/28 20:00:58.387 CNAV $GPVTG,252.3,T,,M,0.04,N,0.08,K,D*02
NAV 2024/05/28 20:00:58.479 CNAV $GPGGA,200058.00,4131.440987,N,07040.337047,W,2,17,0.9,18.310,M,-30.109,M,24.0,0000*7E
NAV 2024/05/28 20:00:59.293 CNAV $GPZDA,200059.00,28,05,2024,00,00*63
NAV 2024/05/28 20:00:59.370 CNAV $GPRMC,200059.00,A,4131.440987,N,07040.337038,W,0.02,246.0,280524,,,D*72
NAV 2024/05/28 20:00:59.409 CNAV $GPVTG,246.0,T,,M,0.02,N,0.03,K,D*09
NAV 2024/05/28 20:00:59.501 CNAV $GPGGA,200059.00,4131.440987,N,07040.337038,W,2,17,0.9,18.303,M,-30.109,M,25.0,0000*74
NAV 2024/05/28 20:01:00.261 CNAV $GPZDA,200100.00,28,05,2024,00,00*6E
NAV 2024/05/28 20:01:00.338 CNAV $GPRMC,200100.00,A,4131.440985,N,07040.337039,W,0.01,236.3,280524,,,D*7B
NAV 2024/05/28 20:01:00.377 CNAV $GPVTG,236.3,T,,M,0.01,N,0.03,K,D*0E
NAV 2024/05/28 20:01:00.469 CNAV $GPGGA,200100.00,4131.440985,N,07040.337039,W,2,17,0.9,18.311,M,-30.109,M,26.0,0000*7A
NAV 2024/05/28 20:01:01.280 CNAV $GPZDA,200101.00,28,05,2024,00,00*6F
NAV 2024/05/28 20:01:01.357 CNAV $GPRMC,200101.00,A,4131.440985,N,07040.337035,W,0.01,213.7,280524,,,D*75
NAV 2024/05/28 20:01:01.397 CNAV $GPVTG,213.7,T,,M,0.01,N,0.01,K,D*0F
NAV 2024/05/28 20:01:01.488 CNAV $GPGGA,200101.00,4131.440985,N,07040.337035,W,2,17,0.9,18.297,M,-30.109,M,27.0,0000*79
NAV 2024/05/28 20:01:02.305 CNAV $GPZDA,200102.00,28,05,2024,00,00*6C
NAV 2024/05/28 20:01:02.382 CNAV $GPRMC,200102.00,A,4131.440987,N,07040.337040,W,0.01,270.0,280524,,,D*74
NAV 2024/05/28 20:01:02.422 CNAV $GPVTG,270.0,T,,M,0.01,N,0.01,K,D*0D
NAV 2024/05/28 20:01:02.513 CNAV $GPGGA,200102.00,4131.440987,N,07040.337040,W,2,17,0.9,18.299,M,-30.109,M,28.0,0000*7B
NAV 2024/05/28 20:01:03.271 CNAV $GPZDA,200103.00,28,05,2024,00,00*6D
NAV 2024/05/28 20:01:03.348 CNAV $GPRMC,200103.00,A,4131.440985,N,07040.337050,W,0.02,262.9,280524,,,D*7F
NAV 2024/05/28 20:01:03.388 CNAV $GPVTG,262.9,T,,M,0.02,N,0.03,K,D*06
NAV 2024/05/28 20:01:03.479 CNAV $GPGGA,200103.00,4131.440985,N,07040.337050,W,2,17,0.9,18.294,M,-30.109,M,29.0,0000*75
NAV 2024/05/28 20:01:04.289 CNAV $GPZDA,200104.00,28,05,2024,00,00*6A
NAV 2024/05/28 20:01:04.366 CNAV $GPRMC,200104.00,A,4131.440989,N,07040.337053,W,0.01,288.4,280524,,,D*7D
NAV 2024/05/28 20:01:04.406 CNAV $GPVTG,288.4,T,,M,0.01,N,0.02,K,D*0D
NAV 2024/05/28 20:01:04.497 CNAV $GPGGA,200104.00,4131.440989,N,07040.337053,W,2,17,0.9,18.298,M,-30.109,M,30.0,0000*79
NAV 2024/05/28 20:01:05.262 CNAV $GPZDA,200105.00,28,05,2024,00,00*6B
NAV 2024/05/28 20:01:05.339 CNAV $GPRMC,200105.00,A,4131.440987,N,07040.337059,W,0.01,270.0,280524,,,D*7B
NAV 2024/05/28 20:01:05.379 CNAV $GPVTG,270.0,T,,M,0.01,N,0.02,K,D*0E
NAV 2024/05/28 20:01:05.470 CNAV $GPGGA,200105.00,4131.440987,N,07040.337059,W,2,17,0.9,18.297,M,-30.109,M,31.0,0000*72
NAV 2024/05/28 20:01:06.280 CNAV $GPZDA,200106.00,28,05,2024,00,00*68
NAV 2024/05/28 20:01:06.357 CNAV $GPRMC,200106.00,A,4131.440986,N,07040.337056,W,0.01,251.6,280524,,,D*73
NAV 2024/05/28 20:01:06.397 CNAV $GPVTG,251.6,T,,M,0.01,N,0.01,K,D*08
NAV 2024/05/28 20:01:06.488 CNAV $GPGGA,200106.00,4131.440986,N,07040.337056,W,2,17,0.9,18.306,M,-30.109,M,32.0,0000*75
NAV 2024/05/28 20:01:07.295 CNAV $GPZDA,200107.00,28,05,2024,00,00*69
NAV 2024/05/28 20:01:07.372 CNAV $GPRMC,200107.00,A,4131.440980,N,07040.337058,W,0.01,211.0,280524,,,D*78
NAV 2024/05/28 20:01:07.412 CNAV $GPVTG,211.0,T,,M,0.01,N,0.02,K,D*09
NAV 2024/05/28 20:01:07.504 CNAV $GPGGA,200107.00,4131.440980,N,07040.337058,W,2,17,0.9,18.311,M,-30.109,M,33.0,0000*7B
NAV 2024/05/28 20:01:08.316 CNAV $GPZDA,200108.00,28,05,2024,00,00*66
NAV 2024/05/28 20:01:08.393 CNAV $GPRMC,200108.00,A,4131.440978,N,07040.337057,W,0.01,194.0,280524,,,D*71
NAV 2024/05/28 20:01:08.433 CNAV $GPVTG,194.0,T,,M,0.01,N,0.01,K,D*04
NAV 2024/05/28 20:01:08.525 CNAV $GPGGA,200108.00,4131.440978,N,07040.337057,W,2,17,0.9,18.310,M,-30.109,M,34.0,0000*7A
NAV 2024/05/28 20:01:09.283 CNAV $GPZDA,200109.00,28,05,2024,00,00*67
NAV 2024/05/28 20:01:09.360 CNAV $GPRMC,200109.00,A,4131.440978,N,07040.337059,W,0.01,225.0,280524,,,D*77
NAV 2024/05/28 20:01:09.400 CNAV $GPVTG,225.0,T,,M,0.01,N,0.01,K,D*0D
NAV 2024/05/28 20:01:09.491 CNAV $GPGGA,200109.00,4131.440978,N,07040.337059,W,2,17,0.9,18.310,M,-30.109,M,35.0,0000*74
NAV 2024/05/28 20:01:10.297 CNAV $GPZDA,200110.00,28,05,2024,00,00*6F
NAV 2024/05/28 20:01:10.374 CNAV $GPRMC,200110.00,A,4131.440980,N,07040.337061,W,0.00,243.4,280524,,,D*76
NAV 2024/05/28 20:01:10.414 CNAV $GPVTG,243.4,T,,M,0.00,N,0.01,K,D*08
NAV 2024/05/28 20:01:10.505 CNAV $GPGGA,200110.00,4131.440980,N,07040.337061,W,2,17,0.9,18.310,M,-30.109,M,36.0,0000*73
NAV 2024/05/28 20:01:11.315 CNAV $GPZDA,200111.00,28,05,2024,00,00*6E
NAV 2024/05/28 20:01:11.392 CNAV $GPRMC,200111.00,A,4131.440984,N,07040.337064,W,0.01,303.7,280524,,,D*71
NAV 2024/05/28 20:01:11.432 CNAV $GPVTG,303.7,T,,M,0.01,N,0.01,K,D*0F
NAV 2024/05/28 20:01:11.523 CNAV $GPGGA,200111.00,4131.440984,N,07040.337064,W,2,17,0.9,18.305,M,-30.109,M,37.0,0000*76
NAV 2024/05/28 20:01:12.281 CNAV $GPZDA,200112.00,28,05,2024,00,00*6D
NAV 2024/05/28 20:01:12.358 CNAV $GPRMC,200112.00,A,4131.440987,N,07040.337062,W,0.01,346.0,280524,,,D*71
NAV 2024/05/28 20:01:12.398 CNAV $GPVTG,346.0,T,,M,0.01,N,0.01,K,D*09
NAV 2024/05/28 20:01:12.489 CNAV $GPGGA,200112.00,4131.440987,N,07040.337062,W,2,17,0.9,18.298,M,-30.109,M,38.0,0000*7A
NAV 2024/05/28 20:01:13.297 CNAV $GPZDA,200113.00,28,05,2024,00,00*6C
NAV 2024/05/28 20:01:13.373 CNAV $GPRMC,200113.00,A,4131.440986,N,07040.337057,W,0.01,45.0,280524,,,D*47
NAV 2024/05/28 20:01:13.412 CNAV $GPVTG,45.0,T,,M,0.01,N,0.01,K,D*39
NAV 2024/05/28 20:01:13.503 CNAV $GPGGA,200113.00,4131.440986,N,07040.337057,W,2,17,0.9,18.299,M,-30.109,M,39.0,0000*7C
NAV 2024/05/28 20:01:14.266 CNAV $GPZDA,200114.00,28,05,2024,00,00*6B
NAV 2024/05/28 20:01:14.343 CNAV $GPRMC,200114.00,A,4131.440981,N,07040.337056,W,0.01,135.0,280524,,,D*70
NAV 2024/05/28 20:01:14.383 CNAV $GPVTG,135.0,T,,M,0.01,N,0.01,K,D*0F
NAV 2024/05/28 20:01:14.475 CNAV $GPGGA,200114.00,4131.440981,N,07040.337056,W,2,17,0.9,18.308,M,-30.109,M,40.0,0000*7A
NAV 2024/05/28 20:01:15.333 CNAV $GPZDA,200115.00,28,05,2024,00,00*6A
NAV 2024/05/28 20:01:15.410 CNAV $GPRMC,200115.00,A,4131.440979,N,07040.337051,W,0.01,135.0,280524,,,D*71
NAV 2024/05/28 20:01:15.450 CNAV $GPVTG,135.0,T,,M,0.01,N,0.01,K,D*0F
NAV 2024/05/28 20:01:15.542 CNAV $GPGGA,200115.00,4131.440979,N,07040.337051,W,2,17,0.9,18.301,M,-30.109,M,41.0,0000*73
NAV 2024/05/28 20:01:16.252 CNAV $GPZDA,200116.00,28,05,2024,00,00*69
NAV 2024/05/28 20:01:16.330 CNAV $GPRMC,200116.00,A,4131.440980,N,07040.337048,W,0.01,104.0,280524,,,D*7E
NAV 2024/05/28 20:01:16.369 CNAV $GPVTG,104.0,T,,M,0.01,N,0.01,K,D*0D
NAV 2024/05/28 20:01:16.461 CNAV $GPGGA,200116.00,4131.440980,N,07040.337048,W,2,17,0.9,18.314,M,-30.109,M,42.0,0000*79
NAV 2024/05/28 20:01:17.272 CNAV $GPZDA,200117.00,28,05,2024,00,00*68
NAV 2024/05/28 20:01:17.349 CNAV $GPRMC,200117.00,A,4131.440978,N,07040.337050,W,0.00,153.4,280524,,,D*76
NAV 2024/05/28 20:01:17.389 CNAV $GPVTG,153.4,T,,M,0.00,N,0.01,K,D*0A
NAV 2024/05/28 20:01:17.481 CNAV $GPGGA,200117.00,4131.440978,N,07040.337050,W,2,17,0.9,18.316,M,-30.109,M,43.0,0000*75
NAV 2024/05/28 20:01:18.287 CNAV $GPZDA,200118.00,28,05,2024,00,00*67
NAV 2024/05/28 20:01:18.363 CNAV $GPRMC,200118.00,A,4131.440983,N,07040.337050,W,0.00,26.6,280524,,,D*4C
NAV 2024/05/28 20:01:18.401 CNAV $GPVTG,26.6,T,,M,0.00,N,0.01,K,D*3B
NAV 2024/05/28 20:01:18.494 CNAV $GPGGA,200118.00,4131.440983,N,07040.337050,W,2,17,0.9,18.316,M,-30.109,M,44.0,0000*79
NAV 2024/05/28 20:01:19.252 CNAV $GPZDA,200119.00,28,05,2024,00,00*66
NAV 2024/05/28 20:01:19.329 CNAV $GPRMC,200119.00,A,4131.440984,N,07040.337054,W,0.01,315.0,280524,,,D*7A
NAV 2024/05/28 20:01:19.368 CNAV $GPVTG,315.0,T,,M,0.01,N,0.01,K,D*0F
NAV 2024/05/28 20:01:19.460 CNAV $GPGGA,200119.00,4131.440984,N,07040.337054,W,2,17,0.9,18.312,M,-30.109,M,45.0,0000*7E
NAV 2024/05/28 20:01:20.221 CNAV $GPZDA,200120.00,28,05,2024,00,00*6C
NAV 2024/05/28 20:01:20.298 CNAV $GPRMC,200120.00,A,4131.440984,N,07040.337055,W,0.00,315.0,280524,,,D*70
NAV 2024/05/28 20:01:20.337 CNAV $GPVTG,315.0,T,,M,0.00,N,0.00,K,D*0F
NAV 2024/05/28 20:01:20.429 CNAV $GPGGA,200120.00,4131.440984,N,07040.337055,W,2,17,0.9,18.316,M,-30.109,M,46.0,0000*72
NAV 2024/05/28 20:01:21.285 CNAV $GPZDA,200121.00,28,05,2024,00,00*6D
NAV 2024/05/28 20:01:21.362 CNAV $GPRMC,200121.00,A,4131.440984,N,07040.337049,W,0.00,63.4,280524,,,D*4A
NAV 2024/05/28 20:01:21.400 CNAV $GPVTG,63.4,T,,M,0.00,N,0.01,K,D*38
NAV 2024/05/28 20:01:21.492 CNAV $GPGGA,200121.00,4131.440984,N,07040.337049,W,2,17,0.9,18.310,M,-30.109,M,47.0,0000*79
NAV 2024/05/28 20:01:22.300 CNAV $GPZDA,200122.00,28,05,2024,00,00*6E
NAV 2024/05/28 20:01:22.376 CNAV $GPRMC,200122.00,A,4131.440983,N,07040.337050,W,0.00,90.0,280524,,,D*4E
NAV 2024/05/28 20:01:22.415 CNAV $GPVTG,90.0,T,,M,0.00,N,0.00,K,D*31
NAV 2024/05/28 20:01:22.507 CNAV $GPGGA,200122.00,4131.440983,N,07040.337050,W,2,17,0.9,18.325,M,-30.109,M,48.0,0000*7C
NAV 2024/05/28 20:01:23.273 CNAV $GPZDA,200123.00,28,05,2024,00,00*6F
NAV 2024/05/28 20:01:23.349 CNAV $GPRMC,200123.00,A,4131.440985,N,07040.337043,W,0.01,76.0,280524,,,D*42
NAV 2024/05/28 20:01:23.387 CNAV $GPVTG,76.0,T,,M,0.01,N,0.01,K,D*39
NAV 2024/05/28 20:01:23.479 CNAV $GPGGA,200123.00,4131.440985,N,07040.337043,W,2,17,0.9,18.313,M,-30.109,M,49.0,0000*7D
NAV 2024/05/28 20:01:24.289 CNAV $GPZDA,200124.00,28,05,2024,00,00*68
NAV 2024/05/28 20:01:24.365 CNAV $GPRMC,200124.00,A,4131.440984,N,07040.337043,W,0.01,90.0,280524,,,D*4C
NAV 2024/05/28 20:01:24.403 CNAV $GPVTG,90.0,T,,M,0.01,N,0.01,K,D*31
NAV 2024/05/28 20:01:24.495 CNAV $GPGGA,200124.00,4131.440984,N,07040.337043,W,2,17,0.9,18.317,M,-30.109,M,50.0,0000*77
NAV 2024/05/28 20:01:25.304 CNAV $GPZDA,200125.00,28,05,2024,00,00*69
NAV 2024/05/28 20:01:25.380 CNAV $GPRMC,200125.00,A,4131.440989,N,07040.337034,W,0.01,63.4,280524,,,D*48
NAV 2024/05/28 20:01:25.419 CNAV $GPVTG,63.4,T,,M,0.01,N,0.02,K,D*3A
NAV 2024/05/28 20:01:25.511 CNAV $GPGGA,200125.00,4131.440989,N,07040.337034,W,2,17,0.9,18.305,M,-30.109,M,51.0,0000*79
NAV 2024/05/28 20:01:26.274 CNAV $GPZDA,200126.00,28,05,2024,00,00*6A
NAV 2024/05/28 20:01:26.350 CNAV $GPRMC,200126.00,A,4131.440985,N,07040.337033,W,0.01,90.0,280524,,,D*48
NAV 2024/05/28 20:01:26.388 CNAV $GPVTG,90.0,T,,M,0.01,N,0.02,K,D*32
NAV 2024/05/28 20:01:26.480 CNAV $GPGGA,200126.00,4131.440985,N,07040.337033,W,2,17,0.9,18.312,M,-30.109,M,52.0,0000*74
NAV 2024/05/28 20:01:27.289 CNAV $GPZDA,200127.00,28,05,2024,00,00*6B
NAV 2024/05/28 20:01:27.366 CNAV $GPRMC,200127.00,A,4131.440982,N,07040.337026,W,0.01,116.6,280524,,,D*73
NAV 2024/05/28 20:01:27.405 CNAV $GPVTG,116.6,T,,M,0.01,N,0.02,K,D*0B
NAV 2024/05/28 20:01:27.497 CNAV $GPGGA,200127.00,4131.440982,N,07040.337026,W,2,17,0.9,18.302,M,-30.109,M,53.0,0000*76
NAV 2024/05/28 20:01:28.310 CNAV $GPZDA,200128.00,28,05,2024,00,00*64
NAV 2024/05/28 20:01:28.387 CNAV $GPRMC,200128.00,A,4131.440979,N,07040.337024,W,0.01,121.0,280524,,,D*78
NAV 2024/05/28 20:01:28.426 CNAV $GPVTG,121.0,T,,M,0.01,N,0.02,K,D*09
NAV 2024/05/28 20:01:28.518 CNAV $GPGGA,200128.00,4131.440979,N,07040.337024,W,2,17,0.9,18.302,M,-30.109,M,54.0,0000*78
NAV 2024/05/28 20:01:29.279 CNAV $GPZDA,200129.00,28,05,2024,00,00*65
NAV 2024/05/28 20:01:29.355 CNAV $GPRMC,200129.00,A,4131.440982,N,07040.337023,W,0.01,90.0,280524,,,D*41
NAV 2024/05/28 20:01:29.393 CNAV $GPVTG,90.0,T,,M,0.01,N,0.01,K,D*31
NAV 2024/05/28 20:01:29.485 CNAV $GPGGA,200129.00,4131.440982,N,07040.337023,W,2,17,0.9,18.301,M,-30.109,M,55.0,0000*78
NAV 2024/05/28 20:01:30.294 CNAV $GPZDA,200130.00,28,05,2024,00,00*6D
NAV 2024/05/28 20:01:30.371 CNAV $GPRMC,200130.00,A,4131.440986,N,07040.337031,W,0.00,333.4,280524,,,D*71
NAV 2024/05/28 20:01:30.410 CNAV $GPVTG,333.4,T,,M,0.00,N,0.01,K,D*0E
NAV 2024/05/28 20:01:30.502 CNAV $GPGGA,200130.00,4131.440986,N,07040.337031,W,2,17,0.9,18.303,M,-30.109,M,56.0,0000*76
NAV 2024/05/28 20:01:31.309 CNAV $GPZDA,200131.00,28,05,2024,00,00*6C
NAV 2024/05/28 20:01:31.386 CNAV $GPRMC,200131.00,A,4131.440986,N,07040.337037,W,0.01,296.6,280524,,,D*7B
NAV 2024/05/28 20:01:31.425 CNAV $GPVTG,296.6,T,,M,0.01,N,0.02,K,D*00
NAV 2024/05/28 20:01:31.517 CNAV $GPGGA,200131.00,4131.440986,N,07040.337037,W,2,17,0.9,18.298,M,-30.109,M,57.0,0000*73
NAV 2024/05/28 20:01:32.279 CNAV $GPZDA,200132.00,28,05,2024,00,00*6F
NAV 2024/05/28 20:01:32.356 CNAV $GPRMC,200132.00,A,4131.440983,N,07040.337034,W,0.00,225.0,280524,,,D*71
NAV 2024/05/28 20:01:32.395 CNAV $GPVTG,225.0,T,,M,0.00,N,0.00,K,D*0D
NAV 2024/05/28 20:01:32.487 CNAV $GPGGA,200132.00,4131.440983,N,07040.337034,W,2,17,0.9,18.305,M,-30.109,M,58.0,0000*7C
NAV 2024/05/28 20:01:33.293 CNAV $GPZDA,200133.00,28,05,2024,00,00*6E
NAV 2024/05/28 20:01:33.370 CNAV $GPRMC,200133.00,A,4131.440981,N,07040.337032,W,0.00,153.4,280524,,,D*72
NAV 2024/05/28 20:01:33.409 CNAV $GPVTG,153.4,T,,M,0.00,N,0.01,K,D*0A
NAV 2024/05/28 20:01:33.501 CNAV $GPGGA,200133.00,4131.440981,N,07040.337032,W,2,17,0.9,18.314,M,-30.109,M,59.0,0000*78
NAV 2024/05/28 20:01:34.257 CNAV $GPZDA,200134.00,28,05,2024,00,00*69
NAV 2024/05/28 20:01:34.334 CNAV $GPRMC,200134.00,A,4131.440976,N,07040.337026,W,0.01,143.1,280524,,,D*7D
NAV 2024/05/28 20:01:34.373 CNAV $GPVTG,143.1,T,,M,0.01,N,0.02,K,D*0C
NAV 2024/05/28 20:01:34.465 CNAV $GPGGA,200134.00,4131.440976,N,07040.337026,W,2,17,0.9,18.324,M,-30.109,M,60.0,0000*7B
NAV 2024/05/28 20:01:35.273 CNAV $GPZDA,200135.00,28,05,2024,00,00*68
NAV 2024/05/28 20:01:35.350 CNAV $GPRMC,200135.00,A,4131.440980,N,07040.337023,W,0.01,104.0,280524,,,D*72
NAV 2024/05/28 20:01:35.390 CNAV $GPVTG,104.0,T,,M,0.01,N,0.01,K,D*0D
NAV 2024/05/28 20:01:35.481 CNAV $GPGGA,200135.00,4131.440980,N,07040.337023,W,2,17,0.9,18.323,M,-30.109,M,61.0,0000*70
NAV 2024/05/28 20:01:36.292 CNAV $GPZDA,200136.00,28,05,2024,00,00*6B
NAV 2024/05/28 20:01:36.368 CNAV $GPRMC,200136.00,A,4131.440984,N,07040.337023,W,0.01,45.0,280524,,,D*41
NAV 2024/05/28 20:01:36.406 CNAV $GPVTG,45.0,T,,M,0.01,N,0.01,K,D*39
NAV 2024/05/28 20:01:36.498 CNAV $GPGGA,200136.00,4131.440984,N,07040.337023,W,2,17,0.9,18.324,M,-30.109,M,62.0,0000*73
NAV 2024/05/28 20:01:37.268 CNAV $GPZDA,200137.00,28,05,2024,00,00*6A
NAV 2024/05/28 20:01:37.345 CNAV $GPRMC,200137.00,A,4131.440978,N,07040.337026,W,0.00,180.0,280524,,,D*7F
NAV 2024/05/28 20:01:37.385 CNAV $GPVTG,180.0,T,,M,0.00,N,0.01,K,D*00
NAV 2024/05/28 20:01:37.476 CNAV $GPGGA,200137.00,4131.440978,N,07040.337026,W,2,17,0.9,18.329,M,-30.109,M,63.0,0000*78
NAV 2024/05/28 20:01:38.283 CNAV $GPZDA,200138.00,28,05,2024,00,00*65
NAV 2024/05/28 20:01:38.360 CNAV $GPRMC,200138.00,A,4131.440976,N,07040.337030,W,0.01,213.7,280524,,,D*76
NAV 2024/05/28 20:01:38.400 CNAV $GPVTG,213.7,T,,M,0.01,N,0.01,K,D*0F
NAV 2024/05/28 20:01:38.491 CNAV $GPGGA,200138.00,4131.440976,N,07040.337030,W,2,17,0.9,18.323,M,-30.109,M,64.0,0000*73
NAV 2024/05/28 20:01:39.257 CNAV $GPZDA,200139.00,28,05,2024,00,00*64
NAV 2024/05/28 20:01:39.334 CNAV $GPRMC,200139.00,A,4131.440974,N,07040.337036,W,0.01,233.1,280524,,,D*77
NAV 2024/05/28 20:01:39.374 CNAV $GPVTG,233.1,T,,M,0.01,N,0.02,K,D*08
NAV 2024/05/28 20:01:39.465 CNAV $GPGGA,200139.00,4131.440974,N,07040.337036,W,2,17,0.9,18.325,M,-30.109,M,65.0,0000*71
NAV 2024/05/28 20:01:40.274 CNAV $GPZDA,200140.00,28,05,2024,00,00*6A
NAV 2024/05/28 20:01:40.351 CNAV $GPRMC,200140.00,A,4131.440975,N,07040.337043,W,0.01,261.9,280524,,,D*75
NAV 2024/05/28 20:01:40.391 CNAV $GPVTG,261.9,T,,M,0.01,N,0.02,K,D*07
NAV 2024/05/28 20:01:40.482 CNAV $GPGGA,200140.00,4131.440975,N,07040.337043,W,2,17,0.9,18.326,M,-30.109,M,66.0,0000*7C
NAV 2024/05/28 20:01:41.290 CNAV $GPZDA,200141.00,28,05,2024,00,00*6B
NAV 2024/05/28 20:01:41.367 CNAV $GPRMC,200141.00,A,4131.440978,N,07040.337044,W,0.01,281.3,280524,,,D*7A
NAV 2024/05/28 20:01:41.407 CNAV $GPVTG,281.3,T,,M,0.01,N,0.02,K,D*03
NAV 2024/05/28 20:01:41.498 CNAV $GPGGA,200141.00,4131.440978,N,07040.337044,W,2,17,0.9,18.322,M,-30.109,M,67.0,0000*72
NAV 2024/05/28 20:01:42.311 CNAV $GPZDA,200142.00,28,05,2024,00,00*68
NAV 2024/05/28 20:01:42.388 CNAV $GPRMC,200142.00,A,4131.440976,N,07040.337048,W,0.01,270.0,280524,,,D*76
NAV 2024/05/28 20:01:42.428 CNAV $GPVTG,270.0,T,,M,0.01,N,0.02,K,D*0E
NAV 2024/05/28 20:01:42.520 CNAV $GPGGA,200142.00,4131.440976,N,07040.337048,W,2,17,0.9,18.328,M,-30.109,M,68.0,0000*76
NAV 2024/05/28 20:01:43.275 CNAV $GPZDA,200143.00,28,05,2024,00,00*69
NAV 2024/05/28 20:01:43.352 CNAV $GPRMC,200143.00,A,4131.440976,N,07040.337045,W,0.00,243.4,280524,,,D*7F
NAV 2024/05/28 20:01:43.392 CNAV $GPVTG,243.4,T,,M,0.00,N,0.01,K,D*08
NAV 2024/05/28 20:01:43.484 CNAV $GPGGA,200143.00,4131.440976,N,07040.337045,W,2,17,0.9,18.323,M,-30.109,M,69.0,0000*70
NAV 2024/05/28 20:01:44.290 CNAV $GPZDA,200144.00,28,05,2024,00,00*6E
NAV 2024/05/28 20:01:44.367 CNAV $GPRMC,200144.00,A,4131.440970,N,07040.337043,W,0.01,180.0,280524,,,D*71
NAV 2024/05/28 20:01:44.407 CNAV $GPVTG,180.0,T,,M,0.01,N,0.01,K,D*01
NAV 2024/05/28 20:01:44.499 CNAV $GPGGA,200144.00,4131.440970,N,07040.337043,W,2,17,0.9,18.328,M,-30.109,M,70.0,0000*74
NAV 2024/05/28 20:01:45.310 CNAV $GPZDA,200145.00,28,05,2024,00,00*6F
NAV 2024/05/28 20:01:45.387 CNAV $GPRMC,200145.00,A,4131.440972,N,07040.337036,W,0.01,104.0,280524,,,D*7C
NAV 2024/05/28 20:01:45.427 CNAV $GPVTG,104.0,T,,M,0.01,N,0.01,K,D*0D
NAV 2024/05/28 20:01:45.519 CNAV $GPGGA,200145.00,4131.440972,N,07040.337036,W,2,17,0.9,18.331,M,-30.109,M,71.0,0000*7C
NAV 2024/05/28 20:01:46.275 CNAV $GPZDA,200146.00,28,05,2024,00,00*6C
NAV 2024/05/28 20:01:46.352 CNAV $GPRMC,200146.00,A,4131.440972,N,07040.337042,W,0.00,225.0,280524,,,D*7D
NAV 2024/05/28 20:01:46.392 CNAV $GPVTG,225.0,T,,M,0.00,N,0.00,K,D*0D
NAV 2024/05/28 20:01:46.483 CNAV $GPGGA,200146.00,4131.440972,N,07040.337042,W,2,17,0.9,18.333,M,-30.109,M,72.0,0000*7D
NAV 2024/05/28 20:01:47.290 CNAV $GPZDA,200147.00,28,05,2024,00,00*6D
NAV 2024/05/28 20:01:47.366 CNAV $GPRMC,200147.00,A,4131.440973,N,07040.337041,W,0.00,90.0,280524,,,D*42
NAV 2024/05/28 20:01:47.405 CNAV $GPVTG,90.0,T,,M,0.00,N,0.00,K,D*31
NAV 2024/05/28 20:01:47.497 CNAV $GPGGA,200147.00,4131.440973,N,07040.337041,W,2,17,0.9,18.326,M,-30.109,M,73.0,0000*7B
NAV 2024/05/28 20:01:48.312 CNAV $GPZDA,200148.00,28,05,2024,00,00*62
NAV 2024/05/28 20:01:48.389 CNAV $GPRMC,200148.00,A,4131.440975,N,07040.337046,W,0.01,303.7,280524,,,D*73
NAV 2024/05/28 20:01:48.429 CNAV $GPVTG,303.7,T,,M,0.01,N,0.01,K,D*0F
NAV 2024/05/28 20:01:48.521 CNAV $GPGGA,200148.00,4131.440975,N,07040.337046,W,2,17,0.9,18.331,M,-30.109,M,74.0,0000*74
NAV 2024/05/28 20:01:49.327 CNAV $GPZDA,200149.00,28,05,2024,00,00*63
NAV 2024/05/28 20:01:49.404 CNAV $GPRMC,200149.00,A,4131.440976,N,07040.337047,W,0.01,315.0,280524,,,D*70
NAV 2024/05/28 20:01:49.444 CNAV $GPVTG,315.0,T,,M,0.01,N,0.01,K,D*0F
NAV 2024/05/28 20:01:49.536 CNAV $GPGGA,200149.00,4131.440976,N,07040.337047,W,2,17,0.9,18.320,M,-30.109,M,75.0,0000*76
NAV 2024/05/28 20:01:50.293 CNAV $GPZDA,200150.00,28,05,2024,00,00*6B
NAV 2024/05/28 20:01:50.370 CNAV $GPRMC,200150.00,A,4131.440976,N,07040.337053,W,0.01,281.3,280524,,,D*72
NAV 2024/05/28 20:01:50.410 CNAV $GPVTG,281.3,T,,M,0.01,N,0.02,K,D*03
NAV 2024/05/28 20:01:50.502 CNAV $GPGGA,200150.00,4131.440976,N,07040.337053,W,2,17,0.9,18.321,M,-30.109,M,76.0,0000*79
NAV 2024/05/28 20:01:51.312 CNAV $GPZDA,200151.00,28,05,2024,00,00*6A
NAV 2024/05/28 20:01:51.389 CNAV $GPRMC,200151.00,A,4131.440986,N,07040.337054,W,0.01,336.8,280524,,,D*7D
NAV 2024/05/28 20:01:51.429 CNAV $GPVTG,336.8,T,,M,0.01,N,0.03,K,D*04
NAV 2024/05/28 20:01:51.521 CNAV $GPGGA,200151.00,4131.440986,N,07040.337054,W,2,17,0.9,18.319,M,-30.109,M,17.0,0000*7C
NAV 2024/05/28 20:01:52.278 CNAV $GPZDA,200152.00,28,05,2024,00,00*69
NAV 2024/05/28 20:01:52.355 CNAV $GPRMC,200152.00,A,4131.440991,N,07040.337054,W,0.02,346.0,280524,,,D*74
NAV 2024/05/28 20:01:52.395 CNAV $GPVTG,346.0,T,,M,0.02,N,0.03,K,D*08
NAV 2024/05/28 20:01:52.487 CNAV $GPGGA,200152.00,4131.440991,N,07040.337054,W,2,17,0.9,18.324,M,-30.109,M,18.0,0000*78
NAV 2024/05/28 20:01:53.292 CNAV $GPZDA,200153.00,28,05,2024,00,00*68
NAV 2024/05/28 20:01:53.367 CNAV $GPRMC,200153.00,A,4131.440989,N,07040.337051,W,0.01,0.0,280524,,,D*7B
NAV 2024/05/28 20:01:53.405 CNAV $GPVTG,0.0,T,,M,0.01,N,0.01,K,D*08
NAV 2024/05/28 20:01:53.497 CNAV $GPGGA,200153.00,4131.440989,N,07040.337051,W,2,17,0.9,18.323,M,-30.109,M,19.0,0000*73
NAV 2024/05/28 20:01:54.261 CNAV $GPZDA,200154.00,28,05,2024,00,00*6F
NAV 2024/05/28 20:01:54.339 CNAV $GPRMC,200154.00,A,4131.440984,N,07040.337046,W,0.01,108.4,280524,,,D*7A
NAV 2024/05/28 20:01:54.378 CNAV $GPVTG,108.4,T,,M,0.01,N,0.01,K,D*05
NAV 2024/05/28 20:01:54.470 CNAV $GPGGA,200154.00,4131.440984,N,07040.337046,W,2,17,0.9,18.330,M,-30.109,M,20.0,0000*77
NAV 2024/05/28 20:01:55.283 CNAV $GPZDA,200155.00,28,05,2024,00,00*6E
NAV 2024/05/28 20:01:55.359 CNAV $GPRMC,200155.00,A,4131.440985,N,07040.337044,W,0.01,90.0,280524,,,D*4C
NAV 2024/05/28 20:01:55.397 CNAV $GPVTG,90.0,T,,M,0.01,N,0.01,K,D*31
NAV 2024/05/28 20:01:55.489 CNAV $GPGGA,200155.00,4131.440985,N,07040.337044,W,2,17,0.9,18.315,M,-30.109,M,21.0,0000*73
NAV 2024/05/28 20:01:56.296 CNAV $GPZDA,200156.00,28,05,2024,00,00*6D
NAV 2024/05/28 20:01:56.372 CNAV $GPRMC,200156.00,A,4131.440986,N,07040.337038,W,0.01,78.7,280524,,,D*46
NAV 2024/05/28 20:01:56.411 CNAV $GPVTG,78.7,T,,M,0.01,N,0.02,K,D*33
NAV 2024/05/28 20:01:56.503 CNAV $GPGGA,200156.00,4131.440986,N,07040.337038,W,2,17,0.9,18.318,M,-30.109,M,22.0,0000*76
NAV 2024/05/28 20:01:57.315 CNAV $GPZDA,200157.00,28,05,2024,00,00*6C
NAV 2024/05/28 20:01:57.391 CNAV $GPRMC,200157.00,A,4131.440985,N,07040.337040,W,0.00,90.0,280524,,,D*4B
NAV 2024/05/28 20:01:57.429 CNAV $GPVTG,90.0,T,,M,0.00,N,0.01,K,D*30
NAV 2024/05/28 20:01:57.521 CNAV $GPGGA,200157.00,4131.440985,N,07040.337040,W,2,17,0.9,18.321,M,-30.109,M,23.0,0000*70
NAV 2024/05/28 20:01:58.281 CNAV $GPZDA,200158.00,28,05,2024,00,00*63
NAV 2024/05/28 20:01:58.358 CNAV $GPRMC,200158.00,A,4131.440984,N,07040.337050,W,0.01,256.0,280524,,,D*7D
NAV 2024/05/28 20:01:58.397 CNAV $GPVTG,256.0,T,,M,0.01,N,0.01,K,D*09
NAV 2024/05/28 20:01:58.489 CNAV $GPGGA,200158.00,4131.440984,N,07040.337050,W,2,17,0.9,18.327,M,-30.109,M,24.0,0000*7E
NAV 2024/05/28 20:01:59.297 CNAV $GPZDA,200159.00,28,05,2024,00,00*62
NAV 2024/05/28 20:01:59.374 CNAV $GPRMC,200159.00,A,4131.440986,N,07040.337058,W,0.01,278.1,280524,,,D*7B
NAV 2024/05/28 20:01:59.413 CNAV $GPVTG,278.1,T,,M,0.01,N,0.02,K,D*07
NAV 2024/05/28 20:01:59.505 CNAV $GPGGA,200159.00,4131.440986,N,07040.337058,W,2,17,0.9,18.334,M,-30.109,M,25.0,0000*76
NAV 2024/05/28 20:02:00.317 CNAV $GPZDA,200200.00,28,05,2024,00,00*6D
NAV 2024/05/28 20:02:00.394 CNAV $GPRMC,200200.00,A,4131.440987,N,07040.337064,W,0.01,278.1,280524,,,D*7A
NAV 2024/05/28 20:02:00.433 CNAV $GPVTG,278.1,T,,M,0.01,N,0.02,K,D*07
NAV 2024/05/28 20:02:00.525 CNAV $GPGGA,200200.00,4131.440987,N,07040.337064,W,2,17,0.9,18.342,M,-30.109,M,26.0,0000*75
NAV 2024/05/28 20:02:01.284 CNAV $GPZDA,200201.00,28,05,2024,00,00*6C
NAV 2024/05/28 20:02:01.361 CNAV $GPRMC,200201.00,A,4131.440986,N,07040.337061,W,0.01,270.0,280524,,,D*76
NAV 2024/05/28 20:02:01.400 CNAV $GPVTG,270.0,T,,M,0.01,N,0.01,K,D*0D
NAV 2024/05/28 20:02:01.492 CNAV $GPGGA,200201.00,4131.440986,N,07040.337061,W,2,17,0.9,18.343,M,-30.109,M,27.0,0000*70
NAV 2024/05/28 20:02:02.248 CNAV $GPZDA,200202.00,28,05,2024,00,00*6F
NAV 2024/05/28 20:02:02.325 CNAV $GPRMC,200202.00,A,4131.440984,N,07040.337053,W,0.00,116.6,280524,,,D*72
NAV 2024/05/28 20:02:02.364 CNAV $GPVTG,116.6,T,,M,0.00,N,0.01,K,D*09
NAV 2024/05/28 20:02:02.456 CNAV $GPGGA,200202.00,4131.440984,N,07040.337053,W,2,17,0.9,18.337,M,-30.109,M,28.0,0000*7C
NAV 2024/05/28 20:02:03.321 CNAV $GPZDA,200203.00,28,05,2024,00,00*6E
NAV 2024/05/28 20:02:03.398 CNAV $GPRMC,200203.00,A,4131.440983,N,07040.337047,W,0.01,104.0,280524,,,D*75
NAV 2024/05/28 20:02:03.437 CNAV $GPVTG,104.0,T,,M,0.01,N,0.01,K,D*0D
NAV 2024/05/28 20:02:03.529 CNAV $GPGGA,200203.00,4131.440983,N,07040.337047,W,2,17,0.9,18.339,M,-30.109,M,29.0,0000*70
NAV 2024/05/28 20:02:04.286 CNAV $GPZDA,200204.00,28,05,2024,00,00*69
NAV 2024/05/28 20:02:04.363 CNAV $GPRMC,200204.00,A,4131.440982,N,07040.337047,W,0.01,123.7,280524,,,D*71
NAV 2024/05/28 20:02:04.402 CNAV $GPVTG,123.7,T,,M,0.01,N,0.01,K,D*0F
NAV 2024/05/28 20:02:04.494 CNAV $GPGGA,200204.00,4131.440982,N,07040.337047,W,2,17,0.9,18.348,M,-30.109,M,30.0,0000*78
NAV 2024/05/28 20:02:05.301 CNAV $GPZDA,200205.00,28,05,2024,00,00*68
NAV 2024/05/28 20:02:05.378 CNAV $GPRMC,200205.00,A,4131.440983,N,07040.337053,W,0.00,225.0,280524,,,D*77
NAV 2024/05/28 20:02:05.418 CNAV $GPVTG,225.0,T,,M,0.00,N,0.00,K,D*0D
NAV 2024/05/28 20:02:05.509 CNAV $GPGGA,200205.00,4131.440983,N,07040.337053,W,2,17,0.9,18.347,M,-30.109,M,31.0,0000*73
NAV 2024/05/28 20:02:06.321 CNAV $GPZDA,200206.00,28,05,2024,00,00*6B
NAV 2024/05/28 20:02:06.398 CNAV $GPRMC,200206.00,A,4131.440985,N,07040.337060,W,0.01,284.0,280524,,,D*78
NAV 2024/05/28 20:02:06.437 CNAV $GPVTG,284.0,T,,M,0.01,N,0.01,K,D*06
NAV 2024/05/28 20:02:06.529 CNAV $GPGGA,200206.00,4131.440985,N,07040.337060,W,2,17,0.9,18.338,M,-30.109,M,32.0,0000*7D
NAV 2024/05/28 20:02:07.284 CNAV $GPZDA,200207.00,28,05,2024,00,00*6A
NAV 2024/05/28 20:02:07.361 CNAV $GPRMC,200207.00,A,4131.440986,N,07040.337067,W,0.01,279.5,280524,,,D*7A
NAV 2024/05/28 20:02:07.400 CNAV $GPVTG,279.5,T,,M,0.01,N,0.02,K,D*02
NAV 2024/05/28 20:02:07.492 CNAV $GPGGA,200207.00,4131.440986,N,07040.337067,W,2,17,0.9,18.337,M,-30.109,M,33.0,0000*76
NAV 2024/05/28 20:02:08.300 CNAV $GPZDA,200208.00,28,05,2024,00,00*65
NAV 2024/05/28 20:02:08.377 CNAV $GPRMC,200208.00,A,4131.440986,N,07040.337066,W,0.01,284.0,280524,,,D*73
NAV 2024/05/28 20:02:08.417 CNAV $GPVTG,284.0,T,,M,0.01,N,0.01,K,D*06
NAV 2024/05/28 20:02:08.508 CNAV $GPGGA,200208.00,4131.440986,N,07040.337066,W,2,17,0.9,18.340,M,-30.109,M,34.0,0000*7F
NAV 2024/05/28 20:02:09.217 CNAV $GPZDA,200209.00,28,05,2024,00,00*64
NAV 2024/05/28 20:02:09.293 CNAV $GPRMC,200209.00,A,4131.440989,N,07040.337058,W,0.01,33.7,280524,,,D*49
NAV 2024/05/28 20:02:09.332 CNAV $GPVTG,33.7,T,,M,0.01,N,0.01,K,D*3F
NAV 2024/05/28 20:02:09.423 CNAV $GPGGA,200209.00,4131.440989,N,07040.337058,W,2,17,0.9,18.338,M,-30.109,M,35.0,0000*72
NAV 2024/05/28 20:02:10.284 CNAV $GPZDA,200210.00,28,05,2024,00,00*6C
NAV 2024/05/28 20:02:10.361 CNAV $GPRMC,200210.00,A,4131.440983,N,07040.337056,W,0.01,135.0,280524,,,D*75
NAV 2024/05/28 20:02:10.401 CNAV $GPVTG,135.0,T,,M,0.01,N,0.01,K,D*0F
NAV 2024/05/28 20:02:10.492 CNAV $GPGGA,200210.00,4131.440983,N,07040.337056,W,2,17,0.9,18.337,M,-30.109,M,36.0,0000*72
NAV 2024/05/28 20:02:11.300 CNAV $GPZDA,200211.00,28,05,2024,00,00*6D
NAV 2024/05/28 20:02:11.377 CNAV $GPRMC,200211.00,A,4131.440977,N,07040.337051,W,0.01,141.3,280524,,,D*78
NAV 2024/05/28 20:02:11.417 CNAV $GPVTG,141.3,T,,M,0.01,N,0.02,K,D*0C
NAV 2024/05/28 20:02:11.508 CNAV $GPGGA,200211.00,4131.440977,N,07040.337051,W,2,17,0.9,18.350,M,-30.109,M,37.0,0000*7F
NAV 2024/05/28 20:02:12.269 CNAV $GPZDA,200212.00,28,05,2024,00,00*6E
NAV 2024/05/28 20:02:12.346 CNAV $GPRMC,200212.00,A,4131.440973,N,07040.337052,W,0.01,161.6,280524,,,D*7B
NAV 2024/05/28 20:02:12.386 CNAV $GPVTG,161.6,T,,M,0.01,N,0.02,K,D*0B
NAV 2024/05/28 20:02:12.477 CNAV $GPGGA,200212.00,4131.440973,N,07040.337052,W,2,17,0.9,18.362,M,-30.109,M,38.0,0000*75
NAV 2024/05/28 20:02:13.284 CNAV $GPZDA,200213.00,28,05,2024,00,00*6F
NAV 2024/05/28 20:02:13.361 CNAV $GPRMC,200213.00,A,4131.440977,N,07040.337055,W,0.00,180.0,280524,,,D*71
NAV 2024/05/28 20:02:13.401 CNAV $GPVTG,180.0,T,,M,0.00,N,0.00,K,D*01
NAV 2024/05/28 20:02:13.493 CNAV $GPGGA,200213.00,4131.440977,N,07040.337055,W,2,17,0.9,18.350,M,-30.109,M,39.0,0000*77
NAV 2024/05/28 20:02:14.250 CNAV $GPZDA,200214.00,28,05,2024,00,00*68
NAV 2024/05/28 20:02:14.327 CNAV $GPRMC,200214.00,A,4131.440983,N,07040.337064,W,0.01,301.0,280524,,,D*75
NAV 2024/05/28 20:02:14.367 CNAV $GPVTG,301.0,T,,M,0.01,N,0.02,K,D*09
NAV 2024/05/28 20:02:14.459 CNAV $GPGGA,200214.00,4131.440983,N,07040.337064,W,2,17,0.9,18.359,M,-30.109,M,40.0,0000*7E
NAV 2024/05/28 20:02:15.271 CNAV $GPZDA,200215.00,28,05,2024,00,00*69
NAV 2024/05/28 20:02:15.348 CNAV $GPRMC,200215.00,A,4131.440987,N,07040.337071,W,0.02,305.5,280524,,,D*76
NAV 2024/05/28 20:02:15.388 CNAV $GPVTG,305.5,T,,M,0.02,N,0.03,K,D*0A
NAV 2024/05/28 20:02:15.480 CNAV $GPGGA,200215.00,4131.440987,N,07040.337071,W,2,17,0.9,18.350,M,-30.109,M,41.0,0000*77
NAV 2024/05/28 20:02:16.286 CNAV $GPZDA,200216.00,28,05,2024,00,00*6A
NAV 2024/05/28 20:02:16.363 CNAV $GPRMC,200216.00,A,4131.440987,N,07040.337071,W,0.01,306.9,280524,,,D*79
NAV 2024/05/28 20:02:16.403 CNAV $GPVTG,306.9,T,,M,0.01,N,0.02,K,D*07
NAV 2024/05/28 20:02:16.495 CNAV $GPGGA,200216.00,4131.440987,N,07040.337071,W,2,17,0.9,18.347,M,-30.109,M,42.0,0000*71
NAV 2024/05/28 20:02:17.301 CNAV $GPZDA,200217.00,28,05,2024,00,00*6B
NAV 2024/05/28 20:02:17.378 CNAV $GPRMC,200217.00,A,4131.440982,N,07040.337070,W,0.00,243.4,280524,,,D*70
NAV 2024/05/28 20:02:17.418 CNAV $GPVTG,243.4,T,,M,0.00,N,0.01,K,D*08
NAV 2024/05/28 20:02:17.510 CNAV $GPGGA,200217.00,4131.440982,N,07040.337070,W,2,17,0.9,18.354,M,-30.109,M,43.0,0000*77
NAV 2024/05/28 20:02:18.271 CNAV $GPZDA,200218.00,28,05,2024,00,00*64
NAV 2024/05/28 20:02:18.348 CNAV $GPRMC,200218.00,A,4131.440982,N,07040.337062,W,0.01,108.4,280524,,,D*71
NAV 2024/05/28 20:02:18.388 CNAV $GPVTG,108.4,T,,M,0.01,N,0.01,K,D*05
NAV 2024/05/28 20:02:18.480 CNAV $GPGGA,200218.00,4131.440982,N,07040.337062,W,2,17,0.9,18.365,M,-30.109,M,44.0,0000*7E
NAV 2024/05/28 20:02:19.286 CNAV $GPZDA,200219.00,28,05,2024,00,00*65
NAV 2024/05/28 20:02:19.363 CNAV $GPRMC,200219.00,A,4131.440981,N,07040.337055,W,0.01,101.3,280524,,,D*79
NAV 2024/05/28 20:02:19.403 CNAV $GPVTG,101.3,T,,M,0.01,N,0.02,K,D*08
NAV 2024/05/28 20:02:19.495 CNAV $GPGGA,200219.00,4131.440981,N,07040.337055,W,2,17,0.9,18.370,M,-30.109,M,45.0,0000*7D
NAV 2024/05/28 20:02:20.250 CNAV $GPZDA,200220.00,28,05,2024,00,00*6F
NAV 2024/05/28 20:02:20.328 CNAV $GPRMC,200220.00,A,4131.440980,N,07040.337054,W,0.01,116.6,280524,,,D*70
NAV 2024/05/28 20:02:20.367 CNAV $GPVTG,116.6,T,,M,0.01,N,0.02,K,D*0B
NAV 2024/05/28 20:02:20.459 CNAV $GPGGA,200220.00,4131.440980,N,07040.337054,W,2,17,0.9,18.375,M,-30.109,M,46.0,0000*71
NAV 2024/05/28 20:02:21.216 CNAV $GPZDA,200221.00,28,05,2024,00,00*6E
NAV 2024/05/28 20:02:21.292 CNAV $GPRMC,200221.00,A,4131.440985,N,07040.337052,W,0.01,45.0,280524,,,D*43
NAV 2024/05/28 20:02:21.330 CNAV $GPVTG,45.0,T,,M,0.01,N,0.01,K,D*39
NAV 2024/05/28 20:02:21.422 CNAV $GPGGA,200221.00,4131.440985,N,07040.337052,W,2,17,0.9,18.363,M,-30.109,M,47.0,0000*75
NAV 2024/05/28 20:02:22.287 CNAV $GPZDA,200222.00,28,05,2024,00,00*6D
NAV 2024/05/28 20:02:22.362 CNAV $GPRMC,200222.00,A,4131.440989,N,07040.337055,W,0.01,0.0,280524,,,D*7A
NAV 2024/05/28 20:02:22.399 CNAV $GPVTG,0.0,T,,M,0.01,N,0.01,K,D*08
NAV 2024/05/28 20:02:22.491 CNAV $GPGGA,200222.00,4131.440989,N,07040.337055,W,2,17,0.9,18.362,M,-30.109,M,48.0,0000*73
NAV 2024/05/28 20:02:23.302 CNAV $GPZDA,200223.00,28,05,2024,00,00*6C
NAV 2024/05/28 20:02:23.379 CNAV $GPRMC,200223.00,A,4131.440989,N,07040.337062,W,0.01,315.0,280524,,,D*78
NAV 2024/05/28 20:02:23.419 CNAV $GPVTG,315.0,T,,M,0.01,N,0.01,K,D*0F
NAV 2024/05/28 20:02:23.511 CNAV $GPGGA,200223.00,4131.440989,N,07040.337062,W,2,17,0.9,18.357,M,-30.109,M,49.0,0000*71
NAV 2024/05/28 20:02:24.317 CNAV $GPZDA,200224.00,28,05,2024,00,00*6B
NAV 2024/05/28 20:02:24.394 CNAV $GPRMC,200224.00,A,4131.440988,N,07040.337067,W,0.01,281.3,280524,,,D*74
NAV 2024/05/28 20:02:24.434 CNAV $GPVTG,281.3,T,,M,0.01,N,0.02,K,D*03
NAV 2024/05/28 20:02:24.526 CNAV $GPGGA,200224.00,4131.440988,N,07040.337067,W,2,17,0.9,18.352,M,-30.109,M,50.0,0000*7F
NAV 2024/05/28 20:02:25.287 CNAV $GPZDA,200225.00,28,05,2024,00,00*6A
NAV 2024/05/28 20:02:25.364 CNAV $GPRMC,200225.00,A,4131.440988,N,07040.337066,W,0.01,288.4,280524,,,D*7A
NAV 2024/05/28 20:02:25.404 CNAV $GPVTG,288.4,T,,M,0.01,N,0.01,K,D*0E
NAV 2024/05/28 20:02:25.496 CNAV $GPGGA,200225.00,4131.440988,N,07040.337066,W,2,17,0.9,18.353,M,-30.109,M,51.0,0000*7F
NAV 2024/05/28 20:02:26.304 CNAV $GPZDA,200226.00,28,05,2024,00,00*69
NAV 2024/05/28 20:02:26.380 CNAV $GPRMC,200226.00,A,4131.440987,N,07040.337064,W,0.00,90.0,280524,,,D*4A
NAV 2024/05/28 20:02:26.418 CNAV $GPVTG,90.0,T,,M,0.00,N,0.00,K,D*31
NAV 2024/05/28 20:02:26.509 CNAV $GPGGA,200226.00,4131.440987,N,07040.337064,W,2,17,0.9,18.352,M,-30.109,M,52.0,0000*73
NAV 2024/05/28 20:02:27.216 CNAV $GPZDA,200227.00,28,05,2024,00,00*68
NAV 2024/05/28 20:02:27.293 CNAV $GPRMC,200227.00,A,4131.440982,N,07040.337060,W,0.01,153.4,280524,,,D*71
NAV 2024/05/28 20:02:27.332 CNAV $GPVTG,153.4,T,,M,0.01,N,0.02,K,D*08
NAV 2024/05/28 20:02:27.424 CNAV $GPGGA,200227.00,4131.440982,N,07040.337060,W,2,17,0.9,18.356,M,-30.109,M,53.0,0000*76
NAV 2024/05/28 20:02:28.288 CNAV $GPZDA,200228.00,28,05,2024,00,00*67
NAV 2024/05/28 20:02:28.365 CNAV $GPRMC,200228.00,A,4131.440979,N,07040.337053,W,0.01,135.0,280524,,,D*7E
NAV 2024/05/28 20:02:28.404 CNAV $GPVTG,135.0,T,,M,0.01,N,0.02,K,D*0C
NAV 2024/05/28 20:02:28.496 CNAV $GPGGA,200228.00,4131.440979,N,07040.337053,W,2,17,0.9,18.356,M,-30.109,M,54.0,0000*7A
NAV 2024/05/28 20:02:29.252 CNAV $GPZDA,200229.00,28,05,2024,00,00*66
NAV 2024/05/28 20:02:29.329 CNAV $GPRMC,200229.00,A,4131.440975,N,07040.337053,W,0.01,149.0,280524,,,D*78
NAV 2024/05/28 20:02:29.368 CNAV $GPVTG,149.0,T,,M,0.01,N,0.02,K,D*07
NAV 2024/05/28 20:02:29.460 CNAV $GPGGA,200229.00,4131.440975,N,07040.337053,W,2,17,0.9,18.363,M,-30.109,M,55.0,0000*70
NAV 2024/05/28 20:02:30.267 CNAV $GPZDA,200230.00,28,05,2024,00,00*6E
NAV 2024/05/28 20:02:30.344 CNAV $GPRMC,200230.00,A,4131.440979,N,07040.337052,W,0.00,116.6,280524,,,D*70
NAV 2024/05/28 20:02:30.383 CNAV $GPVTG,116.6,T,,M,0.00,N,0.01,K,D*09
NAV 2024/05/28 20:02:30.475 CNAV $GPGGA,200230.00,4131.440979,N,07040.337052,W,2,17,0.9,18.363,M,-30.109,M,56.0,0000*76
NAV 2024/05/28 20:02:31.286 CNAV $GPZDA,200231.00,28,05,2024,00,00*6F
NAV 2024/05/28 20:02:31.363 CNAV $GPRMC,200231.00,A,4131.440983,N,07040.337057,W,0.00,333.4,280524,,,D*76
NAV 2024/05/28 20:02:31.402 CNAV $GPVTG,333.4,T,,M,0.00,N,0.01,K,D*0E
NAV 2024/05/28 20:02:31.494 CNAV $GPGGA,200231.00,4131.440983,N,07040.337057,W,2,17,0.9,18.370,M,-30.109,M,57.0,0000*74
NAV 2024/05/28 20:02:32.303 CNAV $GPZDA,200232.00,28,05,2024,00,00*6C
NAV 2024/05/28 20:02:32.380 CNAV $GPRMC,200232.00,A,4131.440988,N,07040.337061,W,0.01,329.0,280524,,,D*75
NAV 2024/05/28 20:02:32.419 CNAV $GPVTG,329.0,T,,M,0.01,N,0.02,K,D*03
NAV 2024/05/28 20:02:32.511 CNAV $GPGGA,200232.00,4131.440988,N,07040.337061,W,2,17,0.9,18.365,M,-30.109,M,58.0,0000*72
NAV 2024/05/28 20:02:33.267 CNAV $GPZDA,200233.00,28,05,2024,00,00*6D
NAV 2024/05/28 20:02:33.344 CNAV $GPRMC,200233.00,A,4131.440984,N,07040.337062,W,0.00,270.0,280524,,,D*77
NAV 2024/05/28 20:02:33.383 CNAV $GPVTG,270.0,T,,M,0.00,N,0.01,K,D*0C
NAV 2024/05/28 20:02:33.475 CNAV $GPGGA,200233.00,4131.440984,N,07040.337062,W,2,17,0.9,18.360,M,-30.109,M,59.0,0000*78
NAV 2024/05/28 20:02:34.289 CNAV $GPZDA,200234.00,28,05,2024,00,00*6A
NAV 2024/05/28 20:02:34.366 CNAV $GPRMC,200234.00,A,4131.440978,N,07040.337063,W,0.01,206.6,280524,,,D*74
NAV 2024/05/28 20:02:34.405 CNAV $GPVTG,206.6,T,,M,0.01,N,0.02,K,D*09
NAV 2024/05/28 20:02:34.497 CNAV $GPGGA,200234.00,4131.440978,N,07040.337063,W,2,17,0.9,18.354,M,-30.109,M,60.0,0000*70
NAV 2024/05/28 20:02:35.304 CNAV $GPZDA,200235.00,28,05,2024,00,00*6B
NAV 2024/05/28 20:02:35.381 CNAV $GPRMC,200235.00,A,4131.440974,N,07040.337060,W,0.01,180.0,280524,,,D*71
NAV 2024/05/28 20:02:35.420 CNAV $GPVTG,180.0,T,,M,0.01,N,0.02,K,D*02
NAV 2024/05/28 20:02:35.511 CNAV $GPGGA,200235.00,4131.440974,N,07040.337060,W,2,17,0.9,18.359,M,-30.109,M,61.0,0000*72
NAV 2024/05/28 20:02:36.268 CNAV $GPZDA,200236.00,28,05,2024,00,00*68
NAV 2024/05/28 20:02:36.345 CNAV $GPRMC,200236.00,A,4131.440974,N,07040.337054,W,0.01,135.0,280524,,,D*7B
NAV 2024/05/28 20:02:36.384 CNAV $GPVTG,135.0,T,,M,0.01,N,0.01,K,D*0F
NAV 2024/05/28 20:02:36.476 CNAV $GPGGA,200236.00,4131.440974,N,07040.337054,W,2,17,0.9,18.368,M,-30.109,M,62.0,0000*77
NAV 2024/05/28 20:02:37.288 CNAV $GPZDA,200237.00,28,05,2024,00,00*69
NAV 2024/05/28 20:02:37.365 CNAV $GPRMC,200237.00,A,4131.440972,N,07040.337053,W,0.01,135.0,280524,,,D*7B
NAV 2024/05/28 20:02:37.405 CNAV $GPVTG,135.0,T,,M,0.01,N,0.01,K,D*0F
NAV 2024/05/28 20:02:37.496 CNAV $GPGGA,200237.00,4131.440972,N,07040.337053,W,2,17,0.9,18.375,M,-30.109,M,63.0,0000*7A
NAV 2024/05/28 20:02:38.303 CNAV $GPZDA,200238.00,28,05,2024,00,00*66
NAV 2024/05/28 20:02:38.380 CNAV $GPRMC,200238.00,A,4131.440974,N,07040.337046,W,0.01,101.3,280524,,,D*72
NAV 2024/05/28 20:02:38.420 CNAV $GPVTG,101.3,T,,M,0.01,N,0.02,K,D*08
NAV 2024/05/28 20:02:38.511 CNAV $GPGGA,200238.00,4131.440974,N,07040.337046,W,2,17,0.9,18.368,M,-30.109,M,64.0,0000*7C
NAV 2024/05/28 20:02:39.267 CNAV $GPZDA,200239.00,28,05,2024,00,00*67
NAV 2024/05/28 20:02:39.343 CNAV $GPRMC,200239.00,A,4131.440975,N,07040.337043,W,0.01,90.0,280524,,,D*4D
NAV 2024/05/28 20:02:39.381 CNAV $GPVTG,90.0,T,,M,0.01,N,0.02,K,D*32
NAV 2024/05/28 20:02:39.473 CNAV $GPGGA,200239.00,4131.440975,N,07040.337043,W,2,17,0.9,18.367,M,-30.109,M,65.0,0000*77
NAV 2024/05/28 20:02:40.240 CNAV $GPZDA,200240.00,28,05,2024,00,00*69
NAV 2024/05/28 20:02:40.316 CNAV $GPRMC,200240.00,A,4131.440974,N,07040.337043,W,0.01,90.0,280524,,,D*42
NAV 2024/05/28 20:02:40.355 CNAV $GPVTG,90.0,T,,M,0.01,N,0.01,K,D*31
NAV 2024/05/28 20:02:40.446 CNAV $GPGGA,200240.00,4131.440974,N,07040.337043,W,2,17,0.9,18.372,M,-30.109,M,66.0,0000*7F
NAV 2024/05/28 20:02:41.255 CNAV $GPZDA,200241.00,28,05,2024,00,00*68
NAV 2024/05/28 20:02:41.331 CNAV $GPRMC,200241.00,A,4131.440976,N,07040.337039,W,0.01,76.0,280524,,,D*44
NAV 2024/05/28 20:02:41.370 CNAV $GPVTG,76.0,T,,M,0.01,N,0.01,K,D*39
NAV 2024/05/28 20:02:41.461 CNAV $GPGGA,200241.00,4131.440976,N,07040.337039,W,2,17,0.9,18.374,M,-30.109,M,67.0,0000*76
NAV 2024/05/28 20:02:42.270 CNAV $GPZDA,200242.00,28,05,2024,00,00*6B
NAV 2024/05/28 20:02:42.346 CNAV $GPRMC,200242.00,A,4131.440982,N,07040.337036,W,0.01,45.0,280524,,,D*43
NAV 2024/05/28 20:02:42.384 CNAV $GPVTG,45.0,T,,M,0.01,N,0.02,K,D*3A
NAV 2024/05/28 20:02:42.476 CNAV $GPGGA,200242.00,4131.440982,N,07040.337036,W,2,17,0.9,18.368,M,-30.109,M,68.0,0000*73
NAV 2024/05/28 20:02:43.251 CNAV $GPZDA,200243.00,28,05,2024,00,00*6A
NAV 2024/05/28 20:02:43.327 CNAV $GPRMC,200243.00,A,4131.440985,N,07040.337030,W,0.01,50.2,280524,,,D*45
NAV 2024/05/28 20:02:43.366 CNAV $GPVTG,50.2,T,,M,0.01,N,0.03,K,D*3D
NAV 2024/05/28 20:02:43.457 CNAV $GPGGA,200243.00,4131.440985,N,07040.337030,W,2,17,0.9,18.368,M,-30.109,M,69.0,0000*72
NAV 2024/05/28 20:02:44.269 CNAV $GPZDA,200244.00,28,05,2024,00,00*6D
