$GPZDA,200408.00,07,10,2024,00,00*6A

$GPRMC,200408.00,A,3242.397999,N,11714.172305,W,0.05,40.1,071024,,,D*44

$GPVTG,40.1,T,,M,0.05,N,0.09,K,D*31

$GPGGA,200408.00,3242.397999,N,11714.172305,W,2,12,0.7,26.428,M,-35.545,M,6.0,0402*4F

$GPZDA,200409.00,07,10,2024,00,00*6B

$GPRMC,200409.00,A,3242.398012,N,11714.172300,W,0.04,12.8,071024,,,D*4A

$GPVTG,12.8,T,,M,0.04,N,0.08,K,D*3F

$GPGGA,200409.00,3242.398012,N,11714.172300,W,2,12,0.7,26.413,M,-35.545,M,7.0,0402*47

$GPZDA,200410.00,07,10,2024,00,00*63

$GPRMC,200410.00,A,3242.398010,N,11714.172299,W,0.01,63.4,071024,,,D*4E

$GPVTG,63.4,T,,M,0.01,N,0.02,K,D*3A

$GPGGA,200410.00,3242.398010,N,11714.172299,W,2,12,0.7,26.427,M,-35.545,M,4.0,0402*48

$GPZDA,200411.00,07,10,2024,00,00*62

$GPRMC,200411.00,A,3242.398006,N,11714.172298,W,0.02,186.3,071024,,,D*77

$GPVTG,186.3,T,,M,0.02,N,0.03,K,D*05

$GPGGA,200411.00,3242.398006,N,11714.172298,W,2,12,0.7,26.403,M,-35.545,M,4.0,0402*49

$GPZDA,200412.00,07,10,2024,00,00*61

$GPRMC,200412.00,A,3242.397987,N,11714.172315,W,0.07,218.4,071024,,,D*79

$GPVTG,218.4,T,,M,0.07,N,0.13,K,D*02

$GPGGA,200412.00,3242.397987,N,11714.172315,W,2,12,0.7,26.408,M,-35.545,M,5.0,0402*4B

$GPZDA,200413.00,07,10,2024,00,00*60

$GPRMC,200413.00,A,3242.397963,N,11714.172336,W,0.08,219.5,071024,,,D*7C

$GPVTG,219.5,T,,M,0.08,N,0.15,K,D*0B

$GPGGA,200413.00,3242.397963,N,11714.172336,W,2,11,0.8,26.397,M,-35.545,M,6.0,0402*4F

$GPZDA,200414.00,07,10,2024,00,00*67

$GPRMC,200414.00,A,3242.397939,N,11714.172362,W,0.10,221.8,071024,,,D*7A

$GPVTG,221.8,T,,M,0.10,N,0.18,K,D*09

$GPGGA,200414.00,3242.397939,N,11714.172362,W,2,11,0.8,26.417,M,-35.545,M,7.0,0402*48

$GPZDA,200415.00,07,10,2024,00,00*66

$GPRMC,200415.00,A,3242.397924,N,11714.172375,W,0.06,215.3,071024,,,D*7A

$GPVTG,215.3,T,,M,0.06,N,0.10,K,D*0A

$GPGGA,200415.00,3242.397924,N,11714.172375,W,2,11,0.8,26.408,M,-35.545,M,4.0,0402*4E

$GPZDA,200416.00,07,10,2024,00,00*65

$GPRMC,200416.00,A,3242.397908,N,11714.172383,W,0.05,205.6,071024,,,D*79

$GPVTG,205.6,T,,M,0.05,N,0.09,K,D*05

$GPGGA,200416.00,3242.397908,N,11714.172383,W,2,11,0.8,26.417,M,-35.545,M,4.0,0402*44

$GPZDA,200417.00,07,10,2024,00,00*64

$GPRMC,200417.00,A,3242.397902,N,11714.172379,W,0.01,129.8,071024,,,D*70

$GPVTG,129.8,T,,M,0.01,N,0.03,K,D*08

$GPGGA,200417.00,3242.397902,N,11714.172379,W,2,11,0.8,26.403,M,-35.545,M,5.0,0402*4E

$GPZDA,200418.00,07,10,2024,00,00*6B

$GPRMC,200418.00,A,3242.397902,N,11714.172375,W,0.01,38.7,071024,,,D*4D

$GPVTG,38.7,T,,M,0.01,N,0.02,K,D*37

$GPGGA,200418.00,3242.397902,N,11714.172375,W,2,11,0.8,26.395,M,-35.545,M,6.0,0402*46

$GPZDA,200419.00,07,10,2024,00,00*6A

$GPRMC,200419.00,A,3242.397913,N,11714.172374,W,0.05,18.4,071024,,,D*48

$GPVTG,18.4,T,,M,0.05,N,0.09,K,D*39

$GPGGA,200419.00,3242.397913,N,11714.172374,W,2,11,0.8,26.408,M,-35.545,M,7.0,0402*44

$GPZDA,200420.00,07,10,2024,00,00*60

$GPRMC,200420.00,A,3242.397927,N,11714.172364,W,0.07,28.0,071024,,,D*41

$GPVTG,28.0,T,,M,0.07,N,0.13,K,D*37

$GPGGA,200420.00,3242.397927,N,11714.172364,W,2,12,0.8,26.416,M,-35.545,M,4.0,0402*47

$GPZDA,200421.00,07,10,2024,00,00*61

$GPRMC,200421.00,A,3242.397942,N,11714.172348,W,0.07,39.8,071024,,,D*45

$GPVTG,39.8,T,,M,0.07,N,0.14,K,D*38

$GPGGA,200421.00,3242.397942,N,11714.172348,W,2,12,0.8,26.416,M,-35.545,M,4.0,0402*4B

$GPZDA,200422.00,07,10,2024,00,00*62

$GPRMC,200422.00,A,3242.397944,N,11714.172335,W,0.04,64.5,071024,,,D*4C

$GPVTG,64.5,T,,M,0.04,N,0.08,K,D*33

$GPGGA,200422.00,3242.397944,N,11714.172335,W,2,12,0.8,26.400,M,-35.545,M,5.0,0402*42

$GPZDA,200423.00,07,10,2024,00,00*63

$GPRMC,200423.00,A,3242.397948,N,11714.172330,W,0.02,29.7,071024,,,D*49

$GPVTG,29.7,T,,M,0.02,N,0.03,K,D*35

$GPGGA,200423.00,3242.397948,N,11714.172330,W,2,12,0.8,26.398,M,-35.545,M,6.0,0402*4F

$GPZDA,200424.00,07,10,2024,00,00*64

$GPRMC,200424.00,A,3242.397947,N,11714.172333,W,0.02,270.0,071024,,,D*7B

$GPVTG,270.0,T,,M,0.02,N,0.04,K,D*0B

$GPGGA,200424.00,3242.397947,N,11714.172333,W,2,12,0.8,26.398,M,-35.545,M,7.0,0402*45

$GPZDA,200425.00,07,10,2024,00,00*65

$GPRMC,200425.00,A,3242.397949,N,11714.172341,W,0.03,245.0,071024,,,D*76

$GPVTG,245.0,T,,M,0.03,N,0.06,K,D*0E

$GPGGA,200425.00,3242.397949,N,11714.172341,W,2,12,0.8,26.398,M,-35.545,M,4.0,0402*4C

$GPZDA,200426.00,07,10,2024,00,00*66

$GPRMC,200426.00,A,3242.397936,N,11714.172341,W,0.04,198.4,071024,,,D*7D

$GPVTG,198.4,T,,M,0.04,N,0.07,K,D*0F

$GPGGA,200426.00,3242.397936,N,11714.172341,W,2,12,0.8,26.428,M,-35.545,M,4.0,0402*4B

$GPZDA,200427.00,07,10,2024,00,00*67

$GPRMC,200427.00,A,3242.397920,N,11714.172340,W,0.05,162.3,071024,,,D*79

$GPVTG,162.3,T,,M,0.05,N,0.09,K,D*02

$GPGGA,200427.00,3242.397920,N,11714.172340,W,2,13,0.7,26.435,M,-35.545,M,5.0,0402*4F

$GPZDA,200428.00,07,10,2024,00,00*68

$GPRMC,200428.00,A,3242.397907,N,11714.172338,W,0.03,170.0,071024,,,D*7A

$GPVTG,170.0,T,,M,0.03,N,0.06,K,D*0B

$GPGGA,200428.00,3242.397907,N,11714.172338,W,2,13,0.7,26.436,M,-35.545,M,6.0,0402*4A

$GPZDA,200429.00,07,10,2024,00,00*69

$GPRMC,200429.00,A,3242.397902,N,11714.172338,W,0.03,227.7,071024,,,D*78

$GPVTG,227.7,T,,M,0.03,N,0.05,K,D*0E

$GPGGA,200429.00,3242.397902,N,11714.172338,W,2,13,0.7,26.427,M,-35.545,M,7.0,0402*4F

$GPZDA,200430.00,07,10,2024,00,00*61

$GPRMC,200430.00,A,3242.397903,N,11714.172345,W,0.02,323.1,071024,,,D*79

$GPVTG,323.1,T,,M,0.02,N,0.04,K,D*0D

$GPGGA,200430.00,3242.397903,N,11714.172345,W,2,13,0.7,26.450,M,-35.545,M,4.0,0402*4F

$GPZDA,200431.00,07,10,2024,00,00*60

$GPRMC,200431.00,A,3242.397911,N,11714.172327,W,0.06,61.8,071024,,,D*47

$GPVTG,61.8,T,,M,0.06,N,0.11,K,D*31

$GPGGA,200431.00,3242.397911,N,11714.172327,W,2,13,0.7,26.451,M,-35.545,M,4.0,0402*48

$GPZDA,200432.00,07,10,2024,00,00*63

$GPRMC,200432.00,A,3242.397922,N,11714.172300,W,0.10,60.4,071024,,,D*4B

$GPVTG,60.4,T,,M,0.10,N,0.18,K,D*32

$GPGGA,200432.00,3242.397922,N,11714.172300,W,2,13,0.7,26.453,M,-35.545,M,5.0,0402*4D

$GPZDA,200433.00,07,10,2024,00,00*62

$GPRMC,200433.00,A,3242.397928,N,11714.172285,W,0.05,66.3,071024,,,D*49

$GPVTG,66.3,T,,M,0.05,N,0.10,K,D*3F

$GPGGA,200433.00,3242.397928,N,11714.172285,W,2,13,0.7,26.424,M,-35.545,M,6.0,0402*49

$GPZDA,200434.00,07,10,2024,00,00*65

$GPRMC,200434.00,A,3242.397929,N,11714.172279,W,0.01,9.5,071024,,,D*77

$GPVTG,9.5,T,,M,0.01,N,0.02,K,D*07

$GPGGA,200434.00,3242.397929,N,11714.172279,W,2,13,0.7,26.429,M,-35.545,M,7.0,0402*40

$GPZDA,200435.00,07,10,2024,00,00*64

$GPRMC,200435.00,A,3242.397940,N,11714.172279,W,0.03,339.4,071024,,,D*7A

$GPVTG,339.4,T,,M,0.03,N,0.06,K,D*00

$GPGGA,200435.00,3242.397940,N,11714.172279,W,2,13,0.7,26.408,M,-35.545,M,4.0,0402*4E

$GPZDA,200436.00,07,10,2024,00,00*67

$GPRMC,200436.00,A,3242.397947,N,11714.172279,W,0.03,54.0,071024,,,D*42

$GPVTG,54.0,T,,M,0.03,N,0.05,K,D*3F

$GPGGA,200436.00,3242.397947,N,11714.172279,W,2,13,0.7,26.404,M,-35.545,M,4.0,0402*46

$GPZDA,200437.00,07,10,2024,00,00*66

$GPRMC,200437.00,A,3242.397945,N,11714.172260,W,0.04,76.6,071024,,,D*48

$GPVTG,76.6,T,,M,0.04,N,0.08,K,D*33

$GPGGA,200437.00,3242.397945,N,11714.172260,W,2,13,0.7,26.417,M,-35.545,M,5.0,0402*4E

$GPZDA,200438.00,07,10,2024,00,00*69

$GPRMC,200438.00,A,3242.397943,N,11714.172260,W,0.01,171.9,071024,,,D*7D

$GPVTG,171.9,T,,M,0.01,N,0.02,K,D*05

$GPGGA,200438.00,3242.397943,N,11714.172260,W,2,13,0.7,26.407,M,-35.545,M,6.0,0402*45

$GPZDA,200439.00,07,10,2024,00,00*68

$GPRMC,200439.00,A,3242.397932,N,11714.172271,W,0.06,239.0,071024,,,D*7B

$GPVTG,239.0,T,,M,0.06,N,0.10,K,D*07

$GPGGA,200439.00,3242.397932,N,11714.172271,W,2,13,0.7,26.417,M,-35.545,M,7.0,0402*42

$GPZDA,200440.00,07,10,2024,00,00*66

$GPRMC,200440.00,A,3242.397921,N,11714.172289,W,0.07,230.2,071024,,,D*7A

$GPVTG,230.2,T,,M,0.07,N,0.14,K,D*09

$GPGGA,200440.00,3242.397921,N,11714.172289,W,2,13,0.7,26.411,M,-35.545,M,4.0,0402*4C

$GPZDA,200441.00,07,10,2024,00,00*67

$GPRMC,200441.00,A,3242.397919,N,11714.172297,W,0.01,180.0,071024,,,D*73

$GPVTG,180.0,T,,M,0.01,N,0.02,K,D*02

$GPGGA,200441.00,3242.397919,N,11714.172297,W,2,13,0.7,26.418,M,-35.545,M,4.0,0402*40

$GPZDA,200442.00,07,10,2024,00,00*64

$GPRMC,200442.00,A,3242.397916,N,11714.172283,W,0.06,76.0,071024,,,D*45

$GPVTG,76.0,T,,M,0.06,N,0.12,K,D*3C

$GPGGA,200442.00,3242.397916,N,11714.172283,W,2,13,0.7,26.433,M,-35.545,M,5.0,0402*41

$GPZDA,200443.00,07,10,2024,00,00*65

$GPRMC,200443.00,A,3242.397927,N,11714.172264,W,0.07,46.0,071024,,,D*4D

$GPVTG,46.0,T,,M,0.07,N,0.14,K,D*38

$GPGGA,200443.00,3242.397927,N,11714.172264,W,2,13,0.7,26.436,M,-35.545,M,6.0,0402*4D

$GPZDA,200444.00,07,10,2024,00,00*62

$GPRMC,200444.00,A,3242.397944,N,11714.172244,W,0.08,36.3,071024,,,D*46

$GPVTG,36.3,T,,M,0.08,N,0.15,K,D*32

$GPGGA,200444.00,3242.397944,N,11714.172244,W,2,13,0.7,26.435,M,-35.545,M,7.0,0402*4F

$GPZDA,200445.00,07,10,2024,00,00*63

$GPRMC,200445.00,A,3242.397963,N,11714.172236,W,0.04,25.3,071024,,,D*49

$GPVTG,25.3,T,,M,0.04,N,0.07,K,D*3F

$GPGGA,200445.00,3242.397963,N,11714.172236,W,2,13,0.7,26.409,M,-35.545,M,4.0,0402*42

$GPZDA,200446.00,07,10,2024,00,00*60

$GPRMC,200446.00,A,3242.397971,N,11714.172220,W,0.05,55.7,071024,,,D*4C

$GPVTG,55.7,T,,M,0.05,N,0.09,K,D*33

$GPGGA,200446.00,3242.397971,N,11714.172220,W,2,13,0.7,26.399,M,-35.545,M,4.0,0402*4B

$GPZDA,200447.00,07,10,2024,00,00*61

$GPRMC,200447.00,A,3242.397972,N,11714.172204,W,0.05,61.4,071024,,,D*4C

$GPVTG,61.4,T,,M,0.05,N,0.09,K,D*37

$GPGGA,200447.00,3242.397972,N,11714.172204,W,2,13,0.7,26.405,M,-35.545,M,5.0,0402*4C

$GPZDA,200448.00,07,10,2024,00,00*6E

$GPRMC,200448.00,A,3242.397971,N,11714.172198,W,0.03,54.5,071024,,,D*47

$GPVTG,54.5,T,,M,0.03,N,0.06,K,D*39

$GPGGA,200448.00,3242.397971,N,11714.172198,W,2,13,0.7,26.427,M,-35.545,M,6.0,0402*45

$GPZDA,200449.00,07,10,2024,00,00*6F

$GPRMC,200449.00,A,3242.397965,N,11714.172209,W,0.02,239.0,071024,,,D*75

$GPVTG,239.0,T,,M,0.02,N,0.04,K,D*06

$GPGGA,200449.00,3242.397965,N,11714.172209,W,2,12,0.7,26.428,M,-35.545,M,7.0,0402*45

$GPZDA,200450.00,07,10,2024,00,00*67

$GPRMC,200450.00,A,3242.397947,N,11714.172221,W,0.06,205.8,071024,,,D*74

$GPVTG,205.8,T,,M,0.06,N,0.11,K,D*01

$GPGGA,200450.00,3242.397947,N,11714.172221,W,2,12,0.7,26.413,M,-35.545,M,4.0,0402*4C

$GPZDA,200451.00,07,10,2024,00,00*66

$GPRMC,200451.00,A,3242.397925,N,11714.172234,W,0.07,211.2,071024,,,D*7B

$GPVTG,211.2,T,,M,0.07,N,0.14,K,D*0A

$GPGGA,200451.00,3242.397925,N,11714.172234,W,2,12,0.7,26.412,M,-35.545,M,4.0,0402*4C

$GPZDA,200452.00,07,10,2024,00,00*65

$GPRMC,200452.00,A,3242.397905,N,11714.172244,W,0.08,210.7,071024,,,D*76

$GPVTG,210.7,T,,M,0.08,N,0.15,K,D*00

$GPGGA,200452.00,3242.397905,N,11714.172244,W,2,12,0.7,26.424,M,-35.545,M,5.0,0402*4E

$GPZDA,200453.00,07,10,2024,00,00*64

$GPRMC,200453.00,A,3242.397895,N,11714.172253,W,0.06,219.6,071024,,,D*7F

$GPVTG,219.6,T,,M,0.06,N,0.10,K,D*03

$GPGGA,200453.00,3242.397895,N,11714.172253,W,2,12,0.7,26.420,M,-35.545,M,6.0,0402*46

$GPZDA,200454.00,07,10,2024,00,00*63

$GPRMC,200454.00,A,3242.397888,N,11714.172259,W,0.03,217.6,071024,,,D*75

$GPVTG,217.6,T,,M,0.03,N,0.06,K,D*0F

$GPGGA,200454.00,3242.397888,N,11714.172259,W,2,12,0.7,26.429,M,-35.545,M,7.0,0402*4F

$GPZDA,200455.00,07,10,2024,00,00*62

$GPRMC,200455.00,A,3242.397881,N,11714.172260,W,0.02,172.9,071024,,,D*79

$GPVTG,172.9,T,,M,0.02,N,0.03,K,D*04

$GPGGA,200455.00,3242.397881,N,11714.172260,W,2,12,0.7,26.425,M,-35.545,M,4.0,0402*42

$GPZDA,200456.00,07,10,2024,00,00*61

$GPRMC,200456.00,A,3242.397877,N,11714.172253,W,0.02,127.9,071024,,,D*73

$GPVTG,127.9,T,,M,0.02,N,0.04,K,D*03