2024-10-08T17:05:29.946014Z $GPZDA,170436.00,08,10,2024,00,00*6C
2024-10-08T17:05:30.100182Z $GPRMC,170436.00,A,3242.397809,N,11714.172071,W,0.01,180.0,081024,,,D*72
2024-10-08T17:05:30.179344Z $GPVTG,180.0,T,,M,0.01,N,0.02,K,D*02
2024-10-08T17:05:30.360614Z $GPGGA,170436.00,3242.397809,N,11714.172071,W,2,14,0.7,26.385,M,-35.545,M,6.0,0402*48
2024-10-08T17:05:30.942940Z $GPZDA,170437.00,08,10,2024,00,00*6D
2024-10-08T17:05:31.097174Z $GPRMC,170437.00,A,3242.397804,N,11714.172066,W,0.01,156.8,081024,,,D*7B
2024-10-08T17:05:31.176280Z $GPVTG,156.8,T,,M,0.01,N,0.03,K,D*00
2024-10-08T17:05:31.357552Z $GPGGA,170437.00,3242.397804,N,11714.172066,W,2,14,0.7,26.386,M,-35.545,M,7.0,0402*40
2024-10-08T17:05:31.943419Z $GPZDA,170438.00,08,10,2024,00,00*62
2024-10-08T17:05:32.097599Z $GPRMC,170438.00,A,3242.397799,N,11714.172070,W,0.02,204.0,081024,,,D*77
2024-10-08T17:05:32.176772Z $GPVTG,204.0,T,,M,0.02,N,0.03,K,D*0F
2024-10-08T17:05:32.358071Z $GPGGA,170438.00,3242.397799,N,11714.172070,W,2,14,0.7,26.384,M,-35.545,M,4.0,0402*42
2024-10-08T17:05:32.945575Z $GPZDA,170439.00,08,10,2024,00,00*63
2024-10-08T17:05:33.099756Z $GPRMC,170439.00,A,3242.397793,N,11714.172068,W,0.02,180.0,081024,,,D*7A
2024-10-08T17:05:33.179003Z $GPVTG,180.0,T,,M,0.02,N,0.04,K,D*07
2024-10-08T17:05:33.360219Z $GPGGA,170439.00,3242.397793,N,11714.172068,W,2,14,0.7,26.389,M,-35.545,M,4.0,0402*4D
2024-10-08T17:05:33.943362Z $GPZDA,170440.00,08,10,2024,00,00*6D
2024-10-08T17:05:34.097537Z $GPRMC,170440.00,A,3242.397784,N,11714.172069,W,0.02,174.8,081024,,,D*70
2024-10-08T17:05:34.176709Z $GPVTG,174.8,T,,M,0.02,N,0.04,K,D*04
2024-10-08T17:05:34.357966Z $GPGGA,170440.00,3242.397784,N,11714.172069,W,2,14,0.7,26.399,M,-35.545,M,5.0,0402*44
2024-10-08T17:05:34.945511Z $GPZDA,170441.00,08,10,2024,00,00*6C
2024-10-08T17:05:35.099683Z $GPRMC,170441.00,A,3242.397781,N,11714.172068,W,0.01,189.5,081024,,,D*79
2024-10-08T17:05:35.178853Z $GPVTG,189.5,T,,M,0.01,N,0.02,K,D*0E
2024-10-08T17:05:35.360122Z $GPGGA,170441.00,3242.397781,N,11714.172068,W,2,14,0.7,26.386,M,-35.545,M,6.0,0402*4C
2024-10-08T17:05:35.945582Z $GPZDA,170442.00,08,10,2024,00,00*6F
2024-10-08T17:05:36.099766Z $GPRMC,170442.00,A,3242.397777,N,11714.172067,W,0.01,116.6,081024,,,D*79
2024-10-08T17:05:36.178931Z $GPVTG,116.6,T,,M,0.01,N,0.02,K,D*0B
2024-10-08T17:05:36.360188Z $GPGGA,170442.00,3242.397777,N,11714.172067,W,2,14,0.7,26.379,M,-35.545,M,7.0,0402*48
2024-10-08T17:05:36.943146Z $GPZDA,170443.00,08,10,2024,00,00*6E
2024-10-08T17:05:37.097353Z $GPRMC,170443.00,A,3242.397776,N,11714.172061,W,0.01,101.3,081024,,,D*7C
2024-10-08T17:05:37.176495Z $GPVTG,101.3,T,,M,0.01,N,0.02,K,D*08
2024-10-08T17:05:37.357766Z $GPGGA,170443.00,3242.397776,N,11714.172061,W,2,14,0.7,26.367,M,-35.545,M,4.0,0402*42
2024-10-08T17:05:37.945095Z $GPZDA,170444.00,08,10,2024,00,00*69
2024-10-08T17:05:38.099273Z $GPRMC,170444.00,A,3242.397776,N,11714.172047,W,0.02,104.0,081024,,,D*7A
2024-10-08T17:05:38.178437Z $GPVTG,104.0,T,,M,0.02,N,0.03,K,D*0C
2024-10-08T17:05:38.359705Z $GPGGA,170444.00,3242.397776,N,11714.172047,W,2,14,0.7,26.349,M,-35.545,M,4.0,0402*4D
2024-10-08T17:05:38.945371Z $GPZDA,170445.00,08,10,2024,00,00*68
2024-10-08T17:05:39.097524Z $GPRMC,170445.00,A,3242.397776,N,11714.172044,W,0.01,81.9,081024,,,D*4E
2024-10-08T17:05:39.174555Z $GPVTG,81.9,T,,M,0.01,N,0.02,K,D*3B
2024-10-08T17:05:39.355817Z $GPGGA,170445.00,3242.397776,N,11714.172044,W,2,14,0.7,26.339,M,-35.545,M,5.0,0402*49
2024-10-08T17:05:39.942944Z $GPZDA,170446.00,08,10,2024,00,00*6B
2024-10-08T17:05:40.097120Z $GPRMC,170446.00,A,3242.397771,N,11714.172042,W,0.02,125.5,081024,,,D*7C
2024-10-08T17:05:40.176290Z $GPVTG,125.5,T,,M,0.02,N,0.03,K,D*0A
2024-10-08T17:05:40.357552Z $GPGGA,170446.00,3242.397771,N,11714.172042,W,2,14,0.7,26.341,M,-35.545,M,6.0,0402*47
2024-10-08T17:05:40.947996Z $GPZDA,170447.00,08,10,2024,00,00*6A
2024-10-08T17:05:41.102188Z $GPRMC,170447.00,A,3242.397766,N,11714.172038,W,0.03,155.2,081024,,,D*77
2024-10-08T17:05:41.181357Z $GPVTG,155.2,T,,M,0.03,N,0.05,K,D*0D
2024-10-08T17:05:41.362630Z $GPGGA,170447.00,3242.397766,N,11714.172038,W,2,14,0.7,26.349,M,-35.545,M,7.0,0402*44
2024-10-08T17:05:41.942870Z $GPZDA,170448.00,08,10,2024,00,00*65
2024-10-08T17:05:42.097050Z $GPRMC,170448.00,A,3242.397758,N,11714.172038,W,0.02,158.2,081024,,,D*79
2024-10-08T17:05:42.176270Z $GPVTG,158.2,T,,M,0.02,N,0.04,K,D*00
2024-10-08T17:05:42.357481Z $GPGGA,170448.00,3242.397758,N,11714.172038,W,2,14,0.7,26.329,M,-35.545,M,4.0,0402*43
2024-10-08T17:05:42.948354Z $GPZDA,170449.00,08,10,2024,00,00*64
2024-10-08T17:05:43.102535Z $GPRMC,170449.00,A,3242.397748,N,11714.172035,W,0.03,176.2,081024,,,D*79
2024-10-08T17:05:43.181702Z $GPVTG,176.2,T,,M,0.03,N,0.05,K,D*0C
2024-10-08T17:05:43.362972Z $GPGGA,170449.00,3242.397748,N,11714.172035,W,2,14,0.7,26.344,M,-35.545,M,4.0,0402*45
2024-10-08T17:05:43.944467Z $GPZDA,170450.00,08,10,2024,00,00*6C
2024-10-08T17:05:44.098649Z $GPRMC,170450.00,A,3242.397742,N,11714.172032,W,0.03,165.1,081024,,,D*7D
2024-10-08T17:05:44.177814Z $GPVTG,165.1,T,,M,0.03,N,0.05,K,D*0D
2024-10-08T17:05:44.359105Z $GPGGA,170450.00,3242.397742,N,11714.172032,W,2,14,0.7,26.345,M,-35.545,M,5.0,0402*40
2024-10-08T17:05:44.944330Z $GPZDA,170451.00,08,10,2024,00,00*6D
2024-10-08T17:05:45.098502Z $GPRMC,170451.00,A,3242.397739,N,11714.172030,W,0.02,163.3,081024,,,D*77
2024-10-08T17:05:45.177681Z $GPVTG,163.3,T,,M,0.02,N,0.04,K,D*09
2024-10-08T17:05:45.359015Z $GPGGA,170451.00,3242.397739,N,11714.172030,W,2,14,0.7,26.353,M,-35.545,M,6.0,0402*4B
2024-10-08T17:05:45.944189Z $GPZDA,170452.00,08,10,2024,00,00*6E
2024-10-08T17:05:46.098368Z $GPRMC,170452.00,A,3242.397736,N,11714.172025,W,0.02,174.8,081024,,,D*72
2024-10-08T17:05:46.177537Z $GPVTG,174.8,T,,M,0.02,N,0.04,K,D*04
2024-10-08T17:05:46.358800Z $GPGGA,170452.00,3242.397736,N,11714.172025,W,2,14,0.7,26.327,M,-35.545,M,7.0,0402*41
2024-10-08T17:05:46.948217Z $GPZDA,170453.00,08,10,2024,00,00*6F
2024-10-08T17:05:47.102402Z $GPRMC,170453.00,A,3242.397727,N,11714.172027,W,0.03,172.9,081024,,,D*77
2024-10-08T17:05:47.181564Z $GPVTG,172.9,T,,M,0.03,N,0.06,K,D*00
2024-10-08T17:05:47.362860Z $GPGGA,170453.00,3242.397727,N,11714.172027,W,2,14,0.7,26.343,M,-35.545,M,4.0,0402*43
2024-10-08T17:05:47.943914Z $GPZDA,170454.00,08,10,2024,00,00*68
2024-10-08T17:05:48.098092Z $GPRMC,170454.00,A,3242.397720,N,11714.172023,W,0.03,159.4,081024,,,D*77
2024-10-08T17:05:48.177265Z $GPVTG,159.4,T,,M,0.03,N,0.06,K,D*04
2024-10-08T17:05:48.358526Z $GPGGA,170454.00,3242.397720,N,11714.172023,W,2,14,0.7,26.349,M,-35.545,M,4.0,0402*4D
2024-10-08T17:05:48.943985Z $GPZDA,170455.00,08,10,2024,00,00*69
2024-10-08T17:05:49.098164Z $GPRMC,170455.00,A,3242.397715,N,11714.172020,W,0.03,180.0,081024,,,D*73
2024-10-08T17:05:49.177333Z $GPVTG,180.0,T,,M,0.03,N,0.06,K,D*04
2024-10-08T17:05:49.358594Z $GPGGA,170455.00,3242.397715,N,11714.172020,W,2,14,0.7,26.340,M,-35.545,M,5.0,0402*41
2024-10-08T17:05:49.946345Z $GPZDA,170456.00,08,10,2024,00,00*6A
2024-10-08T17:05:50.100517Z $GPRMC,170456.00,A,3242.397709,N,11714.172016,W,0.02,158.2,081024,,,D*7E
2024-10-08T17:05:50.179690Z $GPVTG,158.2,T,,M,0.02,N,0.04,K,D*00
2024-10-08T17:05:50.360961Z $GPGGA,170456.00,3242.397709,N,11714.172016,W,2,14,0.7,26.336,M,-35.545,M,6.0,0402*48
2024-10-08T17:05:50.943918Z $GPZDA,170457.00,08,10,2024,00,00*6B
2024-10-08T17:05:51.096006Z $GPRMC,170457.00,A,3242.397707,N,11714.172014,W,0.01,99.5,081024,,,D*4B
2024-10-08T17:05:51.173098Z $GPVTG,99.5,T,,M,0.01,N,0.02,K,D*3E
2024-10-08T17:05:51.354353Z $GPGGA,170457.00,3242.397707,N,11714.172014,W,2,14,0.7,26.353,M,-35.545,M,7.0,0402*47
2024-10-08T17:05:51.947319Z $GPZDA,170458.00,08,10,2024,00,00*64
2024-10-08T17:05:52.099463Z $GPRMC,170458.00,A,3242.397707,N,11714.172007,W,0.01,56.3,081024,,,D*43
2024-10-08T17:05:52.176502Z $GPVTG,56.3,T,,M,0.01,N,0.03,K,D*3A
2024-10-08T17:05:52.357767Z $GPGGA,170458.00,3242.397707,N,11714.172007,W,2,14,0.7,26.349,M,-35.545,M,4.0,0402*42
2024-10-08T17:35:12.201407Z 02
2024-10-08T17:35:12.382665Z $GPGGA,173418.00,3242.397716,N,11714.171872,W,2,13,0.7,26.333,M,-35.545,M,4.0,0402*46
2024-10-08T17:35:12.966457Z $GPZDA,173419.00,08,10,2024,00,00*62
2024-10-08T17:35:13.120627Z $GPRMC,173419.00,A,3242.397711,N,11714.171869,W,0.01,153.4,081024,,,D*72
2024-10-08T17:35:13.199801Z $GPVTG,153.4,T,,M,0.01,N,0.02,K,D*08
2024-10-08T17:35:13.381079Z $GPGGA,173419.00,3242.397711,N,11714.171869,W,2,13,0.7,26.330,M,-35.545,M,4.0,0402*49
2024-10-08T17:35:13.966524Z $GPZDA,173420.00,08,10,2024,00,00*68
2024-10-08T17:35:14.120700Z $GPRMC,173420.00,A,3242.397703,N,11714.171871,W,0.03,201.8,081024,,,D*78
2024-10-08T17:35:14.199872Z $GPVTG,201.8,T,,M,0.03,N,0.06,K,D*06
2024-10-08T17:35:14.381132Z $GPGGA,173420.00,3242.397703,N,11714.171871,W,2,13,0.7,26.341,M,-35.545,M,5.0,0402*4E
2024-10-08T17:35:14.968461Z $GPZDA,173421.00,08,10,2024,00,00*69
2024-10-08T17:35:15.122642Z $GPRMC,173421.00,A,3242.397695,N,11714.171879,W,0.03,218.2,081024,,,D*7D
2024-10-08T17:35:15.201809Z $GPVTG,218.2,T,,M,0.03,N,0.06,K,D*04
2024-10-08T17:35:15.383076Z $GPGGA,173421.00,3242.397695,N,11714.171879,W,2,13,0.7,26.353,M,-35.545,M,6.0,0402*49
2024-10-08T17:35:15.967913Z $GPZDA,173422.00,08,10,2024,00,00*6A
2024-10-08T17:35:16.122086Z $GPRMC,173422.00,A,3242.397689,N,11714.171884,W,0.02,208.6,081024,,,D*75
2024-10-08T17:35:16.201264Z $GPVTG,208.6,T,,M,0.02,N,0.04,K,D*02
2024-10-08T17:35:16.382526Z $GPGGA,173422.00,3242.397689,N,11714.171884,W,2,13,0.7,26.360,M,-35.545,M,7.0,0402*44
2024-10-08T17:35:16.966109Z $GPZDA,173423.00,08,10,2024,00,00*6B
2024-10-08T17:35:17.120282Z $GPRMC,173423.00,A,3242.397684,N,11714.171889,W,0.02,221.2,081024,,,D*7B
2024-10-08T17:35:17.199454Z $GPVTG,221.2,T,,M,0.02,N,0.04,K,D*0D
2024-10-08T17:35:17.380754Z $GPGGA,173423.00,3242.397684,N,11714.171889,W,2,13,0.7,26.364,M,-35.545,M,4.0,0402*42
2024-10-08T17:35:17.966174Z $GPZDA,173424.00,08,10,2024,00,00*6C
2024-10-08T17:35:18.120352Z $GPRMC,173424.00,A,3242.397680,N,11714.171890,W,0.01,225.0,081024,,,D*75
2024-10-08T17:35:18.199520Z $GPVTG,225.0,T,,M,0.01,N,0.01,K,D*0D
2024-10-08T17:35:18.380787Z $GPGGA,173424.00,3242.397680,N,11714.171890,W,2,13,0.7,26.355,M,-35.545,M,4.0,0402*4B
2024-10-08T17:35:18.968534Z $GPZDA,173425.00,08,10,2024,00,00*6D
2024-10-08T17:35:19.118613Z $GPRMC,173425.00,A,3242.397682,N,11714.171890,W,0.01,0.0,081024,,,D*73
2024-10-08T17:35:19.193606Z $GPVTG,0.0,T,,M,0.01,N,0.01,K,D*08
2024-10-08T17:35:19.374814Z $GPGGA,173425.00,3242.397682,N,11714.171890,W,2,13,0.7,26.351,M,-35.545,M,5.0,0402*4D
2024-10-08T17:35:19.967979Z $GPZDA,173426.00,08,10,2024,00,00*6E
2024-10-08T17:35:20.120074Z $GPRMC,173426.00,A,3242.397686,N,11714.171888,W,0.02,14.0,081024,,,D*4B
2024-10-08T17:35:20.197159Z $GPVTG,14.0,T,,M,0.02,N,0.03,K,D*3C
2024-10-08T17:35:20.378419Z $GPGGA,173426.00,3242.397686,N,11714.171888,W,2,13,0.7,26.342,M,-35.545,M,6.0,0402*42
2024-10-08T17:35:20.966588Z $GPZDA,173427.00,08,10,2024,00,00*6F
2024-10-08T17:35:21.118686Z $GPRMC,173427.00,A,3242.397692,N,11714.171887,W,0.02,14.0,081024,,,D*40
2024-10-08T17:35:21.195775Z $GPVTG,14.0,T,,M,0.02,N,0.04,K,D*3B
2024-10-08T17:35:21.377038Z $GPGGA,173427.00,3242.397692,N,11714.171887,W,2,13,0.7,26.340,M,-35.545,M,7.0,0402*4A
2024-10-08T17:35:21.966661Z $GPZDA,173428.00,08,10,2024,00,00*60
2024-10-08T17:35:22.118758Z $GPRMC,173428.00,A,3242.397698,N,11714.171878,W,0.03,30.3,081024,,,D*41
2024-10-08T17:35:22.195841Z $GPVTG,30.3,T,,M,0.03,N,0.05,K,D*3E
2024-10-08T17:35:22.377110Z $GPGGA,173428.00,3242.397698,N,11714.171878,W,2,13,0.7,26.329,M,-35.545,M,4.0,0402*43
2024-10-08T17:35:22.966521Z $GPZDA,173429.00,08,10,2024,00,00*61
2024-10-08T17:35:23.118620Z $GPRMC,173429.00,A,3242.397705,N,11714.171873,W,0.03,28.1,081024,,,D*45
2024-10-08T17:35:23.195702Z $GPVTG,28.1,T,,M,0.03,N,0.06,K,D*36
2024-10-08T17:35:23.376964Z $GPGGA,173429.00,3242.397705,N,11714.171873,W,2,13,0.7,26.333,M,-35.545,M,4.0,0402*47
2024-10-08T17:35:23.966385Z $GPZDA,173430.00,08,10,2024,00,00*69
2024-10-08T17:35:24.118480Z $GPRMC,173430.00,A,3242.397712,N,11714.171866,W,0.03,37.6,081024,,,D*46
2024-10-08T17:35:24.195569Z $GPVTG,37.6,T,,M,0.03,N,0.06,K,D*3F
2024-10-08T17:35:24.376832Z $GPGGA,173430.00,3242.397712,N,11714.171866,W,2,13,0.7,26.327,M,-35.545,M,5.0,0402*49
2024-10-08T17:35:24.966457Z $GPZDA,173431.00,08,10,2024,00,00*68
2024-10-08T17:35:25.118545Z $GPRMC,173431.00,A,3242.397717,N,11714.171862,W,0.02,12.5,081024,,,D*43
2024-10-08T17:35:25.195634Z $GPVTG,12.5,T,,M,0.02,N,0.03,K,D*3F
2024-10-08T17:35:25.376898Z $GPGGA,173431.00,3242.397717,N,11714.171862,W,2,13,0.7,26.328,M,-35.545,M,6.0,0402*45
2024-10-08T19:25:15.288345Z rb,M,0.05,N,0.09,K,D*33
2024-10-08T19:25:15.469569Z $GPGGA,192421.00,3242.397925,N,11714.171769,W,2,15,0.7,26.466,M,-35.545,M,6.0,0402*4B
2024-10-08T19:25:16.061481Z $GPZDA,192422.00,08,10,2024,00,00*65
2024-10-08T19:25:16.213577Z $GPRMC,192422.00,A,3242.397934,N,11714.171764,W,0.03,29.4,081024,,,D*40
2024-10-08T19:25:16.290658Z $GPVTG,29.4,T,,M,0.03,N,0.06,K,D*32
2024-10-08T19:25:16.471921Z $GPGGA,192422.00,3242.397934,N,11714.171764,W,2,15,0.7,26.463,M,-35.545,M,7.0,0402*41
2024-10-08T19:25:17.065093Z $GPZDA,192423.00,08,10,2024,00,00*64
2024-10-08T19:25:17.217183Z $GPRMC,192423.00,A,3242.397940,N,11714.171761,W,0.02,22.6,081024,,,D*4F
2024-10-08T19:25:17.294273Z $GPVTG,22.6,T,,M,0.02,N,0.05,K,D*39
2024-10-08T19:25:17.475537Z $GPGGA,192423.00,3242.397940,N,11714.171761,W,2,15,0.7,26.461,M,-35.545,M,4.0,0402*47
2024-10-08T19:25:18.058906Z $GPZDA,192424.00,08,10,2024,00,00*63
2024-10-08T19:25:18.213097Z $GPRMC,192424.00,A,3242.397939,N,11714.171764,W,0.01,258.7,081024,,,D*7E
2024-10-08T19:25:18.292257Z $GPVTG,258.7,T,,M,0.01,N,0.02,K,D*03
2024-10-08T19:25:18.473520Z $GPGGA,192424.00,3242.397939,N,11714.171764,W,2,15,0.7,26.463,M,-35.545,M,4.0,0402*49
2024-10-08T19:25:19.061269Z $GPZDA,192425.00,08,10,2024,00,00*62
2024-10-08T19:25:19.215445Z $GPRMC,192425.00,A,3242.397932,N,11714.171772,W,0.04,229.1,081024,,,D*76
2024-10-08T19:25:19.294618Z $GPVTG,229.1,T,,M,0.04,N,0.07,K,D*03
2024-10-08T19:25:19.475882Z $GPGGA,192425.00,3242.397932,N,11714.171772,W,2,15,0.7,26.463,M,-35.545,M,5.0,0402*45
2024-10-09T14:09:10.999172Z $GPZDA,140816.00,09,10,2024,00,00*60
2024-10-09T14:09:11.153347Z $GPRMC,140816.00,A,3242.398247,N,11714.172404,W,0.02,229.4,091024,,,D*70
2024-10-09T14:09:11.232508Z $GPVTG,229.4,T,,M,0.02,N,0.03,K,D*04
2024-10-09T14:09:11.413772Z $GPGGA,140816.00,3242.398247,N,11714.172404,W,2,11,0.9,25.952,M,-35.545,M,6.0,0402*44
2024-10-09T14:09:11.998191Z $GPZDA,140817.00,09,10,2024,00,00*61
2024-10-09T14:09:12.152380Z $GPRMC,140817.00,A,3242.398250,N,11714.172412,W,0.02,233.1,091024,,,D*7E
2024-10-09T14:09:12.231535Z $GPVTG,233.1,T,,M,0.02,N,0.04,K,D*0D
2024-10-09T14:09:12.412802Z $GPGGA,140817.00,3242.398250,N,11714.172412,W,2,11,0.9,25.938,M,-35.545,M,7.0,0402*49
2024-10-09T14:09:12.998311Z $GPZDA,140818.00,09,10,2024,00,00*6E
2024-10-09T14:09:13.152432Z $GPRMC,140818.00,A,3242.398251,N,11714.172419,W,0.02,263.7,091024,,,D*78
2024-10-09T14:09:13.231605Z $GPVTG,263.7,T,,M,0.02,N,0.03,K,D*09
2024-10-09T14:09:13.412870Z $GPGGA,140818.00,3242.398251,N,11714.172419,W,2,11,0.9,25.942,M,-35.545,M,4.0,0402*42
2024-10-09T14:09:13.999230Z $GPZDA,140819.00,09,10,2024,00,00*6F