2024-05-28T20:00:00.323000Z POSMV $PASHR,200000.256,26.99,T,-0.81,0.42,0.12,0.020,0.020,0.011,2,1*05
2024-05-28T20:00:00.403000Z POSMV $INGGA,200000.256,4131.44339,N,07040.32965,W,2,28,1.2,-3.14,M,,,4,0131*2E
2024-05-28T20:00:00.422000Z POSMV $INHDT,27.0,T*10
2024-05-28T20:00:01.323000Z POSMV $PASHR,200001.256,26.99,T,-0.85,0.41,0.12,0.020,0.020,0.011,2,1*03
2024-05-28T20:00:01.403000Z POSMV $INGGA,200001.256,4131.44339,N,07040.32966,W,2,28,1.2,-3.14,M,,,5,0131*2D
2024-05-28T20:00:01.423000Z POSMV $INHDT,27.0,T*10
2024-05-28T20:00:02.323000Z POSMV $PASHR,200002.256,27.00,T,-0.87,0.42,0.12,0.020,0.020,0.011,2,1*00
2024-05-28T20:00:02.404000Z POSMV $INGGA,200002.256,4131.44339,N,07040.32966,W,2,28,1.2,-3.14,M,,,6,0131*2D
2024-05-28T20:00:02.423000Z POSMV $INHDT,27.0,T*10
2024-05-28T20:00:03.323000Z POSMV $PASHR,200003.257,26.99,T,-0.87,0.43,0.13,0.020,0.020,0.011,2,1*01
2024-05-28T20:00:03.404000Z POSMV $INGGA,200003.257,4131.44339,N,07040.32967,W,2,28,1.2,-3.13,M,,,7,0131*2A
2024-05-28T20:00:03.423000Z POSMV $INHDT,27.0,T*10
2024-05-28T20:00:04.323000Z POSMV $PASHR,200004.257,26.99,T,-0.84,0.43,0.13,0.020,0.020,0.011,2,1*05
2024-05-28T20:00:04.404000Z POSMV $INGGA,200004.257,4131.44339,N,07040.32968,W,2,28,1.2,-3.13,M,,,7,0131*22
2024-05-28T20:00:04.423000Z POSMV $INHDT,27.0,T*10
2024-05-28T20:00:05.323000Z POSMV $PASHR,200005.257,27.00,T,-0.81,0.43,0.13,0.020,0.020,0.011,2,1*00
2024-05-28T20:00:05.403000Z POSMV $INGGA,200005.257,4131.44338,N,07040.32968,W,2,28,1.2,-3.13,M,,,7,0131*22
2024-05-28T20:00:05.423000Z POSMV $INHDT,27.0,T*10
2024-05-28T20:00:06.323000Z POSMV $PASHR,200006.257,27.00,T,-0.78,0.43,0.13,0.020,0.020,0.011,2,1*05
2024-05-28T20:00:06.403000Z POSMV $INGGA,200006.257,4131.44338,N,07040.32969,W,2,28,1.2,-3.13,M,,,4,0131*23
2024-05-28T20:00:06.423000Z POSMV $INHDT,27.0,T*10
2024-05-28T20:00:07.323000Z POSMV $PASHR,200007.257,27.00,T,-0.77,0.43,0.13,0.020,0.020,0.011,2,1*0B
2024-05-28T20:00:07.404000Z POSMV $INGGA,200007.257,4131.44338,N,07040.32969,W,2,28,1.2,-3.13,M,,,5,0131*23
2024-05-28T20:00:07.423000Z POSMV $INHDT,27.0,T*10
2024-05-28T20:00:08.323000Z POSMV $PASHR,200008.257,27.00,T,-0.79,0.43,0.13,0.020,0.020,0.011,2,1*0A
2024-05-28T20:00:08.404000Z POSMV $INGGA,200008.257,4131.44338,N,07040.32970,W,2,28,1.4,-3.14,M,,,6,0131*26
2024-05-28T20:00:08.423000Z POSMV $INHDT,27.0,T*10
2024-05-28T20:00:09.324000Z POSMV $PASHR,200009.257,27.01,T,-0.82,0.42,0.13,0.020,0.020,0.011,2,1*0F
2024-05-28T20:00:09.404000Z POSMV $INGGA,200009.257,4131.44338,N,07040.32971,W,2,28,1.2,-3.14,M,,,7,0131*21
2024-05-28T20:00:09.423000Z POSMV $INHDT,27.0,T*10
2024-05-28T20:00:10.323000Z POSMV $PASHR,200010.257,27.01,T,-0.86,0.42,0.13,0.020,0.020,0.011,1,1*00
2024-05-28T20:00:10.404000Z POSMV $INGGA,200010.257,4131.44338,N,07040.32972,W,2,28,1.4,-3.13,M,,,7,0131*2B
2024-05-28T20:00:10.424000Z POSMV $INHDT,27.0,T*10
2024-05-28T20:00:11.323000Z POSMV $PASHR,200011.257,27.02,T,-0.89,0.42,0.13,0.020,0.020,0.011,2,1*0E
2024-05-28T20:00:11.404000Z POSMV $INGGA,200011.257,4131.44337,N,07040.32972,W,2,28,1.4,-3.13,M,,,7,0131*25
2024-05-28T20:00:11.423000Z POSMV $INHDT,27.0,T*10
2024-05-28T20:00:12.323000Z POSMV $PASHR,200012.257,27.02,T,-0.88,0.42,0.13,0.020,0.020,0.011,2,1*0C
2024-05-28T20:00:12.404000Z POSMV $INGGA,200012.257,4131.44337,N,07040.32973,W,2,28,1.2,-3.13,M,,,4,0131*22
2024-05-28T20:00:12.423000Z POSMV $INHDT,27.0,T*10
2024-05-28T20:00:13.323000Z POSMV $PASHR,200013.257,27.02,T,-0.83,0.44,0.13,0.020,0.020,0.011,2,1*00
2024-05-28T20:00:13.404000Z POSMV $INGGA,200013.257,4131.44337,N,07040.32974,W,2,28,1.4,-3.13,M,,,5,0131*23
2024-05-28T20:00:13.423000Z POSMV $INHDT,27.0,T*10
2024-05-28T20:00:14.324000Z POSMV $PASHR,200014.257,27.01,T,-0.78,0.43,0.13,0.020,0.020,0.011,2,1*07
2024-05-28T20:00:14.404000Z POSMV $INGGA,200014.257,4131.44337,N,07040.32974,W,2,28,1.4,-3.13,M,,,6,0131*27
2024-05-28T20:00:14.424000Z POSMV $INHDT,27.0,T*10
2024-05-28T20:00:15.324000Z POSMV $PASHR,200015.257,27.01,T,-0.75,0.42,0.13,0.020,0.020,0.011,2,1*0A
2024-05-28T20:00:15.404000Z POSMV $INGGA,200015.257,4131.44336,N,07040.32974,W,2,28,1.4,-3.13,M,,,7,0131*26
2024-05-28T20:00:15.424000Z POSMV $INHDT,27.0,T*10
2024-05-28T20:00:16.323000Z POSMV $PASHR,200016.257,27.00,T,-0.75,0.40,0.13,0.020,0.020,0.011,2,1*0A
2024-05-28T20:00:16.404000Z POSMV $INGGA,200016.257,4131.44336,N,07040.32974,W,2,28,1.2,-3.13,M,,,7,0131*23
2024-05-28T20:00:16.423000Z POSMV $INHDT,27.0,T*10
2024-05-28T20:00:17.323000Z POSMV $PASHR,200017.257,26.99,T,-0.79,0.41,0.13,0.020,0.020,0.011,2,1*07
2024-05-28T20:00:17.404000Z POSMV $INGGA,200017.257,4131.44336,N,07040.32974,W,2,28,1.4,-3.13,M,,,7,0131*24
2024-05-28T20:00:17.423000Z POSMV $INHDT,27.0,T*10
2024-05-28T20:00:18.324000Z POSMV $PASHR,200018.257,26.98,T,-0.84,0.42,0.14,0.020,0.020,0.011,2,1*0F
2024-05-28T20:00:18.404000Z POSMV $INGGA,200018.257,4131.44336,N,07040.32974,W,2,28,1.4,-3.12,M,,,4,0131*29
2024-05-28T20:00:18.424000Z POSMV $INHDT,27.0,T*10
2024-05-28T20:00:19.324000Z POSMV $PASHR,200019.257,26.97,T,-0.88,0.44,0.14,0.020,0.020,0.011,2,1*0B
2024-05-28T20:00:19.404000Z POSMV $INGGA,200019.257,4131.44336,N,07040.32974,W,2,28,1.4,-3.12,M,,,5,0131*29
2024-05-28T20:00:19.424000Z POSMV $INHDT,27.0,T*10
2024-05-28T20:00:20.324000Z POSMV $PASHR,200020.257,26.97,T,-0.89,0.43,0.14,0.020,0.020,0.011,2,1*07
2024-05-28T20:00:20.405000Z POSMV $INGGA,200020.257,4131.44336,N,07040.32974,W,2,28,1.2,-3.11,M,,,6,0131*25
2024-05-28T20:00:20.424000Z POSMV $INHDT,27.0,T*10
2024-05-28T20:00:21.324000Z POSMV $PASHR,200021.257,26.96,T,-0.86,0.42,0.14,0.020,0.020,0.011,2,1*09
2024-05-28T20:00:21.404000Z POSMV $INGGA,200021.257,4131.44336,N,07040.32973,W,2,28,1.4,-3.12,M,,,7,0131*27
2024-05-28T20:00:21.423000Z POSMV $INHDT,27.0,T*10
2024-05-28T20:00:22.324000Z POSMV $PASHR,200022.257,26.96,T,-0.82,0.41,0.14,0.020,0.020,0.011,1,1*0E
2024-05-28T20:00:22.404000Z POSMV $INGGA,200022.257,4131.44336,N,07040.32973,W,2,28,1.2,-3.12,M,,,7,0131*22
2024-05-28T20:00:22.423000Z POSMV $INHDT,27.0,T*10
2024-05-28T20:00:23.324000Z POSMV $PASHR,200023.257,26.96,T,-0.78,0.41,0.14,0.020,0.020,0.011,2,1*09
2024-05-28T20:00:23.404000Z POSMV $INGGA,200023.257,4131.44336,N,07040.32972,W,2,28,1.4,-3.12,M,,,7,0131*24
2024-05-28T20:00:23.424000Z POSMV $INHDT,27.0,T*10
2024-05-28T20:00:24.324000Z POSMV $PASHR,200024.257,26.96,T,-0.77,0.41,0.14,0.020,0.020,0.011,2,1*01
2024-05-28T20:00:24.405000Z POSMV $INGGA,200024.257,4131.44337,N,07040.32972,W,2,28,1.4,-3.11,M,,,4,0131*22
2024-05-28T20:00:24.424000Z POSMV $INHDT,27.0,T*10
2024-05-28T20:00:25.324000Z POSMV $PASHR,200025.258,26.96,T,-0.77,0.43,0.15,0.020,0.020,0.011,2,1*0C
2024-05-28T20:00:25.405000Z POSMV $INGGA,200025.258,4131.44337,N,07040.32972,W,2,28,1.4,-3.11,M,,,5,0131*2D
2024-05-28T20:00:25.424000Z POSMV $INHDT,27.0,T*10
2024-05-28T20:00:26.324000Z POSMV $PASHR,200026.258,26.96,T,-0.80,0.43,0.15,0.020,0.020,0.011,2,1*07
2024-05-28T20:00:26.405000Z POSMV $INGGA,200026.258,4131.44338,N,07040.32972,W,2,28,1.4,-3.10,M,,,6,0131*23
2024-05-28T20:00:26.424000Z POSMV $INHDT,27.0,T*10
2024-05-28T20:00:27.324000Z POSMV $PASHR,200027.258,26.97,T,-0.83,0.42,0.15,0.020,0.020,0.011,2,1*05
2024-05-28T20:00:27.404000Z POSMV $INGGA,200027.258,4131.44338,N,07040.32971,W,2,28,1.4,-3.10,M,,,7,0131*20
2024-05-28T20:00:27.424000Z POSMV $INHDT,27.0,T*10
2024-05-28T20:00:28.324000Z POSMV $PASHR,200028.258,26.97,T,-0.83,0.42,0.15,0.020,0.020,0.011,2,1*0A
2024-05-28T20:00:28.404000Z POSMV $INGGA,200028.258,4131.44339,N,07040.32971,W,2,28,1.4,-3.10,M,,,7,0131*2E
2024-05-28T20:00:28.424000Z POSMV $INHDT,27.0,T*10
2024-05-28T20:00:29.324000Z POSMV $PASHR,200029.258,26.98,T,-0.81,0.42,0.15,0.020,0.020,0.011,2,1*06
2024-05-28T20:00:29.405000Z POSMV $INGGA,200029.258,4131.44339,N,07040.32970,W,2,28,1.4,-3.10,M,,,7,0131*2E
2024-05-28T20:00:29.424000Z POSMV $INHDT,27.0,T*10
2024-05-28T20:00:30.324000Z POSMV $PASHR,200030.258,26.99,T,-0.77,0.42,0.15,0.020,0.020,0.011,2,1*06
2024-05-28T20:00:30.405000Z POSMV $INGGA,200030.258,4131.44339,N,07040.32970,W,2,28,1.4,-3.10,M,,,4,0131*25
2024-05-28T20:00:30.424000Z POSMV $INHDT,27.0,T*10
2024-05-28T20:00:31.325000Z POSMV $PASHR,200031.258,27.01,T,-0.74,0.42,0.15,0.020,0.020,0.011,2,1*04
2024-05-28T20:00:31.405000Z POSMV $INGGA,200031.258,4131.44339,N,07040.32969,W,2,28,1.4,-3.10,M,,,5,0131*2D
2024-05-28T20:00:31.425000Z POSMV $INHDT,27.0,T*10
2024-05-28T20:00:32.325000Z POSMV $PASHR,200032.258,27.01,T,-0.73,0.43,0.15,0.020,0.020,0.011,2,1*01
2024-05-28T20:00:32.405000Z POSMV $INGGA,200032.258,4131.44338,N,07040.32968,W,2,28,1.4,-3.09,M,,,6,0131*25
2024-05-28T20:00:32.424000Z POSMV $INHDT,27.0,T*10
2024-05-28T20:00:33.324000Z POSMV $PASHR,200033.258,27.03,T,-0.76,0.43,0.16,0.020,0.020,0.011,2,1*04
2024-05-28T20:00:33.405000Z POSMV $INGGA,200033.258,4131.44338,N,07040.32968,W,2,28,1.4,-3.09,M,,,7,0131*25
2024-05-28T20:00:33.424000Z POSMV $INHDT,27.0,T*10
2024-05-28T20:00:34.324000Z POSMV $PASHR,200034.258,27.04,T,-0.80,0.42,0.15,0.020,0.020,0.011,2,1*0F
2024-05-28T20:00:34.405000Z POSMV $INGGA,200034.258,4131.44338,N,07040.32967,W,2,28,1.2,-3.09,M,,,7,0131*2B
2024-05-28T20:00:34.424000Z POSMV $INHDT,27.0,T*10
2024-05-28T20:00:35.325000Z POSMV $PASHR,200035.258,27.05,T,-0.83,0.42,0.15,0.020,0.020,0.011,2,1*0C
2024-05-28T20:00:35.405000Z POSMV $INGGA,200035.258,4131.44336,N,07040.32966,W,2,28,1.2,-3.09,M,,,7,0131*25
2024-05-28T20:00:35.424000Z POSMV $INHDT,27.1,T*11
2024-05-28T20:00:36.325000Z POSMV $PASHR,200036.258,27.05,T,-0.85,0.43,0.15,0.020,0.020,0.011,2,1*08
2024-05-28T20:00:36.405000Z POSMV $INGGA,200036.258,4131.44336,N,07040.32965,W,2,28,1.2,-3.09,M,,,4,0131*26
2024-05-28T20:00:36.425000Z POSMV $INHDT,27.1,T*11
2024-05-28T20:00:37.325000Z POSMV $PASHR,200037.258,27.06,T,-0.85,0.43,0.15,0.020,0.020,0.011,2,1*0A
2024-05-28T20:00:37.405000Z POSMV $INGGA,200037.258,4131.44335,N,07040.32964,W,2,28,1.2,-3.09,M,,,5,0131*24
2024-05-28T20:00:37.424000Z POSMV $INHDT,27.1,T*11
2024-05-28T20:00:38.324000Z POSMV $PASHR,200038.258,27.08,T,-0.85,0.43,0.15,0.020,0.020,0.011,2,1*0B
2024-05-28T20:00:38.405000Z POSMV $INGGA,200038.258,4131.44335,N,07040.32964,W,2,28,1.2,-3.09,M,,,6,0131*28
2024-05-28T20:00:38.424000Z POSMV $INHDT,27.1,T*11
2024-05-28T20:00:39.324000Z POSMV $PASHR,200039.258,27.09,T,-0.84,0.42,0.15,0.020,0.020,0.011,2,1*0B
2024-05-28T20:00:39.405000Z POSMV $INGGA,200039.258,4131.44334,N,07040.32963,W,2,28,1.2,-3.09,M,,,7,0131*2E
2024-05-28T20:00:39.424000Z POSMV $INHDT,27.1,T*11
2024-05-28T20:00:40.325000Z POSMV $PASHR,200040.258,27.10,T,-0.82,0.42,0.15,0.020,0.020,0.011,2,1*0B
2024-05-28T20:00:40.405000Z POSMV $INGGA,200040.258,4131.44334,N,07040.32962,W,2,28,1.2,-3.09,M,,,7,0131*21
2024-05-28T20:00:40.424000Z POSMV $INHDT,27.1,T*11
2024-05-28T20:00:41.325000Z POSMV $PASHR,200041.258,27.11,T,-0.81,0.42,0.15,0.020,0.020,0.011,2,1*08
2024-05-28T20:00:41.405000Z POSMV $INGGA,200041.258,4131.44333,N,07040.32962,W,2,28,1.2,-3.09,M,,,7,0131*27
2024-05-28T20:00:41.425000Z POSMV $INHDT,27.1,T*11
2024-05-28T20:00:42.325000Z POSMV $PASHR,200042.258,27.11,T,-0.79,0.43,0.15,0.020,0.020,0.011,2,1*0D
2024-05-28T20:00:42.406000Z POSMV $INGGA,200042.258,4131.44333,N,07040.32961,W,2,28,1.2,-3.08,M,,,4,0131*25
2024-05-28T20:00:42.425000Z POSMV $INHDT,27.1,T*11
2024-05-28T20:00:43.324000Z POSMV $PASHR,200043.258,27.11,T,-0.78,0.43,0.15,0.020,0.020,0.011,2,1*0D
2024-05-28T20:00:43.405000Z POSMV $INGGA,200043.258,4131.44333,N,07040.32961,W,2,28,1.2,-3.08,M,,,5,0131*25
2024-05-28T20:00:43.424000Z POSMV $INHDT,27.1,T*11
2024-05-28T20:00:44.325000Z POSMV $PASHR,200044.258,27.11,T,-0.80,0.42,0.15,0.020,0.020,0.011,2,1*0C
2024-05-28T20:00:44.405000Z POSMV $INGGA,200044.258,4131.44333,N,07040.32960,W,2,28,1.2,-3.08,M,,,6,0131*20
2024-05-28T20:00:44.424000Z POSMV $INHDT,27.1,T*11
2024-05-28T20:00:45.325000Z POSMV $PASHR,200045.258,27.11,T,-0.82,0.42,0.15,0.020,0.020,0.011,2,1*0F
2024-05-28T20:00:45.405000Z POSMV $INGGA,200045.258,4131.44333,N,07040.32959,W,2,28,1.2,-3.08,M,,,7,0131*2A
2024-05-28T20:00:45.425000Z POSMV $INHDT,27.1,T*11
2024-05-28T20:00:46.325000Z POSMV $PASHR,200046.258,27.10,T,-0.84,0.43,0.15,0.020,0.020,0.011,2,1*0A
2024-05-28T20:00:46.406000Z POSMV $INGGA,200046.258,4131.44333,N,07040.32959,W,2,28,1.2,-3.08,M,,,7,0131*29
2024-05-28T20:00:46.425000Z POSMV $INHDT,27.1,T*11
2024-05-28T20:00:47.325000Z POSMV $PASHR,200047.258,27.10,T,-0.84,0.43,0.15,0.020,0.020,0.011,2,1*0B
2024-05-28T20:00:47.406000Z POSMV $INGGA,200047.258,4131.44332,N,07040.32959,W,2,28,1.2,-3.08,M,,,7,0131*29
2024-05-28T20:00:47.425000Z POSMV $INHDT,27.1,T*11
2024-05-28T20:00:48.325000Z POSMV $PASHR,200048.259,27.09,T,-0.83,0.43,0.15,0.020,0.020,0.011,2,1*0A
2024-05-28T20:00:48.406000Z POSMV $INGGA,200048.259,4131.44332,N,07040.32959,W,2,28,1.2,-3.08,M,,,4,0131*24
2024-05-28T20:00:48.424000Z POSMV $INHDT,27.1,T*11
2024-05-28T20:00:49.325000Z POSMV $PASHR,200049.259,27.08,T,-0.81,0.42,0.15,0.020,0.020,0.011,2,1*09
2024-05-28T20:00:49.405000Z POSMV $INGGA,200049.259,4131.44331,N,07040.32959,W,2,28,1.2,-3.08,M,,,5,0131*27
2024-05-28T20:00:49.425000Z POSMV $INHDT,27.1,T*11
2024-05-28T20:00:50.325000Z POSMV $PASHR,200050.259,27.07,T,-0.78,0.43,0.15,0.020,0.020,0.011,2,1*09
2024-05-28T20:00:50.405000Z POSMV $INGGA,200050.259,4131.44331,N,07040.32958,W,2,28,1.2,-3.07,M,,,6,0131*22
2024-05-28T20:00:50.425000Z POSMV $INHDT,27.1,T*11
2024-05-28T20:00:51.325000Z POSMV $PASHR,200051.259,27.07,T,-0.77,0.43,0.15,0.020,0.020,0.011,2,1*07
2024-05-28T20:00:51.406000Z POSMV $INGGA,200051.259,4131.44330,N,07040.32958,W,2,28,1.2,-3.07,M,,,7,0131*23
2024-05-28T20:00:51.425000Z POSMV $INHDT,27.1,T*11
2024-05-28T20:00:52.325000Z POSMV $PASHR,200052.259,27.06,T,-0.77,0.44,0.15,0.020,0.020,0.011,2,1*02
2024-05-28T20:00:52.406000Z POSMV $INGGA,200052.259,4131.44330,N,07040.32958,W,2,28,1.2,-3.07,M,,,7,0131*20
2024-05-28T20:00:52.425000Z POSMV $INHDT,27.1,T*11
2024-05-28T20:00:53.326000Z POSMV $PASHR,200053.259,27.06,T,-0.79,0.43,0.15,0.020,0.020,0.011,2,1*0A
2024-05-28T20:00:53.406000Z POSMV $INGGA,200053.259,4131.44329,N,07040.32957,W,2,28,1.2,-3.08,M,,,7,0131*29
2024-05-28T20:00:53.425000Z POSMV $INHDT,27.1,T*11
2024-05-28T20:00:54.325000Z POSMV $PASHR,200054.259,27.06,T,-0.82,0.42,0.15,0.020,0.020,0.011,2,1*08
2024-05-28T20:00:54.405000Z POSMV $INGGA,200054.259,4131.44329,N,07040.32957,W,2,28,1.2,-3.08,M,,,4,0131*2D
2024-05-28T20:00:54.425000Z POSMV $INHDT,27.1,T*11
2024-05-28T20:00:55.325000Z POSMV $PASHR,200055.259,27.05,T,-0.84,0.43,0.15,0.020,0.020,0.011,2,1*0D
2024-05-28T20:00:55.406000Z POSMV $INGGA,200055.259,4131.44328,N,07040.32956,W,2,28,1.2,-3.07,M,,,5,0131*22
2024-05-28T20:00:55.425000Z POSMV $INHDT,27.1,T*11
2024-05-28T20:00:56.325000Z POSMV $PASHR,200056.259,27.05,T,-0.85,0.44,0.15,0.020,0.020,0.011,2,1*08
2024-05-28T20:00:56.406000Z POSMV $INGGA,200056.259,4131.44328,N,07040.32955,W,2,28,1.2,-3.07,M,,,6,0131*21
2024-05-28T20:00:56.425000Z POSMV $INHDT,27.0,T*10
2024-05-28T20:00:57.326000Z POSMV $PASHR,200057.259,27.05,T,-0.84,0.44,0.15,0.020,0.020,0.011,2,1*08
2024-05-28T20:00:57.406000Z POSMV $INGGA,200057.259,4131.44328,N,07040.32955,W,2,28,1.2,-3.07,M,,,7,0131*21
2024-05-28T20:00:57.425000Z POSMV $INHDT,27.0,T*10
2024-05-28T20:00:58.326000Z POSMV $PASHR,200058.259,27.05,T,-0.82,0.42,0.15,0.020,0.020,0.011,2,1*07
2024-05-28T20:00:58.406000Z POSMV $INGGA,200058.259,4131.44327,N,07040.32954,W,2,28,1.2,-3.07,M,,,7,0131*20
2024-05-28T20:00:58.426000Z POSMV $INHDT,27.1,T*11
2024-05-28T20:00:59.325000Z POSMV $PASHR,200059.259,27.05,T,-0.79,0.42,0.15,0.020,0.020,0.011,2,1*02
2024-05-28T20:00:59.406000Z POSMV $INGGA,200059.259,4131.44327,N,07040.32954,W,2,28,1.2,-3.07,M,,,7,0131*21
2024-05-28T20:00:59.425000Z POSMV $INHDT,27.1,T*11
2024-05-28T20:01:00.325000Z POSMV $PASHR,200100.259,27.06,T,-0.78,0.43,0.15,0.020,0.020,0.011,2,1*0C
2024-05-28T20:01:00.406000Z POSMV $INGGA,200100.259,4131.44326,N,07040.32953,W,2,28,1.2,-3.06,M,,,4,0131*28
2024-05-28T20:01:00.425000Z POSMV $INHDT,27.1,T*11
2024-05-28T20:01:01.325000Z POSMV $PASHR,200101.259,27.06,T,-0.78,0.44,0.15,0.020,0.020,0.011,2,1*0A
2024-05-28T20:01:01.406000Z POSMV $INGGA,200101.259,4131.44326,N,07040.32952,W,2,28,1.2,-3.06,M,,,5,0131*29
2024-05-28T20:01:01.425000Z POSMV $INHDT,27.1,T*11
2024-05-28T20:01:02.326000Z POSMV $PASHR,200102.259,27.06,T,-0.80,0.44,0.15,0.020,0.020,0.011,2,1*0E
2024-05-28T20:01:02.406000Z POSMV $INGGA,200102.259,4131.44325,N,07040.32952,W,2,28,1.2,-3.06,M,,,6,0131*2A
2024-05-28T20:01:02.426000Z POSMV $INHDT,27.1,T*11
2024-05-28T20:01:03.326000Z POSMV $PASHR,200103.259,27.06,T,-0.83,0.44,0.15,0.020,0.020,0.011,2,1*0C
2024-05-28T20:01:03.406000Z POSMV $INGGA,200103.259,4131.44325,N,07040.32951,W,2,28,1.2,-3.06,M,,,7,0131*29
2024-05-28T20:01:03.426000Z POSMV $INHDT,27.1,T*11
2024-05-28T20:01:04.326000Z POSMV $PASHR,200104.259,27.06,T,-0.84,0.42,0.15,0.020,0.020,0.011,2,1*0A
2024-05-28T20:01:04.407000Z POSMV $INGGA,200104.259,4131.44325,N,07040.32951,W,2,28,1.2,-3.06,M,,,7,0131*2E
2024-05-28T20:01:04.425000Z POSMV $INHDT,27.1,T*11
2024-05-28T20:01:05.325000Z POSMV $PASHR,200105.259,27.05,T,-0.84,0.42,0.15,0.020,0.020,0.011,2,1*08
2024-05-28T20:01:05.406000Z POSMV $INGGA,200105.259,4131.44325,N,07040.32951,W,2,28,1.2,-3.06,M,,,7,0131*2F
2024-05-28T20:01:05.425000Z POSMV $INHDT,27.1,T*11
2024-05-28T20:01:06.325000Z POSMV $PASHR,200106.259,27.05,T,-0.83,0.42,0.15,0.020,0.020,0.011,2,1*0C
2024-05-28T20:01:06.406000Z POSMV $INGGA,200106.259,4131.44324,N,07040.32951,W,2,28,1.2,-3.05,M,,,4,0131*2D
2024-05-28T20:01:06.425000Z POSMV $INHDT,27.0,T*10
2024-05-28T20:01:07.326000Z POSMV $PASHR,200107.259,27.04,T,-0.81,0.43,0.15,0.020,0.020,0.011,2,1*0F
2024-05-28T20:01:07.406000Z POSMV $INGGA,200107.259,4131.44324,N,07040.32951,W,2,28,1.2,-3.05,M,,,5,0131*2D
2024-05-28T20:01:07.426000Z POSMV $INHDT,27.0,T*10
2024-05-28T20:01:08.326000Z POSMV $PASHR,200108.259,27.05,T,-0.81,0.44,0.16,0.020,0.020,0.011,2,1*05
2024-05-28T20:01:08.407000Z POSMV $INGGA,200108.259,4131.44324,N,07040.32950,W,2,28,1.2,-3.05,M,,,6,0131*20
2024-05-28T20:01:08.426000Z POSMV $INHDT,27.0,T*10
2024-05-28T20:01:09.326000Z POSMV $PASHR,200109.259,27.05,T,-0.80,0.44,0.16,0.020,0.020,0.011,2,1*05
2024-05-28T20:01:09.407000Z POSMV $INGGA,200109.259,4131.44324,N,07040.32951,W,2,28,1.2,-3.05,M,,,7,0131*21
2024-05-28T20:01:09.426000Z POSMV $INHDT,27.0,T*10
2024-05-28T20:01:10.325000Z POSMV $PASHR,200110.259,27.05,T,-0.80,0.44,0.15,0.020,0.020,0.011,2,1*0E
2024-05-28T20:01:10.406000Z POSMV $INGGA,200110.259,4131.44323,N,07040.32950,W,2,28,1.2,-3.05,M,,,7,0131*2F
2024-05-28T20:01:10.425000Z POSMV $INHDT,27.1,T*11
2024-05-28T20:01:11.326000Z POSMV $PASHR,200111.260,27.06,T,-0.81,0.42,0.15,0.020,0.020,0.011,2,1*01
2024-05-28T20:01:11.406000Z POSMV $INGGA,200111.260,4131.44324,N,07040.32950,W,2,28,1.2,-3.05,M,,,7,0131*23
2024-05-28T20:01:11.426000Z POSMV $INHDT,27.1,T*11
2024-05-28T20:01:12.326000Z POSMV $PASHR,200112.260,27.06,T,-0.81,0.41,0.15,0.020,0.020,0.011,2,1*01
2024-05-28T20:01:12.406000Z POSMV $INGGA,200112.260,4131.44323,N,07040.32949,W,2,28,1.2,-3.05,M,,,4,0131*2C
2024-05-28T20:01:12.426000Z POSMV $INHDT,27.1,T*11
2024-05-28T20:01:13.326000Z POSMV $PASHR,200113.260,27.05,T,-0.80,0.42,0.15,0.020,0.020,0.011,2,1*01
2024-05-28T20:01:13.407000Z POSMV $INGGA,200113.260,4131.44323,N,07040.32949,W,2,28,1.2,-3.05,M,,,5,0131*2C
2024-05-28T20:01:13.426000Z POSMV $INHDT,27.1,T*11
2024-05-28T20:01:14.326000Z POSMV $PASHR,200114.260,27.05,T,-0.78,0.44,0.16,0.020,0.020,0.011,2,1*04
2024-05-28T20:01:14.407000Z POSMV $INGGA,200114.260,4131.44323,N,07040.32948,W,2,28,1.2,-3.04,M,,,6,0131*28
2024-05-28T20:01:14.426000Z POSMV $INHDT,27.1,T*11
2024-05-28T20:01:15.327000Z POSMV $PASHR,200115.260,27.05,T,-0.77,0.45,0.16,0.020,0.020,0.011,2,1*0B
2024-05-28T20:01:15.406000Z POSMV $INGGA,200115.260,4131.44324,N,07040.32948,W,2,28,1.2,-3.04,M,,,7,0131*2F
2024-05-28T20:01:15.425000Z POSMV $INHDT,27.0,T*10
2024-05-28T20:01:16.326000Z POSMV $PASHR,200116.260,27.05,T,-0.77,0.44,0.16,0.020,0.020,0.011,2,1*09
2024-05-28T20:01:16.406000Z POSMV $INGGA,200116.260,4131.44323,N,07040.32947,W,2,28,1.2,-3.04,M,,,7,0131*24
2024-05-28T20:01:16.426000Z POSMV $INHDT,27.1,T*11
2024-05-28T20:01:17.326000Z POSMV $PASHR,200117.260,27.06,T,-0.78,0.43,0.16,0.020,0.020,0.011,2,1*03
2024-05-28T20:01:17.407000Z POSMV $INGGA,200117.260,4131.44323,N,07040.32947,W,2,28,1.2,-3.04,M,,,7,0131*25
2024-05-28T20:01:17.426000Z POSMV $INHDT,27.1,T*11
2024-05-28T20:01:18.326000Z POSMV $PASHR,200118.260,27.06,T,-0.80,0.42,0.15,0.020,0.020,0.011,2,1*09
2024-05-28T20:01:18.407000Z POSMV $INGGA,200118.260,4131.44323,N,07040.32946,W,2,28,1.2,-3.05,M,,,4,0131*29
2024-05-28T20:01:18.426000Z POSMV $INHDT,27.1,T*11
2024-05-28T20:01:19.326000Z POSMV $PASHR,200119.260,27.06,T,-0.80,0.42,0.15,0.020,0.020,0.011,1,1*0B
2024-05-28T20:01:19.407000Z POSMV $INGGA,200119.260,4131.44323,N,07040.32946,W,2,28,1.2,-3.05,M,,,5,0131*29
2024-05-28T20:01:19.426000Z POSMV $INHDT,27.1,T*11
2024-05-28T20:01:20.327000Z POSMV $PASHR,200120.260,27.07,T,-0.81,0.43,0.16,0.020,0.020,0.011,2,1*00
2024-05-28T20:01:20.407000Z POSMV $INGGA,200120.260,4131.44323,N,07040.32945,W,2,28,1.2,-3.04,M,,,6,0131*22
2024-05-28T20:01:20.427000Z POSMV $INHDT,27.1,T*11
2024-05-28T20:01:21.326000Z POSMV $PASHR,200121.260,27.07,T,-0.80,0.43,0.16,0.020,0.020,0.011,2,1*00
2024-05-28T20:01:21.406000Z POSMV $INGGA,200121.260,4131.44323,N,07040.32945,W,2,28,1.2,-3.04,M,,,7,0131*22
2024-05-28T20:01:21.426000Z POSMV $INHDT,27.1,T*11
2024-05-28T20:01:22.326000Z POSMV $PASHR,200122.260,27.07,T,-0.80,0.44,0.16,0.020,0.020,0.011,2,1*04
2024-05-28T20:01:22.407000Z POSMV $INGGA,200122.260,4131.44323,N,07040.32944,W,2,28,1.2,-3.04,M,,,7,0131*20
2024-05-28T20:01:22.426000Z POSMV $INHDT,27.1,T*11
2024-05-28T20:01:23.326000Z POSMV $PASHR,200123.260,27.09,T,-0.79,0.43,0.16,0.020,0.020,0.011,2,1*0A
2024-05-28T20:01:23.407000Z POSMV $INGGA,200123.260,4131.44323,N,07040.32944,W,2,28,1.2,-3.04,M,,,7,0131*21
2024-05-28T20:01:23.426000Z POSMV $INHDT,27.1,T*11
2024-05-28T20:01:24.327000Z POSMV $PASHR,200124.260,27.10,T,-0.79,0.43,0.16,0.020,0.020,0.011,2,1*05
2024-05-28T20:01:24.407000Z POSMV $INGGA,200124.260,4131.44323,N,07040.32943,W,2,28,1.2,-3.04,M,,,4,0131*22
2024-05-28T20:01:24.427000Z POSMV $INHDT,27.1,T*11
2024-05-28T20:01:25.327000Z POSMV $PASHR,200125.260,27.11,T,-0.78,0.42,0.15,0.020,0.020,0.011,2,1*06
2024-05-28T20:01:25.407000Z POSMV $INGGA,200125.260,4131.44323,N,07040.32944,W,2,28,1.2,-3.05,M,,,5,0131*24
2024-05-28T20:01:25.427000Z POSMV $INHDT,27.1,T*11
2024-05-28T20:01:26.327000Z POSMV $PASHR,200126.260,27.11,T,-0.77,0.43,0.15,0.020,0.020,0.011,2,1*0B
2024-05-28T20:01:26.407000Z POSMV $INGGA,200126.260,4131.44322,N,07040.32943,W,2,29,1.2,-3.05,M,,,6,0131*23
2024-05-28T20:01:26.426000Z POSMV $INHDT,27.1,T*11
2024-05-28T20:01:27.326000Z POSMV $PASHR,200127.260,27.11,T,-0.77,0.43,0.16,0.020,0.020,0.011,2,1*09
2024-05-28T20:01:27.407000Z POSMV $INGGA,200127.260,4131.44322,N,07040.32943,W,2,29,1.2,-3.05,M,,,7,0131*23
2024-05-28T20:01:27.426000Z POSMV $INHDT,27.1,T*11
2024-05-28T20:01:28.326000Z POSMV $PASHR,200128.260,27.11,T,-0.77,0.43,0.16,0.020,0.020,0.011,2,1*06
2024-05-28T20:01:28.407000Z POSMV $INGGA,200128.260,4131.44322,N,07040.32942,W,2,29,1.2,-3.04,M,,,7,0131*2C
2024-05-28T20:01:28.426000Z POSMV $INHDT,27.1,T*11
2024-05-28T20:01:29.327000Z POSMV $PASHR,200129.260,27.12,T,-0.79,0.42,0.16,0.020,0.020,0.011,2,1*0B
2024-05-28T20:01:29.407000Z POSMV $INGGA,200129.260,4131.44322,N,07040.32942,W,2,29,1.2,-3.04,M,,,7,0131*2D
2024-05-28T20:01:29.427000Z POSMV $INHDT,27.1,T*11
2024-05-28T20:01:30.327000Z POSMV $PASHR,200130.260,27.12,T,-0.81,0.42,0.15,0.020,0.020,0.011,2,1*07
2024-05-28T20:01:30.408000Z POSMV $INGGA,200130.260,4131.44322,N,07040.32942,W,2,29,1.2,-3.05,M,,,4,0131*27
2024-05-28T20:01:30.427000Z POSMV $INHDT,27.1,T*11
2024-05-28T20:01:31.327000Z POSMV $PASHR,200131.260,27.13,T,-0.82,0.43,0.15,0.020,0.020,0.011,2,1*05
2024-05-28T20:01:31.408000Z POSMV $INGGA,200131.260,4131.44322,N,07040.32942,W,2,29,1.2,-3.05,M,,,5,0131*27
2024-05-28T20:01:31.427000Z POSMV $INHDT,27.1,T*11
2024-05-28T20:01:32.326000Z POSMV $PASHR,200132.260,27.14,T,-0.82,0.43,0.15,0.020,0.020,0.011,2,1*01
2024-05-28T20:01:32.407000Z POSMV $INGGA,200132.260,4131.44322,N,07040.32942,W,2,29,1.2,-3.05,M,,,6,0131*27
2024-05-28T20:01:32.426000Z POSMV $INHDT,27.1,T*11
2024-05-28T20:01:33.327000Z POSMV $PASHR,200133.261,27.15,T,-0.80,0.43,0.15,0.020,0.020,0.011,2,1*02
2024-05-28T20:01:33.407000Z POSMV $INGGA,200133.261,4131.44323,N,07040.32943,W,2,29,1.2,-3.05,M,,,7,0131*26
2024-05-28T20:01:33.427000Z POSMV $INHDT,27.1,T*11
2024-05-28T20:01:34.327000Z POSMV $PASHR,200134.261,27.16,T,-0.78,0.43,0.15,0.020,0.020,0.011,2,1*01
2024-05-28T20:01:34.407000Z POSMV $INGGA,200134.261,4131.44323,N,07040.32942,W,2,29,1.2,-3.05,M,,,7,0131*20
2024-05-28T20:01:34.427000Z POSMV $INHDT,27.2,T*12
2024-05-28T20:01:35.327000Z POSMV $PASHR,200135.261,27.17,T,-0.77,0.42,0.15,0.020,0.020,0.011,2,1*0F
2024-05-28T20:01:35.408000Z POSMV $INGGA,200135.261,4131.44323,N,07040.32943,W,2,29,1.2,-3.06,M,,,7,0131*23
2024-05-28T20:01:35.427000Z POSMV $INHDT,27.2,T*12
2024-05-28T20:01:36.327000Z POSMV $PASHR,200136.261,27.17,T,-0.77,0.42,0.15,0.020,0.020,0.011,2,1*0C
2024-05-28T20:01:36.408000Z POSMV $INGGA,200136.261,4131.44323,N,07040.32942,W,2,29,1.2,-3.06,M,,,4,0131*22
2024-05-28T20:01:36.427000Z POSMV $INHDT,27.2,T*12
2024-05-28T20:01:37.327000Z POSMV $PASHR,200137.261,27.17,T,-0.77,0.44,0.15,0.020,0.020,0.011,2,1*0B
2024-05-28T20:01:37.407000Z POSMV $INGGA,200137.261,4131.44324,N,07040.32943,W,2,29,1.2,-3.06,M,,,5,0131*24
2024-05-28T20:01:37.427000Z POSMV $INHDT,27.2,T*12
2024-05-28T20:01:38.327000Z POSMV $PASHR,200138.261,27.16,T,-0.79,0.44,0.15,0.020,0.020,0.011,2,1*0B
2024-05-28T20:01:38.407000Z POSMV $INGGA,200138.261,4131.44323,N,07040.32942,W,2,29,1.2,-3.06,M,,,6,0131*2E
2024-05-28T20:01:38.427000Z POSMV $INHDT,27.2,T*12
2024-05-28T20:01:39.327000Z POSMV $PASHR,200139.261,27.16,T,-0.81,0.44,0.15,0.020,0.020,0.011,2,1*0D
2024-05-28T20:01:39.408000Z POSMV $INGGA,200139.261,4131.44324,N,07040.32943,W,2,29,1.2,-3.06,M,,,7,0131*28
2024-05-28T20:01:39.427000Z POSMV $INHDT,27.2,T*12
2024-05-28T20:01:40.327000Z POSMV $PASHR,200140.261,27.15,T,-0.83,0.43,0.15,0.020,0.020,0.011,2,1*05
2024-05-28T20:01:40.408000Z POSMV $INGGA,200140.261,4131.44323,N,07040.32943,W,2,29,1.2,-3.06,M,,,7,0131*21
2024-05-28T20:01:40.427000Z POSMV $INHDT,27.2,T*12
2024-05-28T20:01:41.328000Z POSMV $PASHR,200141.261,27.15,T,-0.84,0.42,0.14,0.020,0.020,0.011,2,1*03
2024-05-28T20:01:41.408000Z POSMV $INGGA,200141.261,4131.44324,N,07040.32944,W,2,29,1.2,-3.07,M,,,7,0131*21
2024-05-28T20:01:41.427000Z POSMV $INHDT,27.1,T*11
2024-05-28T20:01:42.328000Z POSMV $PASHR,200142.261,27.15,T,-0.84,0.41,0.14,0.020,0.020,0.011,2,1*03
2024-05-28T20:01:42.408000Z POSMV $INGGA,200142.261,4131.44323,N,07040.32943,W,2,29,1.2,-3.07,M,,,4,0131*21
2024-05-28T20:01:42.428000Z POSMV $INHDT,27.1,T*11
2024-05-28T20:01:43.327000Z POSMV $PASHR,200143.261,27.15,T,-0.81,0.42,0.15,0.020,0.020,0.011,2,1*05
2024-05-28T20:01:43.408000Z POSMV $INGGA,200143.261,4131.44323,N,07040.32943,W,2,29,1.2,-3.07,M,,,5,0131*21
2024-05-28T20:01:43.427000Z POSMV $INHDT,27.1,T*11
2024-05-28T20:01:44.327000Z POSMV $PASHR,200144.261,27.14,T,-0.78,0.44,0.15,0.020,0.020,0.011,2,1*03
2024-05-28T20:01:44.408000Z POSMV $INGGA,200144.261,4131.44324,N,07040.32944,W,2,29,1.2,-3.06,M,,,6,0131*24
2024-05-28T20:01:44.427000Z POSMV $INHDT,27.1,T*11
2024-05-28T20:01:45.327000Z POSMV $PASHR,200145.261,27.14,T,-0.76,0.44,0.15,0.020,0.020,0.011,2,1*0C
2024-05-28T20:01:45.408000Z POSMV $INGGA,200145.261,4131.44325,N,07040.32945,W,2,29,1.2,-3.07,M,,,7,0131*25
2024-05-28T20:01:45.427000Z POSMV $INHDT,27.1,T*11
2024-05-28T20:01:46.328000Z POSMV $PASHR,200146.261,27.14,T,-0.76,0.44,0.15,0.020,0.020,0.011,2,1*0F
2024-05-28T20:01:46.408000Z POSMV $INGGA,200146.261,4131.44324,N,07040.32944,W,2,29,1.2,-3.07,M,,,7,0131*26
2024-05-28T20:01:46.428000Z POSMV $INHDT,27.1,T*11
2024-05-28T20:01:47.328000Z POSMV $PASHR,200147.261,27.14,T,-0.76,0.43,0.15,0.020,0.020,0.011,2,1*09
2024-05-28T20:01:47.408000Z POSMV $INGGA,200147.261,4131.44325,N,07040.32946,W,2,29,1.2,-3.07,M,,,7,0131*24
2024-05-28T20:01:47.428000Z POSMV $INHDT,27.1,T*11
2024-05-28T20:01:48.327000Z POSMV $PASHR,200148.261,27.14,T,-0.78,0.42,0.15,0.020,0.020,0.011,2,1*09
2024-05-28T20:01:48.408000Z POSMV $INGGA,200148.261,4131.44325,N,07040.32946,W,2,29,1.2,-3.07,M,,,4,0131*28
2024-05-28T20:01:48.427000Z POSMV $INHDT,27.1,T*11
2024-05-28T20:01:49.327000Z POSMV $PASHR,200149.261,27.14,T,-0.80,0.42,0.15,0.020,0.020,0.011,2,1*0F
2024-05-28T20:01:49.408000Z POSMV $INGGA,200149.261,4131.44325,N,07040.32946,W,2,29,1.2,-3.07,M,,,5,0131*28
2024-05-28T20:01:49.427000Z POSMV $INHDT,27.1,T*11
2024-05-28T20:01:50.327000Z POSMV $PASHR,200150.261,27.13,T,-0.81,0.43,0.15,0.020,0.020,0.011,2,1*00
2024-05-28T20:01:50.408000Z POSMV $INGGA,200150.261,4131.44326,N,07040.32946,W,2,29,1.2,-3.07,M,,,6,0131*20
2024-05-28T20:01:50.428000Z POSMV $INHDT,27.1,T*11
2024-05-28T20:01:51.328000Z POSMV $PASHR,200151.261,27.12,T,-0.81,0.43,0.15,0.020,0.020,0.011,2,1*00
2024-05-28T20:01:51.408000Z POSMV $INGGA,200151.261,4131.44326,N,07040.32946,W,2,28,1.2,-3.08,M,,,7,0131*2E
2024-05-28T20:01:51.428000Z POSMV $INHDT,27.1,T*11
2024-05-28T20:01:52.328000Z POSMV $PASHR,200152.261,27.12,T,-0.81,0.43,0.15,0.020,0.020,0.011,1,1*00
2024-05-28T20:01:52.408000Z POSMV $INGGA,200152.261,4131.44326,N,07040.32946,W,2,28,1.2,-3.08,M,,,7,0131*2D
2024-05-28T20:01:52.428000Z POSMV $INHDT,27.1,T*11
2024-05-28T20:01:53.328000Z POSMV $PASHR,200153.261,27.12,T,-0.79,0.43,0.15,0.020,0.020,0.011,2,1*05
2024-05-28T20:01:53.408000Z POSMV $INGGA,200153.261,4131.44326,N,07040.32946,W,2,28,1.2,-3.08,M,,,7,0131*2C
2024-05-28T20:01:53.427000Z POSMV $INHDT,27.1,T*11
2024-05-28T20:01:54.327000Z POSMV $PASHR,200154.261,27.13,T,-0.77,0.43,0.15,0.020,0.020,0.011,2,1*0D
2024-05-28T20:01:54.408000Z POSMV $INGGA,200154.261,4131.44326,N,07040.32945,W,2,28,1.2,-3.08,M,,,4,0131*2B
2024-05-28T20:01:54.427000Z POSMV $INHDT,27.1,T*11
2024-05-28T20:01:55.328000Z POSMV $PASHR,200155.261,27.13,T,-0.76,0.42,0.14,0.020,0.020,0.011,2,1*0D
2024-05-28T20:01:55.408000Z POSMV $INGGA,200155.261,4131.44327,N,07040.32946,W,2,28,1.2,-3.08,M,,,5,0131*29
2024-05-28T20:01:55.428000Z POSMV $INHDT,27.1,T*11
2024-05-28T20:01:56.328000Z POSMV $PASHR,200156.262,27.13,T,-0.75,0.42,0.14,0.020,0.020,0.011,2,1*0E
2024-05-28T20:01:56.408000Z POSMV $INGGA,200156.262,4131.44328,N,07040.32946,W,2,28,1.2,-3.09,M,,,6,0131*24
2024-05-28T20:01:56.428000Z POSMV $INHDT,27.1,T*11
2024-05-28T20:01:57.328000Z POSMV $PASHR,200157.262,27.12,T,-0.76,0.42,0.14,0.020,0.020,0.011,2,1*0D
2024-05-28T20:01:57.409000Z POSMV $INGGA,200157.262,4131.44328,N,07040.32946,W,2,28,1.2,-3.09,M,,,7,0131*24
2024-05-28T20:01:57.428000Z POSMV $INHDT,27.1,T*11
2024-05-28T20:01:58.328000Z POSMV $PASHR,200158.262,27.13,T,-0.79,0.42,0.14,0.020,0.020,0.011,2,1*0C
2024-05-28T20:01:58.409000Z POSMV $INGGA,200158.262,4131.44329,N,07040.32945,W,2,29,1.2,-3.08,M,,,7,0131*29
2024-05-28T20:01:58.428000Z POSMV $INHDT,27.1,T*11
2024-05-28T20:01:59.328000Z POSMV $PASHR,200159.262,27.13,T,-0.81,0.43,0.15,0.020,0.020,0.011,2,1*0A
2024-05-28T20:01:59.408000Z POSMV $INGGA,200159.262,4131.44329,N,07040.32945,W,2,29,1.2,-3.08,M,,,7,0131*28
2024-05-28T20:01:59.428000Z POSMV $INHDT,27.1,T*11
2024-05-28T20:02:00.328000Z POSMV $PASHR,200200.262,27.13,T,-0.82,0.43,0.15,0.020,0.020,0.011,2,1*06
2024-05-28T20:02:00.408000Z POSMV $INGGA,200200.262,4131.44330,N,07040.32945,W,2,29,1.2,-3.08,M,,,4,0131*2C
2024-05-28T20:02:00.428000Z POSMV $INHDT,27.1,T*11
2024-05-28T20:02:01.328000Z POSMV $PASHR,200201.262,27.13,T,-0.81,0.42,0.14,0.020,0.020,0.011,2,1*04
2024-05-28T20:02:01.409000Z POSMV $INGGA,200201.262,4131.44330,N,07040.32945,W,2,29,1.2,-3.09,M,,,5,0131*2D
2024-05-28T20:02:01.428000Z POSMV $INHDT,27.1,T*11
2024-05-28T20:02:02.328000Z POSMV $PASHR,200202.262,27.14,T,-0.78,0.41,0.14,0.020,0.020,0.011,2,1*05
2024-05-28T20:02:02.409000Z POSMV $INGGA,200202.262,4131.44330,N,07040.32945,W,2,29,1.1,-3.09,M,,,6,0131*2E
2024-05-28T20:02:02.428000Z POSMV $INHDT,27.1,T*11
2024-05-28T20:02:03.329000Z POSMV $PASHR,200203.262,27.14,T,-0.76,0.42,0.14,0.020,0.020,0.011,2,1*09
2024-05-28T20:02:03.409000Z POSMV $INGGA,200203.262,4131.44331,N,07040.32944,W,2,29,1.1,-3.09,M,,,7,0131*2E
2024-05-28T20:02:03.428000Z POSMV $INHDT,27.1,T*11
2024-05-28T20:02:04.328000Z POSMV $PASHR,200204.262,27.14,T,-0.76,0.42,0.14,0.020,0.020,0.011,2,1*0E
2024-05-28T20:02:04.408000Z POSMV $INGGA,200204.262,4131.44332,N,07040.32945,W,2,29,1.1,-3.09,M,,,7,0131*2B
2024-05-28T20:02:04.428000Z POSMV $INHDT,27.1,T*11
2024-05-28T20:02:05.328000Z POSMV $PASHR,200205.262,27.14,T,-0.78,0.43,0.14,0.020,0.020,0.011,2,1*00
2024-05-28T20:02:05.409000Z POSMV $INGGA,200205.262,4131.44332,N,07040.32945,W,2,29,1.1,-3.09,M,,,7,0131*2A
2024-05-28T20:02:05.428000Z POSMV $INHDT,27.1,T*11
2024-05-28T20:02:06.328000Z POSMV $PASHR,200206.262,27.14,T,-0.81,0.43,0.14,0.020,0.020,0.011,2,1*05
2024-05-28T20:02:06.409000Z POSMV $INGGA,200206.262,4131.44333,N,07040.32945,W,2,29,1.1,-3.09,M,,,4,0131*2B
2024-05-28T20:02:06.428000Z POSMV $INHDT,27.1,T*11
2024-05-28T20:02:07.328000Z POSMV $PASHR,200207.262,27.15,T,-0.83,0.43,0.14,0.020,0.020,0.011,2,1*07
2024-05-28T20:02:07.409000Z POSMV $INGGA,200207.262,4131.44334,N,07040.32945,W,2,29,1.1,-3.10,M,,,5,0131*24
2024-05-28T20:02:07.428000Z POSMV $INHDT,27.1,T*11
2024-05-28T20:02:08.329000Z POSMV $PASHR,200208.262,27.16,T,-0.83,0.41,0.14,0.020,0.020,0.011,2,1*09
2024-05-28T20:02:08.409000Z POSMV $INGGA,200208.262,4131.44334,N,07040.32945,W,2,29,1.1,-3.10,M,,,6,0131*28
2024-05-28T20:02:08.429000Z POSMV $INHDT,27.2,T*12
2024-05-28T20:02:09.329000Z POSMV $PASHR,200209.262,27.16,T,-0.81,0.41,0.14,0.020,0.020,0.011,2,1*0A
2024-05-28T20:02:09.409000Z POSMV $INGGA,200209.262,4131.44334,N,07040.32945,W,2,29,1.1,-3.10,M,,,7,0131*28
2024-05-28T20:02:09.429000Z POSMV $INHDT,27.2,T*12
2024-05-28T20:02:10.328000Z POSMV $PASHR,200210.262,27.15,T,-0.77,0.42,0.14,0.020,0.020,0.011,2,1*0B
2024-05-28T20:02:10.409000Z POSMV $INGGA,200210.262,4131.44335,N,07040.32945,W,2,29,1.1,-3.10,M,,,7,0131*21
2024-05-28T20:02:10.428000Z POSMV $INHDT,27.2,T*12
2024-05-28T20:02:11.328000Z POSMV $PASHR,200211.262,27.15,T,-0.75,0.43,0.14,0.020,0.020,0.011,2,1*09
2024-05-28T20:02:11.409000Z POSMV $INGGA,200211.262,4131.44336,N,07040.32945,W,2,29,1.1,-3.10,M,,,7,0131*23
2024-05-28T20:02:11.428000Z POSMV $INHDT,27.2,T*12
2024-05-28T20:02:12.329000Z POSMV $PASHR,200212.262,27.15,T,-0.75,0.43,0.14,0.020,0.020,0.011,2,1*0A
2024-05-28T20:02:12.409000Z POSMV $INGGA,200212.262,4131.44336,N,07040.32945,W,2,29,1.1,-3.10,M,,,4,0131*23
2024-05-28T20:02:12.428000Z POSMV $INHDT,27.1,T*11
2024-05-28T20:02:13.329000Z POSMV $PASHR,200213.262,27.15,T,-0.77,0.43,0.14,0.020,0.020,0.011,2,1*09
2024-05-28T20:02:13.409000Z POSMV $INGGA,200213.262,4131.44337,N,07040.32945,W,2,29,1.1,-3.11,M,,,5,0131*23
2024-05-28T20:02:13.429000Z POSMV $INHDT,27.1,T*11
2024-05-28T20:02:14.329000Z POSMV $PASHR,200214.262,27.15,T,-0.81,0.41,0.14,0.020,0.020,0.011,2,1*05
2024-05-28T20:02:14.409000Z POSMV $INGGA,200214.262,4131.44338,N,07040.32944,W,2,29,1.1,-3.11,M,,,6,0131*29
2024-05-28T20:02:14.429000Z POSMV $INHDT,27.1,T*11
2024-05-28T20:02:15.329000Z POSMV $PASHR,200215.262,27.15,T,-0.85,0.41,0.13,0.020,0.020,0.011,2,1*07
2024-05-28T20:02:15.409000Z POSMV $INGGA,200215.262,4131.44339,N,07040.32944,W,2,29,1.1,-3.11,M,,,7,0131*28
2024-05-28T20:02:15.428000Z POSMV $INHDT,27.2,T*12
2024-05-28T20:02:16.328000Z POSMV $PASHR,200216.262,27.15,T,-0.84,0.41,0.13,0.020,0.020,0.011,2,1*05
2024-05-28T20:02:16.409000Z POSMV $INGGA,200216.262,4131.44339,N,07040.32944,W,2,29,1.1,-3.12,M,,,7,0131*28
2024-05-28T20:02:16.428000Z POSMV $INHDT,27.1,T*11
2024-05-28T20:02:17.329000Z POSMV $PASHR,200217.262,27.14,T,-0.81,0.42,0.14,0.020,0.020,0.011,2,1*04
2024-05-28T20:02:17.409000Z POSMV $INGGA,200217.262,4131.44340,N,07040.32945,W,2,29,1.1,-3.11,M,,,7,0131*25
2024-05-28T20:02:17.429000Z POSMV $INHDT,27.1,T*11
2024-05-28T20:02:18.329000Z POSMV $PASHR,200218.262,27.13,T,-0.77,0.42,0.14,0.020,0.020,0.011,2,1*05
2024-05-28T20:02:18.409000Z POSMV $INGGA,200218.262,4131.44341,N,07040.32945,W,2,29,1.1,-3.11,M,,,4,0131*28
2024-05-28T20:02:18.429000Z POSMV $INHDT,27.1,T*11
2024-05-28T20:02:19.329000Z POSMV $PASHR,200219.263,27.13,T,-0.74,0.42,0.14,0.020,0.020,0.011,2,1*06
2024-05-28T20:02:19.410000Z POSMV $INGGA,200219.263,4131.44342,N,07040.32945,W,2,29,1.1,-3.12,M,,,5,0131*29
2024-05-28T20:02:19.429000Z POSMV $INHDT,27.1,T*11
2024-05-28T20:02:20.329000Z POSMV $PASHR,200220.263,27.13,T,-0.73,0.42,0.13,0.020,0.020,0.011,2,1*0C
2024-05-28T20:02:20.409000Z POSMV $INGGA,200220.263,4131.44343,N,07040.32946,W,2,29,1.1,-3.12,M,,,6,0131*22
2024-05-28T20:02:20.429000Z POSMV $INHDT,27.1,T*11
2024-05-28T20:02:21.329000Z POSMV $PASHR,200221.263,27.13,T,-0.74,0.42,0.13,0.020,0.020,0.011,2,1*0A
2024-05-28T20:02:21.409000Z POSMV $INGGA,200221.263,4131.44343,N,07040.32946,W,2,29,1.1,-3.12,M,,,7,0131*22
2024-05-28T20:02:21.428000Z POSMV $INHDT,27.1,T*11
2024-05-28T20:02:22.329000Z POSMV $PASHR,200222.263,27.13,T,-0.77,0.42,0.13,0.020,0.020,0.011,2,1*0A
2024-05-28T20:02:22.409000Z POSMV $INGGA,200222.263,4131.44344,N,07040.32946,W,2,29,1.1,-3.12,M,,,7,0131*26
2024-05-28T20:02:22.429000Z POSMV $INHDT,27.1,T*11
2024-05-28T20:02:23.329000Z POSMV $PASHR,200223.263,27.13,T,-0.80,0.43,0.13,0.020,0.020,0.011,2,1*02
2024-05-28T20:02:23.410000Z POSMV $INGGA,200223.263,4131.44344,N,07040.32947,W,2,29,1.1,-3.12,M,,,7,0131*26
2024-05-28T20:02:23.429000Z POSMV $INHDT,27.1,T*11
2024-05-28T20:02:24.329000Z POSMV $PASHR,200224.263,27.12,T,-0.81,0.43,0.14,0.020,0.020,0.011,2,1*02
2024-05-28T20:02:24.410000Z POSMV $INGGA,200224.263,4131.44345,N,07040.32947,W,2,29,1.1,-3.12,M,,,4,0131*23
2024-05-28T20:02:24.429000Z POSMV $INHDT,27.1,T*11
2024-05-28T20:02:25.330000Z POSMV $PASHR,200225.263,27.11,T,-0.81,0.41,0.13,0.020,0.020,0.011,2,1*05
2024-05-28T20:02:25.410000Z POSMV $INGGA,200225.263,4131.44345,N,07040.32948,W,2,29,1.1,-3.13,M,,,5,0131*2D
2024-05-28T20:02:25.429000Z POSMV $INHDT,27.1,T*11
2024-05-28T20:02:26.329000Z POSMV $PASHR,200226.263,27.11,T,-0.80,0.40,0.13,0.020,0.020,0.011,2,1*06
2024-05-28T20:02:26.409000Z POSMV $INGGA,200226.263,4131.44345,N,07040.32949,W,2,29,1.1,-3.14,M,,,6,0131*2B
2024-05-28T20:02:26.429000Z POSMV $INHDT,27.1,T*11
2024-05-28T20:02:27.329000Z POSMV $PASHR,200227.263,27.12,T,-0.77,0.42,0.13,0.020,0.020,0.011,2,1*0E
2024-05-28T20:02:27.410000Z POSMV $INGGA,200227.263,4131.44346,N,07040.32949,W,2,29,1.1,-3.14,M,,,7,0131*28
2024-05-28T20:02:27.429000Z POSMV $INHDT,27.1,T*11
2024-05-28T20:02:28.329000Z POSMV $PASHR,200228.263,27.12,T,-0.74,0.43,0.13,0.020,0.020,0.011,2,1*03
2024-05-28T20:02:28.410000Z POSMV $INGGA,200228.263,4131.44346,N,07040.32950,W,2,29,1.1,-3.14,M,,,7,0131*2F
2024-05-28T20:02:28.429000Z POSMV $INHDT,27.1,T*11
2024-05-28T20:02:29.329000Z POSMV $PASHR,200229.263,27.13,T,-0.73,0.43,0.13,0.020,0.020,0.011,2,1*04
2024-05-28T20:02:29.410000Z POSMV $INGGA,200229.263,4131.44347,N,07040.32951,W,2,29,1.1,-3.14,M,,,7,0131*2E
2024-05-28T20:02:29.429000Z POSMV $INHDT,27.1,T*11
2024-05-28T20:02:30.330000Z POSMV $PASHR,200230.263,27.14,T,-0.75,0.42,0.13,0.020,0.020,0.011,2,1*0C
2024-05-28T20:02:30.410000Z POSMV $INGGA,200230.263,4131.44347,N,07040.32951,W,2,29,1.1,-3.14,M,,,4,0131*25
2024-05-28T20:02:30.430000Z POSMV $INHDT,27.1,T*11
2024-05-28T20:02:31.329000Z POSMV $PASHR,200231.263,27.15,T,-0.78,0.41,0.13,0.020,0.020,0.011,2,1*02
2024-05-28T20:02:31.409000Z POSMV $INGGA,200231.263,4131.44347,N,07040.32952,W,2,29,1.1,-3.14,M,,,5,0131*26
2024-05-28T20:02:31.429000Z POSMV $INHDT,27.1,T*11
2024-05-28T20:02:32.329000Z POSMV $PASHR,200232.263,27.16,T,-0.81,0.41,0.13,0.020,0.020,0.011,2,1*04
2024-05-28T20:02:32.410000Z POSMV $INGGA,200232.263,4131.44347,N,07040.32952,W,2,29,1.1,-3.14,M,,,6,0131*26
2024-05-28T20:02:32.429000Z POSMV $INHDT,27.2,T*12
2024-05-28T20:02:33.329000Z POSMV $PASHR,200233.263,27.15,T,-0.81,0.42,0.13,0.020,0.020,0.011,2,1*05
2024-05-28T20:02:33.410000Z POSMV $INGGA,200233.263,4131.44348,N,07040.32953,W,2,29,1.1,-3.14,M,,,7,0131*28
2024-05-28T20:02:33.429000Z POSMV $INHDT,27.2,T*12
2024-05-28T20:02:34.330000Z POSMV $PASHR,200234.263,27.14,T,-0.81,0.44,0.13,0.020,0.020,0.011,2,1*05
2024-05-28T20:02:34.410000Z POSMV $INGGA,200234.263,4131.44348,N,07040.32953,W,2,29,1.1,-3.15,M,,,7,0131*2E
2024-05-28T20:02:34.429000Z POSMV $INHDT,27.1,T*11
2024-05-28T20:02:35.330000Z POSMV $PASHR,200235.263,27.14,T,-0.79,0.44,0.13,0.020,0.020,0.011,2,1*03
2024-05-28T20:02:35.410000Z POSMV $INGGA,200235.263,4131.44348,N,07040.32954,W,2,29,1.1,-3.15,M,,,7,0131*28
2024-05-28T20:02:35.430000Z POSMV $INHDT,27.1,T*11
2024-05-28T20:02:36.330000Z POSMV $PASHR,200236.263,27.15,T,-0.78,0.43,0.13,0.020,0.020,0.011,2,1*07
2024-05-28T20:02:36.411000Z POSMV $INGGA,200236.263,4131.44348,N,07040.32955,W,2,29,1.1,-3.15,M,,,4,0131*29
2024-05-28T20:02:36.429000Z POSMV $INHDT,27.1,T*11
2024-05-28T20:02:37.329000Z POSMV $PASHR,200237.263,27.14,T,-0.77,0.41,0.13,0.020,0.020,0.011,2,1*0A
2024-05-28T20:02:37.410000Z POSMV $INGGA,200237.263,4131.44348,N,07040.32955,W,2,29,1.1,-3.15,M,,,5,0131*29
2024-05-28T20:02:37.429000Z POSMV $INHDT,27.1,T*11
2024-05-28T20:02:38.329000Z POSMV $PASHR,200238.263,27.15,T,-0.76,0.41,0.13,0.020,0.020,0.011,2,1*05
2024-05-28T20:02:38.410000Z POSMV $INGGA,200238.263,4131.44349,N,07040.32956,W,2,29,1.1,-3.15,M,,,6,0131*27
2024-05-28T20:02:38.429000Z POSMV $INHDT,27.1,T*11
2024-05-28T20:02:39.330000Z POSMV $PASHR,200239.263,27.14,T,-0.76,0.43,0.13,0.020,0.020,0.011,2,1*07
2024-05-28T20:02:39.410000Z POSMV $INGGA,200239.263,4131.44349,N,07040.32956,W,2,29,1.1,-3.15,M,,,7,0131*27
2024-05-28T20:02:39.430000Z POSMV $INHDT,27.1,T*11
2024-05-28T20:02:40.330000Z POSMV $PASHR,200240.263,27.14,T,-0.76,0.44,0.13,0.020,0.020,0.011,2,1*0E
2024-05-28T20:02:40.410000Z POSMV $INGGA,200240.263,4131.44350,N,07040.32957,W,2,29,1.1,-3.15,M,,,7,0131*20
2024-05-28T20:02:40.430000Z POSMV $INHDT,27.1,T*11
2024-05-28T20:02:41.330000Z POSMV $PASHR,200241.263,27.13,T,-0.75,0.43,0.13,0.020,0.020,0.011,2,1*0C
2024-05-28T20:02:41.411000Z POSMV $INGGA,200241.263,4131.44350,N,07040.32958,W,2,29,1.1,-3.16,M,,,7,0131*2D
2024-05-28T20:02:41.430000Z POSMV $INHDT,27.1,T*11
2024-05-28T20:02:42.330000Z POSMV $PASHR,200242.264,27.13,T,-0.75,0.41,0.12,0.020,0.020,0.011,2,1*0B
2024-05-28T20:02:42.410000Z POSMV $INGGA,200242.264,4131.44351,N,07040.32958,W,2,29,1.1,-3.17,M,,,4,0131*2A
2024-05-28T20:02:42.429000Z POSMV $INHDT,27.1,T*11
2024-05-28T20:02:43.330000Z POSMV $PASHR,200243.264,27.13,T,-0.74,0.41,0.12,0.020,0.020,0.011,2,1*0B
2024-05-28T20:02:43.410000Z POSMV $INGGA,200243.264,4131.44351,N,07040.32959,W,2,29,1.1,-3.17,M,,,5,0131*2B
2024-05-28T20:02:43.429000Z POSMV $INHDT,27.1,T*11
2024-05-28T20:02:44.330000Z POSMV $PASHR,200244.264,27.12,T,-0.73,0.42,0.12,0.020,0.020,0.011,2,1*09
2024-05-28T20:02:44.410000Z POSMV $INGGA,200244.264,4131.44352,N,07040.32959,W,2,29,1.1,-3.17,M,,,6,0131*2C
2024-05-28T20:02:44.430000Z POSMV $INHDT,27.1,T*11
2024-05-28T20:02:45.330000Z POSMV $PASHR,200245.264,27.11,T,-0.72,0.44,0.13,0.020,0.020,0.011,2,1*0D
2024-05-28T20:02:45.411000Z POSMV $INGGA,200245.264,4131.44352,N,07040.32960,W,2,29,1.1,-3.16,M,,,7,0131*27
2024-05-28T20:02:45.430000Z POSMV $INHDT,27.1,T*11
2024-05-28T20:02:46.330000Z POSMV $PASHR,200246.264,27.10,T,-0.73,0.44,0.13,0.020,0.020,0.011,2,1*0E
2024-05-28T20:02:46.411000Z POSMV $INGGA,200246.264,4131.44352,N,07040.32960,W,2,29,1.1,-3.16,M,,,7,0131*24
2024-05-28T20:02:46.430000Z POSMV $INHDT,27.1,T*11
2024-05-28T20:02:47.330000Z POSMV $PASHR,200247.264,27.10,T,-0.74,0.43,0.13,0.020,0.020,0.011,2,1*0F
2024-05-28T20:02:47.410000Z POSMV $INGGA,200247.264,4131.44352,N,07040.32961,W,2,29,1.1,-3.17,M,,,7,0131*25
2024-05-28T20:02:47.430000Z POSMV $INHDT,27.1,T*11
2024-05-28T20:02:48.330000Z POSMV $PASHR,200248.264,27.10,T,-0.78,0.41,0.12,0.020,0.020,0.011,2,1*0F
2024-05-28T20:02:48.410000Z POSMV $INGGA,200248.264,4131.44352,N,07040.32961,W,2,29,1.1,-3.17,M,,,4,0131*29
2024-05-28T20:02:48.430000Z POSMV $INHDT,27.1,T*11
2024-05-28T20:02:49.330000Z POSMV $PASHR,200249.264,27.11,T,-0.79,0.41,0.12,0.020,0.020,0.011,2,1*0E
2024-05-28T20:02:49.411000Z POSMV $INGGA,200249.264,4131.44352,N,07040.32962,W,2,29,1.1,-3.17,M,,,5,0131*2A
2024-05-28T20:02:49.430000Z POSMV $INHDT,27.1,T*11
2024-05-28T20:02:50.330000Z POSMV $PASHR,200250.264,27.11,T,-0.78,0.43,0.13,0.020,0.020,0.011,2,1*04
2024-05-28T20:02:50.411000Z POSMV $INGGA,200250.264,4131.44352,N,07040.32963,W,2,29,1.1,-3.17,M,,,6,0131*20
2024-05-28T20:02:50.430000Z POSMV $INHDT,27.1,T*11
2024-05-28T20:02:51.330000Z POSMV $PASHR,200251.264,27.11,T,-0.77,0.43,0.13,0.020,0.020,0.011,2,1*0A
2024-05-28T20:02:51.411000Z POSMV $INGGA,200251.264,4131.44352,N,07040.32964,W,2,29,1.1,-3.18,M,,,7,0131*28
2024-05-28T20:02:51.430000Z POSMV $INHDT,27.1,T*11
2024-05-28T20:02:52.331000Z POSMV $PASHR,200252.264,27.11,T,-0.75,0.43,0.13,0.020,0.020,0.011,2,1*0B
2024-05-28T20:02:52.411000Z POSMV $INGGA,200252.264,4131.44351,N,07040.32964,W,2,29,1.1,-3.18,M,,,7,0131*28
2024-05-28T20:02:52.431000Z POSMV $INHDT,27.1,T*11
2024-05-28T20:02:53.330000Z POSMV $PASHR,200253.264,27.11,T,-0.74,0.42,0.13,0.020,0.020,0.011,2,1*0A
2024-05-28T20:02:53.410000Z POSMV $INGGA,200253.264,4131.44351,N,07040.32965,W,2,29,1.1,-3.18,M,,,7,0131*28
2024-05-28T20:02:53.430000Z POSMV $INHDT,27.1,T*11
2024-05-28T20:02:54.330000Z POSMV $PASHR,200254.264,27.11,T,-0.75,0.42,0.13,0.020,0.020,0.011,2,1*0C
2024-05-28T20:02:54.411000Z POSMV $INGGA,200254.264,4131.44350,N,07040.32966,W,2,29,1.1,-3.18,M,,,4,0131*2E
2024-05-28T20:02:54.430000Z POSMV $INHDT,27.1,T*11
2024-05-28T20:02:55.330000Z POSMV $PASHR,200255.264,27.13,T,-0.78,0.43,0.13,0.020,0.020,0.011,2,1*03
2024-05-28T20:02:55.411000Z POSMV $INGGA,200255.264,4131.44350,N,07040.32966,W,2,29,1.1,-3.18,M,,,5,0131*2E
2024-05-28T20:02:55.430000Z POSMV $INHDT,27.1,T*11
2024-05-28T20:02:56.331000Z POSMV $PASHR,200256.264,27.13,T,-0.79,0.44,0.13,0.020,0.020,0.011,2,1*06
2024-05-28T20:02:56.411000Z POSMV $INGGA,200256.264,4131.44349,N,07040.32967,W,2,29,1.1,-3.18,M,,,6,0131*27
2024-05-28T20:02:56.430000Z POSMV $INHDT,27.1,T*11
2024-05-28T20:02:57.331000Z POSMV $PASHR,200257.264,27.12,T,-0.80,0.44,0.13,0.020,0.020,0.011,2,1*00
2024-05-28T20:02:57.411000Z POSMV $INGGA,200257.264,4131.44348,N,07040.32966,W,2,29,1.1,-3.18,M,,,7,0131*27
2024-05-28T20:02:57.431000Z POSMV $INHDT,27.1,T*11
2024-05-28T20:02:58.331000Z POSMV $PASHR,200258.264,27.12,T,-0.80,0.43,0.13,0.020,0.020,0.011,2,1*08
2024-05-28T20:02:58.411000Z POSMV $INGGA,200258.264,4131.44348,N,07040.32967,W,2,29,1.1,-3.18,M,,,7,0131*29
2024-05-28T20:02:58.430000Z POSMV $INHDT,27.1,T*11
2024-05-28T20:02:59.330000Z POSMV $PASHR,200259.264,27.12,T,-0.81,0.42,0.13,0.020,0.020,0.011,2,1*09
2024-05-28T20:02:59.411000Z POSMV $INGGA,200259.264,4131.44348,N,07040.32967,W,2,29,1.1,-3.18,M,,,7,0131*28
2024-05-28T20:02:59.430000Z POSMV $INHDT,27.1,T*11
2024-05-28T20:03:00.330000Z POSMV $PASHR,200300.264,27.12,T,-0.81,0.42,0.13,0.020,0.020,0.011,2,1*04
2024-05-28T20:03:00.411000Z POSMV $INGGA,200300.264,4131.44348,N,07040.32968,W,2,29,1.1,-3.18,M,,,4,0131*29
2024-05-28T20:03:00.430000Z POSMV $INHDT,27.1,T*11
2024-05-28T20:03:01.331000Z POSMV $PASHR,200301.264,27.11,T,-0.82,0.42,0.13,0.020,0.020,0.011,2,1*05
2024-05-28T20:03:01.411000Z POSMV $INGGA,200301.264,4131.44347,N,07040.32967,W,2,29,1.1,-3.19,M,,,5,0131*28
2024-05-28T20:03:01.431000Z POSMV $INHDT,27.1,T*11
2024-05-28T20:03:02.331000Z POSMV $PASHR,200302.264,27.10,T,-0.81,0.42,0.13,0.020,0.020,0.011,2,1*04
2024-05-28T20:03:02.411000Z POSMV $INGGA,200302.264,4131.44347,N,07040.32968,W,2,29,1.1,-3.19,M,,,6,0131*27
2024-05-28T20:03:02.431000Z POSMV $INHDT,27.1,T*11
2024-05-28T20:03:03.331000Z POSMV $PASHR,200303.264,27.08,T,-0.80,0.43,0.13,0.020,0.020,0.011,2,1*0C
2024-05-28T20:03:03.412000Z POSMV $INGGA,200303.264,4131.44347,N,07040.32968,W,2,29,1.1,-3.19,M,,,7,0131*27
2024-05-28T20:03:03.431000Z POSMV $INHDT,27.1,T*11
2024-05-28T20:03:04.330000Z POSMV $PASHR,200304.265,27.08,T,-0.81,0.43,0.13,0.020,0.020,0.011,2,1*0B
2024-05-28T20:03:04.411000Z POSMV $INGGA,200304.265,4131.44346,N,07040.32968,W,2,29,1.1,-3.19,M,,,7,0131*20
2024-05-28T20:03:04.430000Z POSMV $INHDT,27.1,T*11
2024-05-28T20:03:05.331000Z POSMV $PASHR,200305.265,27.07,T,-0.81,0.43,0.13,0.020,0.020,0.011,2,1*05
2024-05-28T20:03:05.411000Z POSMV $INGGA,200305.265,4131.44346,N,07040.32967,W,2,29,1.1,-3.19,M,,,7,0131*2E
2024-05-28T20:03:05.431000Z POSMV $INHDT,27.1,T*11
2024-05-28T20:03:06.331000Z POSMV $PASHR,200306.265,27.06,T,-0.81,0.42,0.13,0.020,0.020,0.011,2,1*06
2024-05-28T20:03:06.412000Z POSMV $INGGA,200306.265,4131.44346,N,07040.32967,W,2,29,1.1,-3.19,M,,,4,0131*2E
2024-05-28T20:03:06.431000Z POSMV $INHDT,27.1,T*11
2024-05-28T20:03:07.331000Z POSMV $PASHR,200307.265,27.04,T,-0.79,0.42,0.13,0.020,0.020,0.011,2,1*02
2024-05-28T20:03:07.412000Z POSMV $INGGA,200307.265,4131.44345,N,07040.32966,W,2,29,1.1,-3.19,M,,,5,0131*2C
2024-05-28T20:03:07.431000Z POSMV $INHDT,27.0,T*10
2024-05-28T20:03:08.331000Z POSMV $PASHR,200308.265,27.02,T,-0.78,0.43,0.13,0.020,0.020,0.011,2,1*0B
2024-05-28T20:03:08.412000Z POSMV $INGGA,200308.265,4131.44345,N,07040.32965,W,2,29,1.1,-3.19,M,,,6,0131*23
2024-05-28T20:03:08.431000Z POSMV $INHDT,27.0,T*10
2024-05-28T20:03:09.330000Z POSMV $PASHR,200309.265,27.01,T,-0.77,0.43,0.13,0.020,0.020,0.011,2,1*06
2024-05-28T20:03:09.411000Z POSMV $INGGA,200309.265,4131.44345,N,07040.32964,W,2,29,1.1,-3.19,M,,,7,0131*22
2024-05-28T20:03:09.430000Z POSMV $INHDT,27.0,T*10
2024-05-28T20:03:10.331000Z POSMV $PASHR,200310.265,27.00,T,-0.79,0.42,0.13,0.020,0.020,0.011,2,1*00
2024-05-28T20:03:10.411000Z POSMV $INGGA,200310.265,4131.44345,N,07040.32964,W,2,29,1.1,-3.20,M,,,7,0131*20
2024-05-28T20:03:10.431000Z POSMV $INHDT,27.0,T*10
2024-05-28T20:03:11.331000Z POSMV $PASHR,200311.265,26.99,T,-0.81,0.42,0.13,0.020,0.020,0.011,2,1*07
2024-05-28T20:03:11.412000Z POSMV $INGGA,200311.265,4131.44344,N,07040.32963,W,2,29,1.1,-3.20,M,,,7,0131*27
2024-05-28T20:03:11.431000Z POSMV $INHDT,27.0,T*10
2024-05-28T20:03:12.331000Z POSMV $PASHR,200312.265,26.98,T,-0.82,0.42,0.13,0.020,0.020,0.011,2,1*06
2024-05-28T20:03:12.412000Z POSMV $INGGA,200312.265,4131.44344,N,07040.32962,W,2,29,1.1,-3.20,M,,,4,0131*26
2024-05-28T20:03:12.431000Z POSMV $INHDT,27.0,T*10
2024-05-28T20:03:13.331000Z POSMV $PASHR,200313.265,26.97,T,-0.81,0.42,0.13,0.020,0.020,0.011,2,1*0B
2024-05-28T20:03:13.412000Z POSMV $INGGA,200313.265,4131.44344,N,07040.32961,W,2,29,1.1,-3.20,M,,,5,0131*25
2024-05-28T20:03:13.431000Z POSMV $INHDT,27.0,T*10
2024-05-28T20:03:14.332000Z POSMV $PASHR,200314.265,26.96,T,-0.80,0.42,0.13,0.020,0.020,0.011,2,1*0C
2024-05-28T20:03:14.412000Z POSMV $INGGA,200314.265,4131.44343,N,07040.32960,W,2,29,1.1,-3.20,M,,,6,0131*27
2024-05-28T20:03:14.432000Z POSMV $INHDT,27.0,T*10
2024-05-28T20:03:15.331000Z POSMV $PASHR,200315.265,26.96,T,-0.79,0.42,0.13,0.020,0.020,0.011,2,1*0B
2024-05-28T20:03:15.411000Z POSMV $INGGA,200315.265,4131.44343,N,07040.32958,W,2,29,1.1,-3.21,M,,,7,0131*2D
2024-05-28T20:03:15.431000Z POSMV $INHDT,27.0,T*10
2024-05-28T20:03:16.331000Z POSMV $PASHR,200316.265,26.95,T,-0.79,0.41,0.13,0.020,0.020,0.011,2,1*08
2024-05-28T20:03:16.412000Z POSMV $INGGA,200316.265,4131.44343,N,07040.32957,W,2,29,1.1,-3.21,M,,,7,0131*21
2024-05-28T20:03:16.431000Z POSMV $INHDT,26.9,T*18
2024-05-28T20:03:17.331000Z POSMV $PASHR,200317.265,26.94,T,-0.79,0.40,0.13,0.020,0.020,0.011,2,1*09
2024-05-28T20:03:17.412000Z POSMV $INGGA,200317.265,4131.44343,N,07040.32956,W,2,29,1.1,-3.21,M,,,7,0131*21
2024-05-28T20:03:17.431000Z POSMV $INHDT,26.9,T*18
2024-05-28T20:03:18.332000Z POSMV $PASHR,200318.265,26.94,T,-0.79,0.42,0.13,0.020,0.020,0.011,2,1*04
2024-05-28T20:03:18.412000Z POSMV $INGGA,200318.265,4131.44343,N,07040.32954,W,2,29,1.1,-3.21,M,,,4,0131*2F
2024-05-28T20:03:18.431000Z POSMV $INHDT,26.9,T*18
2024-05-28T20:03:19.332000Z POSMV $PASHR,200319.265,26.93,T,-0.78,0.43,0.13,0.020,0.020,0.011,2,1*02
2024-05-28T20:03:19.412000Z POSMV $INGGA,200319.265,4131.44343,N,07040.32953,W,2,29,1.1,-3.21,M,,,5,0131*28
2024-05-28T20:03:19.432000Z POSMV $INHDT,26.9,T*18
2024-05-28T20:03:20.332000Z POSMV $PASHR,200320.265,26.92,T,-0.78,0.43,0.14,0.020,0.020,0.011,2,1*0E
2024-05-28T20:03:20.412000Z POSMV $INGGA,200320.265,4131.44343,N,07040.32951,W,2,29,1.1,-3.21,M,,,6,0131*23
2024-05-28T20:03:20.431000Z POSMV $INHDT,26.9,T*18
2024-05-28T20:03:21.331000Z POSMV $PASHR,200321.265,26.92,T,-0.78,0.42,0.13,0.020,0.020,0.011,2,1*09
2024-05-28T20:03:21.412000Z POSMV $INGGA,200321.265,4131.44343,N,07040.32949,W,2,29,1.1,-3.21,M,,,7,0131*2A
2024-05-28T20:03:21.431000Z POSMV $INHDT,26.9,T*18
2024-05-28T20:03:22.332000Z POSMV $PASHR,200322.265,26.91,T,-0.77,0.41,0.13,0.020,0.020,0.011,2,1*05
2024-05-28T20:03:22.412000Z POSMV $INGGA,200322.265,4131.44343,N,07040.32948,W,2,29,1.1,-3.22,M,,,7,0131*2B
2024-05-28T20:03:22.431000Z POSMV $INHDT,26.9,T*18
2024-05-28T20:03:23.332000Z POSMV $PASHR,200323.265,26.90,T,-0.78,0.41,0.13,0.020,0.020,0.011,2,1*0A
2024-05-28T20:03:23.412000Z POSMV $INGGA,200323.265,4131.44343,N,07040.32946,W,2,29,1.1,-3.22,M,,,7,0131*24
2024-05-28T20:03:23.432000Z POSMV $INHDT,26.9,T*18
2024-05-28T20:03:24.332000Z POSMV $PASHR,200324.265,26.90,T,-0.79,0.42,0.13,0.020,0.020,0.011,2,1*0F
2024-05-28T20:03:24.413000Z POSMV $INGGA,200324.265,4131.44343,N,07040.32945,W,2,29,1.1,-3.22,M,,,4,0131*23
2024-05-28T20:03:24.432000Z POSMV $INHDT,26.9,T*18
2024-05-28T20:03:25.332000Z POSMV $PASHR,200325.265,26.89,T,-0.79,0.43,0.13,0.020,0.020,0.011,2,1*07
2024-05-28T20:03:25.412000Z POSMV $INGGA,200325.265,4131.44344,N,07040.32943,W,2,29,1.1,-3.22,M,,,5,0131*22
2024-05-28T20:03:25.431000Z POSMV $INHDT,26.9,T*18
2024-05-28T20:03:26.331000Z POSMV $PASHR,200326.265,26.89,T,-0.80,0.43,0.13,0.020,0.020,0.011,2,1*02
2024-05-28T20:03:26.412000Z POSMV $INGGA,200326.265,4131.44344,N,07040.32942,W,2,29,1.1,-3.22,M,,,6,0131*23
2024-05-28T20:03:26.431000Z POSMV $INHDT,26.9,T*18
2024-05-28T20:03:27.331000Z POSMV $PASHR,200327.266,26.89,T,-0.79,0.42,0.13,0.020,0.020,0.011,2,1*07
2024-05-28T20:03:27.412000Z POSMV $INGGA,200327.266,4131.44344,N,07040.32940,W,2,29,1.1,-3.23,M,,,7,0131*23
2024-05-28T20:03:27.432000Z POSMV $INHDT,26.9,T*18
2024-05-28T20:03:28.332000Z POSMV $PASHR,200328.266,26.89,T,-0.78,0.40,0.13,0.020,0.020,0.011,2,1*0B
2024-05-28T20:03:28.412000Z POSMV $INGGA,200328.266,4131.44344,N,07040.32938,W,2,29,1.1,-3.23,M,,,7,0131*23
2024-05-28T20:03:28.432000Z POSMV $INHDT,26.9,T*18
2024-05-28T20:03:29.332000Z POSMV $PASHR,200329.266,26.89,T,-0.77,0.40,0.13,0.020,0.020,0.011,2,1*05
2024-05-28T20:03:29.413000Z POSMV $INGGA,200329.266,4131.44344,N,07040.32937,W,2,29,1.1,-3.23,M,,,7,0131*2D
2024-05-28T20:03:29.432000Z POSMV $INHDT,26.9,T*18
2024-05-28T20:03:30.332000Z POSMV $PASHR,200330.266,26.89,T,-0.78,0.41,0.13,0.020,0.020,0.011,2,1*03
2024-05-28T20:03:30.413000Z POSMV $INGGA,200330.266,4131.44344,N,07040.32935,W,2,29,1.1,-3.23,M,,,4,0131*24
2024-05-28T20:03:30.432000Z POSMV $INHDT,26.9,T*18
2024-05-28T20:03:31.331000Z POSMV $PASHR,200331.266,26.89,T,-0.79,0.43,0.13,0.020,0.020,0.011,2,1*01
2024-05-28T20:03:31.412000Z POSMV $INGGA,200331.266,4131.44344,N,07040.32934,W,2,29,1.1,-3.23,M,,,5,0131*25
2024-05-28T20:03:31.431000Z POSMV $INHDT,26.9,T*18
2024-05-28T20:03:32.332000Z POSMV $PASHR,200332.266,26.89,T,-0.81,0.44,0.13,0.020,0.020,0.011,2,1*02
2024-05-28T20:03:32.412000Z POSMV $INGGA,200332.266,4131.44344,N,07040.32932,W,2,29,1.1,-3.23,M,,,6,0131*23
2024-05-28T20:03:32.432000Z POSMV $INHDT,26.9,T*18
2024-05-28T20:03:33.332000Z POSMV $PASHR,200333.266,26.88,T,-0.81,0.43,0.13,0.020,0.020,0.011,2,1*05
2024-05-28T20:03:33.413000Z POSMV $INGGA,200333.266,4131.44344,N,07040.32931,W,2,29,1.1,-3.24,M,,,7,0131*27
2024-05-28T20:03:33.432000Z POSMV $INHDT,26.9,T*18
2024-05-28T20:03:34.332000Z POSMV $PASHR,200334.266,26.88,T,-0.80,0.42,0.13,0.020,0.020,0.011,2,1*02
2024-05-28T20:03:34.413000Z POSMV $INGGA,200334.266,4131.44344,N,07040.32931,W,2,29,1.1,-3.24,M,,,7,0131*20
2024-05-28T20:03:34.432000Z POSMV $INHDT,26.9,T*18
2024-05-28T20:03:35.332000Z POSMV $PASHR,200335.266,26.88,T,-0.79,0.41,0.13,0.020,0.020,0.011,2,1*06
2024-05-28T20:03:35.413000Z POSMV $INGGA,200335.266,4131.44344,N,07040.32930,W,2,29,1.1,-3.25,M,,,7,0131*21
2024-05-28T20:03:35.432000Z POSMV $INHDT,26.9,T*18
2024-05-28T20:03:36.333000Z POSMV $PASHR,200336.266,26.88,T,-0.78,0.41,0.13,0.020,0.020,0.011,2,1*04
2024-05-28T20:03:36.413000Z POSMV $INGGA,200336.266,4131.44344,N,07040.32929,W,2,29,1.1,-3.25,M,,,4,0131*29
2024-05-28T20:03:36.433000Z POSMV $INHDT,26.9,T*18
2024-05-28T20:03:37.332000Z POSMV $PASHR,200337.266,26.88,T,-0.79,0.42,0.13,0.020,0.020,0.011,2,1*07
2024-05-28T20:03:37.412000Z POSMV $INGGA,200337.266,4131.44344,N,07040.32928,W,2,29,1.1,-3.24,M,,,5,0131*29
2024-05-28T20:03:37.432000Z POSMV $INHDT,26.9,T*18
2024-05-28T20:03:38.332000Z POSMV $PASHR,200338.266,26.89,T,-0.81,0.44,0.13,0.020,0.020,0.011,2,1*08
2024-05-28T20:03:38.413000Z POSMV $INGGA,200338.266,4131.44344,N,07040.32927,W,2,29,1.1,-3.24,M,,,6,0131*2A
2024-05-28T20:03:38.432000Z POSMV $INHDT,26.9,T*18
2024-05-28T20:03:39.332000Z POSMV $PASHR,200339.266,26.90,T,-0.83,0.44,0.13,0.020,0.020,0.011,2,1*03
2024-05-28T20:03:39.413000Z POSMV $INGGA,200339.266,4131.44344,N,07040.32927,W,2,29,1.1,-3.25,M,,,7,0131*2B
2024-05-28T20:03:39.432000Z POSMV $INHDT,26.9,T*18
2024-05-28T20:03:40.333000Z POSMV $PASHR,200340.266,26.91,T,-0.84,0.43,0.13,0.020,0.020,0.011,2,1*0C
2024-05-28T20:03:40.413000Z POSMV $INGGA,200340.266,4131.44344,N,07040.32926,W,2,29,1.1,-3.25,M,,,7,0131*24
2024-05-28T20:03:40.432000Z POSMV $INHDT,26.9,T*18
2024-05-28T20:03:41.333000Z POSMV $PASHR,200341.266,26.91,T,-0.83,0.42,0.13,0.020,0.020,0.011,2,1*0B
2024-05-28T20:03:41.413000Z POSMV $INGGA,200341.266,4131.44344,N,07040.32926,W,2,29,1.1,-3.26,M,,,7,0131*26
2024-05-28T20:03:41.433000Z POSMV $INHDT,26.9,T*18
2024-05-28T20:03:42.332000Z POSMV $PASHR,200342.266,26.92,T,-0.81,0.41,0.13,0.020,0.020,0.011,2,1*0A
2024-05-28T20:03:42.413000Z POSMV $INGGA,200342.266,4131.44344,N,07040.32926,W,2,29,1.1,-3.26,M,,,4,0131*26
2024-05-28T20:03:42.432000Z POSMV $INHDT,26.9,T*18
2024-05-28T20:03:43.332000Z POSMV $PASHR,200343.266,26.92,T,-0.80,0.42,0.13,0.020,0.020,0.011,2,1*09
2024-05-28T20:03:43.413000Z POSMV $INGGA,200343.266,4131.44344,N,07040.32926,W,2,29,1.1,-3.26,M,,,5,0131*26
2024-05-28T20:03:43.432000Z POSMV $INHDT,26.9,T*18
2024-05-28T20:03:44.332000Z POSMV $PASHR,200344.266,26.92,T,-0.79,0.43,0.13,0.020,0.020,0.011,2,1*09
2024-05-28T20:03:44.413000Z POSMV $INGGA,200344.266,4131.44344,N,07040.32926,W,2,29,1.1,-3.26,M,,,6,0131*22
2024-05-28T20:03:44.432000Z POSMV $INHDT,26.9,T*18
2024-05-28T20:03:45.333000Z POSMV $PASHR,200345.266,26.93,T,-0.80,0.44,0.13,0.020,0.020,0.011,2,1*08
2024-05-28T20:03:45.413000Z POSMV $INGGA,200345.266,4131.44344,N,07040.32926,W,2,29,1.1,-3.26,M,,,7,0131*22
2024-05-28T20:03:45.433000Z POSMV $INHDT,26.9,T*18
2024-05-28T20:03:46.333000Z POSMV $PASHR,200346.266,26.93,T,-0.81,0.43,0.13,0.020,0.020,0.011,2,1*0D
2024-05-28T20:03:46.414000Z POSMV $INGGA,200346.266,4131.44344,N,07040.32927,W,2,29,1.1,-3.27,M,,,7,0131*21
2024-05-28T20:03:46.433000Z POSMV $INHDT,26.9,T*18
2024-05-28T20:03:47.332000Z POSMV $PASHR,200347.266,26.92,T,-0.81,0.42,0.12,0.020,0.020,0.011,2,1*0D
2024-05-28T20:03:47.413000Z POSMV $INGGA,200347.266,4131.44344,N,07040.32928,W,2,29,1.1,-3.27,M,,,7,0131*2F
2024-05-28T20:03:47.432000Z POSMV $INHDT,26.9,T*18
2024-05-28T20:03:48.332000Z POSMV $PASHR,200348.266,26.92,T,-0.81,0.43,0.13,0.020,0.020,0.011,2,1*02
2024-05-28T20:03:48.413000Z POSMV $INGGA,200348.266,4131.44344,N,07040.32928,W,2,29,1.1,-3.27,M,,,4,0131*23
2024-05-28T20:03:48.432000Z POSMV $INHDT,26.9,T*18
2024-05-28T20:03:49.333000Z POSMV $PASHR,200349.266,26.92,T,-0.80,0.43,0.13,0.020,0.020,0.011,2,1*02
2024-05-28T20:03:49.413000Z POSMV $INGGA,200349.266,4131.44344,N,07040.32929,W,2,29,1.1,-3.27,M,,,5,0131*22
2024-05-28T20:03:49.432000Z POSMV $INHDT,26.9,T*18
2024-05-28T20:03:50.333000Z POSMV $PASHR,200350.267,26.93,T,-0.81,0.43,0.13,0.020,0.020,0.011,2,1*0B
