2024-05-28T20:00:00.281000Z CNAV $GPZDA,200000.00,28,05,2024,00,00*6F
2024-05-28T20:00:00.357000Z CNAV $GPRMC,200000.00,A,4131.440987,N,07040.337007,W,0.01,63.4,280524,,,D*40
2024-05-28T20:00:00.395000Z CNAV $GPVTG,63.4,T,,M,0.01,N,0.02,K,D*3A
2024-05-28T20:00:00.487000Z CNAV $GPGGA,200000.00,4131.440987,N,07040.337007,W,2,17,0.9,18.281,M,-30.109,M,26.0,0000*7C
2024-05-28T20:00:01.297000Z CNAV $GPZDA,200001.00,28,05,2024,00,00*6E
2024-05-28T20:00:01.371000Z CNAV $GPRMC,200001.00,A,4131.440994,N,07040.337013,W,0.01,0.0,280524,,,D*77
2024-05-28T20:00:01.408000Z CNAV $GPVTG,0.0,T,,M,0.01,N,0.02,K,D*0B
2024-05-28T20:00:01.503000Z CNAV $GPGGA,200001.00,4131.440994,N,07040.337013,W,2,17,0.9,18.277,M,-30.109,M,27.0,0000*72
2024-05-28T20:00:02.262000Z CNAV $GPZDA,200002.00,28,05,2024,00,00*6D
2024-05-28T20:00:02.339000Z CNAV $GPRMC,200002.00,A,4131.440995,N,07040.337018,W,0.01,323.1,280524,,,D*7D
2024-05-28T20:00:02.379000Z CNAV $GPVTG,323.1,T,,M,0.01,N,0.02,K,D*08
2024-05-28T20:00:02.470000Z CNAV $GPGGA,200002.00,4131.440995,N,07040.337018,W,2,17,0.9,18.267,M,-30.109,M,28.0,0000*75
2024-05-28T20:00:03.286000Z CNAV $GPZDA,200003.00,28,05,2024,00,00*6C
2024-05-28T20:00:03.364000Z CNAV $GPRMC,200003.00,A,4131.440993,N,07040.337022,W,0.01,284.0,280524,,,D*7E
2024-05-28T20:00:03.403000Z CNAV $GPVTG,284.0,T,,M,0.01,N,0.01,K,D*06
2024-05-28T20:00:03.495000Z CNAV $GPGGA,200003.00,4131.440993,N,07040.337022,W,2,17,0.9,18.276,M,-30.109,M,29.0,0000*7A
2024-05-28T20:00:04.301000Z CNAV $GPZDA,200004.00,28,05,2024,00,00*6B
2024-05-28T20:00:04.378000Z CNAV $GPRMC,200004.00,A,4131.440991,N,07040.337023,W,0.01,270.0,280524,,,D*71
2024-05-28T20:00:04.418000Z CNAV $GPVTG,270.0,T,,M,0.01,N,0.01,K,D*0D
2024-05-28T20:00:04.509000Z CNAV $GPGGA,200004.00,4131.440991,N,07040.337023,W,2,17,0.9,18.279,M,-30.109,M,30.0,0000*79
2024-05-28T20:00:05.274000Z CNAV $GPZDA,200005.00,28,05,2024,00,00*6A
2024-05-28T20:00:05.350000Z CNAV $GPRMC,200005.00,A,4131.440992,N,07040.337016,W,0.00,63.4,280524,,,D*40
2024-05-28T20:00:05.389000Z CNAV $GPVTG,63.4,T,,M,0.00,N,0.01,K,D*38
2024-05-28T20:00:05.480000Z CNAV $GPGGA,200005.00,4131.440992,N,07040.337016,W,2,17,0.9,18.275,M,-30.109,M,31.0,0000*70
2024-05-28T20:00:06.246000Z CNAV $GPZDA,200006.00,28,05,2024,00,00*69
2024-05-28T20:00:06.322000Z CNAV $GPRMC,200006.00,A,4131.440993,N,07040.337006,W,0.01,80.5,280524,,,D*4E
2024-05-28T20:00:06.361000Z CNAV $GPVTG,80.5,T,,M,0.01,N,0.02,K,D*36
2024-05-28T20:00:06.452000Z CNAV $GPGGA,200006.00,4131.440993,N,07040.337006,W,2,17,0.9,18.266,M,-30.109,M,32.0,0000*72
2024-05-28T20:00:07.314000Z CNAV $GPZDA,200007.00,28,05,2024,00,00*68
2024-05-28T20:00:07.391000Z CNAV $GPRMC,200007.00,A,4131.440990,N,07040.337006,W,0.01,116.6,280524,,,D*71
2024-05-28T20:00:07.431000Z CNAV $GPVTG,116.6,T,,M,0.01,N,0.02,K,D*0B
2024-05-28T20:00:07.523000Z CNAV $GPGGA,200007.00,4131.440990,N,07040.337006,W,2,17,0.9,18.268,M,-30.109,M,33.0,0000*7F
2024-05-28T20:00:08.282000Z CNAV $GPZDA,200008.00,28,05,2024,00,00*67
2024-05-28T20:00:08.358000Z CNAV $GPRMC,200008.00,A,4131.440991,N,07040.337010,W,0.00,90.0,280524,,,D*40
2024-05-28T20:00:08.397000Z CNAV $GPVTG,90.0,T,,M,0.00,N,0.00,K,D*31
2024-05-28T20:00:08.489000Z CNAV $GPGGA,200008.00,4131.440991,N,07040.337010,W,2,17,0.9,18.261,M,-30.109,M,34.0,0000*78
2024-05-28T20:00:09.257000Z CNAV $GPZDA,200009.00,28,05,2024,00,00*66
2024-05-28T20:00:09.334000Z CNAV $GPRMC,200009.00,A,4131.440996,N,07040.337021,W,0.01,301.0,280524,,,D*7E
2024-05-28T20:00:09.374000Z CNAV $GPVTG,301.0,T,,M,0.01,N,0.02,K,D*09
2024-05-28T20:00:09.466000Z CNAV $GPGGA,200009.00,4131.440996,N,07040.337021,W,2,17,0.9,18.252,M,-30.109,M,35.0,0000*7D
2024-05-28T20:00:10.273000Z CNAV $GPZDA,200010.00,28,05,2024,00,00*6E
2024-05-28T20:00:10.351000Z CNAV $GPRMC,200010.00,A,4131.440999,N,07040.337033,W,0.02,294.0,280524,,,D*74
2024-05-28T20:00:10.390000Z CNAV $GPVTG,294.0,T,,M,0.02,N,0.03,K,D*06
2024-05-28T20:00:10.483000Z CNAV $GPGGA,200010.00,4131.440999,N,07040.337033,W,2,17,0.9,18.258,M,-30.109,M,36.0,0000*70
2024-05-28T20:00:11.289000Z CNAV $GPZDA,200011.00,28,05,2024,00,00*6F
2024-05-28T20:00:11.365000Z CNAV $GPRMC,200011.00,A,4131.441005,N,07040.337037,W,0.02,307.9,280524,,,D*7E
2024-05-28T20:00:11.405000Z CNAV $GPVTG,307.9,T,,M,0.02,N,0.04,K,D*03
2024-05-28T20:00:11.497000Z CNAV $GPGGA,200011.00,4131.441005,N,07040.337037,W,2,17,0.9,18.245,M,-30.109,M,37.0,0000*75
2024-05-28T20:00:12.258000Z CNAV $GPZDA,200012.00,28,05,2024,00,00*6C
2024-05-28T20:00:12.335000Z CNAV $GPRMC,200012.00,A,4131.441004,N,07040.337037,W,0.01,308.7,280524,,,D*7E
2024-05-28T20:00:12.375000Z CNAV $GPVTG,308.7,T,,M,0.01,N,0.02,K,D*07
2024-05-28T20:00:12.467000Z CNAV $GPGGA,200012.00,4131.441004,N,07040.337037,W,2,17,0.9,18.238,M,-30.109,M,38.0,0000*72
2024-05-28T20:00:13.273000Z CNAV $GPZDA,200013.00,28,05,2024,00,00*6D
2024-05-28T20:00:13.350000Z CNAV $GPRMC,200013.00,A,4131.440997,N,07040.337033,W,0.00,206.6,280524,,,D*76
2024-05-28T20:00:13.390000Z CNAV $GPVTG,206.6,T,,M,0.00,N,0.01,K,D*0B
2024-05-28T20:00:13.482000Z CNAV $GPGGA,200013.00,4131.440997,N,07040.337033,W,2,17,0.9,18.247,M,-30.109,M,39.0,0000*7C
2024-05-28T20:00:14.288000Z CNAV $GPZDA,200014.00,28,05,2024,00,00*6A
2024-05-28T20:00:14.365000Z CNAV $GPRMC,200014.00,A,4131.440990,N,07040.337025,W,0.01,156.8,280524,,,D*78
2024-05-28T20:00:14.405000Z CNAV $GPVTG,156.8,T,,M,0.01,N,0.03,K,D*00
2024-05-28T20:00:14.497000Z CNAV $GPGGA,200014.00,4131.440990,N,07040.337025,W,2,17,0.9,18.241,M,-30.109,M,40.0,0000*73
2024-05-28T20:00:15.308000Z CNAV $GPZDA,200015.00,28,05,2024,00,00*6B
2024-05-28T20:00:15.385000Z CNAV $GPRMC,200015.00,A,4131.440988,N,07040.337014,W,0.02,126.9,280524,,,D*77
2024-05-28T20:00:15.425000Z CNAV $GPVTG,126.9,T,,M,0.02,N,0.04,K,D*02
2024-05-28T20:00:15.517000Z CNAV $GPGGA,200015.00,4131.440988,N,07040.337014,W,2,17,0.9,18.239,M,-30.109,M,41.0,0000*77
2024-05-28T20:00:16.274000Z CNAV $GPZDA,200016.00,28,05,2024,00,00*68
2024-05-28T20:00:16.351000Z CNAV $GPRMC,200016.00,A,4131.440987,N,07040.337013,W,0.01,123.7,280524,,,D*74
2024-05-28T20:00:16.390000Z CNAV $GPVTG,123.7,T,,M,0.01,N,0.03,K,D*0D
2024-05-28T20:00:16.482000Z CNAV $GPGGA,200016.00,4131.440987,N,07040.337013,W,2,17,0.9,18.230,M,-30.109,M,42.0,0000*76
2024-05-28T20:00:17.287000Z CNAV $GPZDA,200017.00,28,05,2024,00,00*69
2024-05-28T20:00:17.365000Z CNAV $GPRMC,200017.00,A,4131.440989,N,07040.337018,W,0.00,135.0,280524,,,D*71
2024-05-28T20:00:17.404000Z CNAV $GPVTG,135.0,T,,M,0.00,N,0.00,K,D*0F
2024-05-28T20:00:17.496000Z CNAV $GPGGA,200017.00,4131.440989,N,07040.337018,W,2,17,0.9,18.240,M,-30.109,M,43.0,0000*74
2024-05-28T20:00:18.259000Z CNAV $GPZDA,200018.00,28,05,2024,00,00*66
2024-05-28T20:00:18.337000Z CNAV $GPRMC,200018.00,A,4131.440991,N,07040.337033,W,0.01,270.0,280524,,,D*7D
2024-05-28T20:00:18.376000Z CNAV $GPVTG,270.0,T,,M,0.01,N,0.02,K,D*0E
2024-05-28T20:00:18.468000Z CNAV $GPGGA,200018.00,4131.440991,N,07040.337033,W,2,17,0.9,18.221,M,-30.109,M,44.0,0000*7B
2024-05-28T20:00:19.224000Z CNAV $GPZDA,200019.00,28,05,2024,00,00*67
2024-05-28T20:00:19.301000Z CNAV $GPRMC,200019.00,A,4131.440991,N,07040.337040,W,0.02,270.0,280524,,,D*7B
2024-05-28T20:00:19.340000Z CNAV $GPVTG,270.0,T,,M,0.02,N,0.03,K,D*0C
2024-05-28T20:00:19.432000Z CNAV $GPGGA,200019.00,4131.440991,N,07040.337040,W,2,17,0.9,18.212,M,-30.109,M,45.0,0000*7F
2024-05-28T20:00:20.287000Z CNAV $GPZDA,200020.00,28,05,2024,00,00*6D
2024-05-28T20:00:20.365000Z CNAV $GPRMC,200020.00,A,4131.440993,N,07040.337042,W,0.01,288.4,280524,,,D*71
2024-05-28T20:00:20.404000Z CNAV $GPVTG,288.4,T,,M,0.01,N,0.02,K,D*0D
2024-05-28T20:00:20.496000Z CNAV $GPGGA,200020.00,4131.440993,N,07040.337042,W,2,17,0.9,18.209,M,-30.109,M,46.0,0000*7C
2024-05-28T20:00:21.257000Z CNAV $GPZDA,200021.00,28,05,2024,00,00*6C
2024-05-28T20:00:21.334000Z CNAV $GPRMC,200021.00,A,4131.440994,N,07040.337036,W,0.00,333.4,280524,,,D*74
2024-05-28T20:00:21.373000Z CNAV $GPVTG,333.4,T,,M,0.00,N,0.01,K,D*0E
2024-05-28T20:00:21.465000Z CNAV $GPGGA,200021.00,4131.440994,N,07040.337036,W,2,17,0.9,18.198,M,-30.109,M,47.0,0000*73
2024-05-28T20:00:22.223000Z CNAV $GPZDA,200022.00,28,05,2024,00,00*6F
2024-05-28T20:00:22.299000Z CNAV $GPRMC,200022.00,A,4131.440993,N,07040.337025,W,0.01,90.0,280524,,,D*4D
2024-05-28T20:00:22.337000Z CNAV $GPVTG,90.0,T,,M,0.01,N,0.02,K,D*32
2024-05-28T20:00:22.429000Z CNAV $GPGGA,200022.00,4131.440993,N,07040.337025,W,2,17,0.9,18.205,M,-30.109,M,48.0,0000*7D
2024-05-28T20:00:23.289000Z CNAV $GPZDA,200023.00,28,05,2024,00,00*6E
2024-05-28T20:00:23.365000Z CNAV $GPRMC,200023.00,A,4131.440991,N,07040.337014,W,0.02,96.3,280524,,,D*4A
2024-05-28T20:00:23.403000Z CNAV $GPVTG,96.3,T,,M,0.02,N,0.03,K,D*35
2024-05-28T20:00:23.495000Z CNAV $GPGGA,200023.00,4131.440991,N,07040.337014,W,2,17,0.9,18.204,M,-30.109,M,49.0,0000*7C
2024-05-28T20:00:24.255000Z CNAV $GPZDA,200024.00,28,05,2024,00,00*69
2024-05-28T20:00:24.332000Z CNAV $GPRMC,200024.00,A,4131.440989,N,07040.337009,W,0.02,102.5,280524,,,D*72
2024-05-28T20:00:24.371000Z CNAV $GPVTG,102.5,T,,M,0.02,N,0.03,K,D*0F
2024-05-28T20:00:24.463000Z CNAV $GPGGA,200024.00,4131.440989,N,07040.337009,W,2,17,0.9,18.210,M,-30.109,M,50.0,0000*73
2024-05-28T20:00:25.274000Z CNAV $GPZDA,200025.00,28,05,2024,00,00*68
2024-05-28T20:00:25.351000Z CNAV $GPRMC,200025.00,A,4131.440990,N,07040.337009,W,0.01,101.3,280524,,,D*7D
2024-05-28T20:00:25.390000Z CNAV $GPVTG,101.3,T,,M,0.01,N,0.02,K,D*08
2024-05-28T20:00:25.482000Z CNAV $GPGGA,200025.00,4131.440990,N,07040.337009,W,2,17,0.9,18.205,M,-30.109,M,51.0,0000*7F
2024-05-28T20:00:26.289000Z CNAV $GPZDA,200026.00,28,05,2024,00,00*6B
2024-05-28T20:00:26.365000Z CNAV $GPRMC,200026.00,A,4131.440992,N,07040.337013,W,0.00,45.0,280524,,,D*44
2024-05-28T20:00:26.404000Z CNAV $GPVTG,45.0,T,,M,0.00,N,0.00,K,D*39
2024-05-28T20:00:26.495000Z CNAV $GPGGA,200026.00,4131.440992,N,07040.337013,W,2,17,0.9,18.205,M,-30.109,M,52.0,0000*76
2024-05-28T20:00:27.255000Z CNAV $GPZDA,200027.00,28,05,2024,00,00*6A
2024-05-28T20:00:27.332000Z CNAV $GPRMC,200027.00,A,4131.440998,N,07040.337016,W,0.01,348.7,280524,,,D*72
2024-05-28T20:00:27.372000Z CNAV $GPVTG,348.7,T,,M,0.01,N,0.02,K,D*03
2024-05-28T20:00:27.463000Z CNAV $GPGGA,200027.00,4131.440998,N,07040.337016,W,2,17,0.9,18.198,M,-30.109,M,53.0,0000*7E
2024-05-28T20:00:28.277000Z CNAV $GPZDA,200028.00,28,05,2024,00,00*65
2024-05-28T20:00:28.352000Z CNAV $GPRMC,200028.00,A,4131.441002,N,07040.337015,W,0.01,0.0,280524,,,D*7D
2024-05-28T20:00:28.390000Z CNAV $GPVTG,0.0,T,,M,0.01,N,0.02,K,D*0B
2024-05-28T20:00:28.482000Z CNAV $GPGGA,200028.00,4131.441002,N,07040.337015,W,2,17,0.9,18.199,M,-30.109,M,54.0,0000*7F
2024-05-28T20:00:29.293000Z CNAV $GPZDA,200029.00,28,05,2024,00,00*64
2024-05-28T20:00:29.369000Z CNAV $GPRMC,200029.00,A,4131.441005,N,07040.337005,W,0.01,45.0,280524,,,D*4B
2024-05-28T20:00:29.408000Z CNAV $GPVTG,45.0,T,,M,0.01,N,0.02,K,D*3A
2024-05-28T20:00:29.499000Z CNAV $GPGGA,200029.00,4131.441005,N,07040.337005,W,2,17,0.9,18.187,M,-30.109,M,55.0,0000*76
2024-05-28T20:00:30.308000Z CNAV $GPZDA,200030.00,28,05,2024,00,00*6C
2024-05-28T20:00:30.384000Z CNAV $GPRMC,200030.00,A,4131.441001,N,07040.336991,W,0.02,84.3,280524,,,D*4F
2024-05-28T20:00:30.423000Z CNAV $GPVTG,84.3,T,,M,0.02,N,0.04,K,D*31
2024-05-28T20:00:30.514000Z CNAV $GPGGA,200030.00,4131.441001,N,07040.336991,W,2,17,0.9,18.192,M,-30.109,M,56.0,0000*78
2024-05-28T20:00:31.277000Z CNAV $GPZDA,200031.00,28,05,2024,00,00*6D
2024-05-28T20:00:31.353000Z CNAV $GPRMC,200031.00,A,4131.440998,N,07040.336983,W,0.02,95.2,280524,,,D*44
2024-05-28T20:00:31.392000Z CNAV $GPVTG,95.2,T,,M,0.02,N,0.04,K,D*30
2024-05-28T20:00:31.483000Z CNAV $GPGGA,200031.00,4131.440998,N,07040.336983,W,2,17,0.9,18.192,M,-30.109,M,57.0,0000*73
2024-05-28T20:00:32.291000Z CNAV $GPZDA,200032.00,28,05,2024,00,00*6E
2024-05-28T20:00:32.367000Z CNAV $GPRMC,200032.00,A,4131.440999,N,07040.336977,W,0.02,90.0,280524,,,D*4A
2024-05-28T20:00:32.405000Z CNAV $GPVTG,90.0,T,,M,0.02,N,0.04,K,D*37
2024-05-28T20:00:32.497000Z CNAV $GPGGA,200032.00,4131.440999,N,07040.336977,W,2,17,0.9,18.197,M,-30.109,M,58.0,0000*70
2024-05-28T20:00:33.306000Z CNAV $GPZDA,200033.00,28,05,2024,00,00*6F
2024-05-28T20:00:33.383000Z CNAV $GPRMC,200033.00,A,4131.440997,N,07040.336980,W,0.01,101.3,280524,,,D*74
2024-05-28T20:00:33.423000Z CNAV $GPVTG,101.3,T,,M,0.01,N,0.02,K,D*08
2024-05-28T20:00:33.514000Z CNAV $GPGGA,200033.00,4131.440997,N,07040.336980,W,2,17,0.9,18.194,M,-30.109,M,59.0,0000*75
2024-05-28T20:00:34.225000Z CNAV $GPZDA,200034.00,28,05,2024,00,00*68
2024-05-28T20:00:34.300000Z CNAV $GPRMC,200034.00,A,4131.441003,N,07040.336986,W,0.01,0.0,280524,,,D*73
2024-05-28T20:00:34.338000Z CNAV $GPVTG,0.0,T,,M,0.01,N,0.01,K,D*08
2024-05-28T20:00:34.429000Z CNAV $GPGGA,200034.00,4131.441003,N,07040.336986,W,2,17,0.9,18.198,M,-30.109,M,60.0,0000*77
2024-05-28T20:00:35.289000Z CNAV $GPZDA,200035.00,28,05,2024,00,00*69
2024-05-28T20:00:35.366000Z CNAV $GPRMC,200035.00,A,4131.441004,N,07040.336991,W,0.01,303.7,280524,,,D*74
2024-05-28T20:00:35.406000Z CNAV $GPVTG,303.7,T,,M,0.01,N,0.01,K,D*0F
2024-05-28T20:00:35.497000Z CNAV $GPGGA,200035.00,4131.441004,N,07040.336991,W,2,17,0.9,18.197,M,-30.109,M,61.0,0000*79
2024-05-28T20:00:36.303000Z CNAV $GPZDA,200036.00,28,05,2024,00,00*6A
2024-05-28T20:00:36.380000Z CNAV $GPRMC,200036.00,A,4131.441002,N,07040.336990,W,0.00,315.0,280524,,,D*71
2024-05-28T20:00:36.420000Z CNAV $GPVTG,315.0,T,,M,0.00,N,0.00,K,D*0F
2024-05-28T20:00:36.511000Z CNAV $GPGGA,200036.00,4131.441002,N,07040.336990,W,2,17,0.9,18.188,M,-30.109,M,62.0,0000*70
2024-05-28T20:00:37.272000Z CNAV $GPZDA,200037.00,28,05,2024,00,00*6B
2024-05-28T20:00:37.348000Z CNAV $GPRMC,200037.00,A,4131.441001,N,07040.336984,W,0.00,90.0,280524,,,D*48
2024-05-28T20:00:37.387000Z CNAV $GPVTG,90.0,T,,M,0.00,N,0.01,K,D*30
2024-05-28T20:00:37.478000Z CNAV $GPGGA,200037.00,4131.441001,N,07040.336984,W,2,17,0.9,18.186,M,-30.109,M,63.0,0000*78
2024-05-28T20:00:38.287000Z CNAV $GPZDA,200038.00,28,05,2024,00,00*64
2024-05-28T20:00:38.364000Z CNAV $GPRMC,200038.00,A,4131.441001,N,07040.336983,W,0.00,116.6,280524,,,D*79
2024-05-28T20:00:38.404000Z CNAV $GPVTG,116.6,T,,M,0.00,N,0.01,K,D*09
2024-05-28T20:00:38.495000Z CNAV $GPGGA,200038.00,4131.441001,N,07040.336983,W,2,17,0.9,18.188,M,-30.109,M,64.0,0000*79
2024-05-28T20:00:39.252000Z CNAV $GPZDA,200039.00,28,05,2024,00,00*65
2024-05-28T20:00:39.328000Z CNAV $GPRMC,200039.00,A,4131.441002,N,07040.336979,W,0.01,90.0,280524,,,D*46
2024-05-28T20:00:39.367000Z CNAV $GPVTG,90.0,T,,M,0.01,N,0.01,K,D*31
2024-05-28T20:00:39.459000Z CNAV $GPGGA,200039.00,4131.441002,N,07040.336979,W,2,17,0.9,18.183,M,-30.109,M,65.0,0000*74
2024-05-28T20:00:40.271000Z CNAV $GPZDA,200040.00,28,05,2024,00,00*6B
2024-05-28T20:00:40.348000Z CNAV $GPRMC,200040.00,A,4131.441000,N,07040.336976,W,0.01,104.0,280524,,,D*79
2024-05-28T20:00:40.388000Z CNAV $GPVTG,104.0,T,,M,0.01,N,0.01,K,D*0D
2024-05-28T20:00:40.479000Z CNAV $GPGGA,200040.00,4131.441000,N,07040.336976,W,2,17,0.9,18.190,M,-30.109,M,66.0,0000*76
2024-05-28T20:00:41.287000Z CNAV $GPZDA,200041.00,28,05,2024,00,00*6A
2024-05-28T20:00:41.364000Z CNAV $GPRMC,200041.00,A,4131.440998,N,07040.336974,W,0.01,123.7,280524,,,D*71
2024-05-28T20:00:41.404000Z CNAV $GPVTG,123.7,T,,M,0.01,N,0.01,K,D*0F
2024-05-28T20:00:41.496000Z CNAV $GPGGA,200041.00,4131.440998,N,07040.336974,W,2,17,0.9,18.190,M,-30.109,M,67.0,0000*7D
2024-05-28T20:00:42.301000Z CNAV $GPZDA,200042.00,28,05,2024,00,00*69
2024-05-28T20:00:42.378000Z CNAV $GPRMC,200042.00,A,4131.440997,N,07040.336971,W,0.01,116.6,280524,,,D*7F
2024-05-28T20:00:42.418000Z CNAV $GPVTG,116.6,T,,M,0.01,N,0.02,K,D*0B
2024-05-28T20:00:42.510000Z CNAV $GPGGA,200042.00,4131.440997,N,07040.336971,W,2,17,0.9,18.195,M,-30.109,M,68.0,0000*7E
2024-05-28T20:00:43.270000Z CNAV $GPZDA,200043.00,28,05,2024,00,00*68
2024-05-28T20:00:43.346000Z CNAV $GPRMC,200043.00,A,4131.440999,N,07040.336966,W,0.01,90.0,280524,,,D*4F
2024-05-28T20:00:43.385000Z CNAV $GPVTG,90.0,T,,M,0.01,N,0.02,K,D*32
2024-05-28T20:00:43.477000Z CNAV $GPGGA,200043.00,4131.440999,N,07040.336966,W,2,17,0.9,18.198,M,-30.109,M,69.0,0000*7B
2024-05-28T20:00:44.286000Z CNAV $GPZDA,200044.00,28,05,2024,00,00*6F
2024-05-28T20:00:44.363000Z CNAV $GPRMC,200044.00,A,4131.440998,N,07040.336969,W,0.00,116.6,280524,,,D*7E
2024-05-28T20:00:44.403000Z CNAV $GPVTG,116.6,T,,M,0.00,N,0.01,K,D*09
2024-05-28T20:00:44.495000Z CNAV $GPGGA,200044.00,4131.440998,N,07040.336969,W,2,17,0.9,18.201,M,-30.109,M,70.0,0000*79
2024-05-28T20:00:45.300000Z CNAV $GPZDA,200045.00,28,05,2024,00,00*6E
2024-05-28T20:00:45.376000Z CNAV $GPRMC,200045.00,A,4131.441005,N,07040.336970,W,0.01,14.0,280524,,,D*4F
2024-05-28T20:00:45.415000Z CNAV $GPVTG,14.0,T,,M,0.01,N,0.01,K,D*3D
2024-05-28T20:00:45.507000Z CNAV $GPGGA,200045.00,4131.441005,N,07040.336970,W,2,17,0.9,18.189,M,-30.109,M,71.0,0000*7E
2024-05-28T20:00:46.270000Z CNAV $GPZDA,200046.00,28,05,2024,00,00*6D
2024-05-28T20:00:46.347000Z CNAV $GPRMC,200046.00,A,4131.441007,N,07040.336974,W,0.01,333.4,280524,,,D*78
2024-05-28T20:00:46.387000Z CNAV $GPVTG,333.4,T,,M,0.01,N,0.02,K,D*0C
2024-05-28T20:00:46.479000Z CNAV $GPGGA,200046.00,4131.441007,N,07040.336974,W,2,17,0.9,18.180,M,-30.109,M,72.0,0000*71
2024-05-28T20:00:47.285000Z CNAV $GPZDA,200047.00,28,05,2024,00,00*6C
2024-05-28T20:00:47.362000Z CNAV $GPRMC,200047.00,A,4131.441009,N,07040.336977,W,0.01,323.1,280524,,,D*70
2024-05-28T20:00:47.402000Z CNAV $GPVTG,323.1,T,,M,0.01,N,0.02,K,D*08
2024-05-28T20:00:47.494000Z CNAV $GPGGA,200047.00,4131.441009,N,07040.336977,W,2,17,0.9,18.185,M,-30.109,M,73.0,0000*79
2024-05-28T20:00:48.301000Z CNAV $GPZDA,200048.00,28,05,2024,00,00*63
2024-05-28T20:00:48.378000Z CNAV $GPRMC,200048.00,A,4131.441006,N,07040.336981,W,0.01,284.0,280524,,,D*74
2024-05-28T20:00:48.418000Z CNAV $GPVTG,284.0,T,,M,0.01,N,0.01,K,D*06
2024-05-28T20:00:48.510000Z CNAV $GPGGA,200048.00,4131.441006,N,07040.336981,W,2,17,0.9,18.185,M,-30.109,M,74.0,0000*77
2024-05-28T20:00:49.265000Z CNAV $GPZDA,200049.00,28,05,2024,00,00*62
2024-05-28T20:00:49.342000Z CNAV $GPRMC,200049.00,A,4131.441001,N,07040.336979,W,0.01,213.7,280524,,,D*7C
2024-05-28T20:00:49.381000Z CNAV $GPVTG,213.7,T,,M,0.01,N,0.01,K,D*0F
2024-05-28T20:00:49.473000Z CNAV $GPGGA,200049.00,4131.441001,N,07040.336979,W,2,17,0.9,18.198,M,-30.109,M,75.0,0000*7B
2024-05-28T20:00:50.285000Z CNAV $GPZDA,200050.00,28,05,2024,00,00*6A
2024-05-28T20:00:50.363000Z CNAV $GPRMC,200050.00,A,4131.440999,N,07040.336978,W,0.01,180.0,280524,,,D*72
2024-05-28T20:00:50.402000Z CNAV $GPVTG,180.0,T,,M,0.01,N,0.01,K,D*01
2024-05-28T20:00:50.494000Z CNAV $GPGGA,200050.00,4131.440999,N,07040.336978,W,2,17,0.9,18.199,M,-30.109,M,76.0,0000*79
2024-05-28T20:00:51.301000Z CNAV $GPZDA,200051.00,28,05,2024,00,00*6B
2024-05-28T20:00:51.378000Z CNAV $GPRMC,200051.00,A,4131.440996,N,07040.336978,W,0.01,180.0,280524,,,D*7C
2024-05-28T20:00:51.417000Z CNAV $GPVTG,180.0,T,,M,0.01,N,0.01,K,D*01
2024-05-28T20:00:51.509000Z CNAV $GPGGA,200051.00,4131.440996,N,07040.336978,W,2,17,0.9,18.194,M,-30.109,M,77.0,0000*7B
2024-05-28T20:00:52.267000Z CNAV $GPZDA,200052.00,28,05,2024,00,00*68
2024-05-28T20:00:52.345000Z CNAV $GPRMC,200052.00,A,4131.440993,N,07040.336980,W,0.01,191.3,280524,,,D*7E
2024-05-28T20:00:52.384000Z CNAV $GPVTG,191.3,T,,M,0.01,N,0.02,K,D*01
2024-05-28T20:00:52.476000Z CNAV $GPGGA,200052.00,4131.440993,N,07040.336980,W,2,17,0.9,18.197,M,-30.109,M,78.0,0000*76
2024-05-28T20:00:53.290000Z CNAV $GPZDA,200053.00,28,05,2024,00,00*69
2024-05-28T20:00:53.367000Z CNAV $GPRMC,200053.00,A,4131.440994,N,07040.336985,W,0.01,243.4,280524,,,D*76
2024-05-28T20:00:53.406000Z CNAV $GPVTG,243.4,T,,M,0.01,N,0.02,K,D*0A
2024-05-28T20:00:53.498000Z CNAV $GPGGA,200053.00,4131.440994,N,07040.336985,W,2,17,0.9,18.199,M,-30.109,M,79.0,0000*7A
2024-05-28T20:00:54.306000Z CNAV $GPZDA,200054.00,28,05,2024,00,00*6E
2024-05-28T20:00:54.383000Z CNAV $GPRMC,200054.00,A,4131.440997,N,07040.336992,W,0.01,279.5,280524,,,D*7C
2024-05-28T20:00:54.422000Z CNAV $GPVTG,279.5,T,,M,0.01,N,0.02,K,D*02
2024-05-28T20:00:54.514000Z CNAV $GPGGA,200054.00,4131.440997,N,07040.336992,W,2,17,0.9,18.199,M,-30.109,M,80.0,0000*7E
2024-05-28T20:00:55.270000Z CNAV $GPZDA,200055.00,28,05,2024,00,00*6F
2024-05-28T20:00:55.347000Z CNAV $GPRMC,200055.00,A,4131.440999,N,07040.337005,W,0.02,281.3,280524,,,D*77
2024-05-28T20:00:55.386000Z CNAV $GPVTG,281.3,T,,M,0.02,N,0.04,K,D*06
2024-05-28T20:00:55.478000Z CNAV $GPGGA,200055.00,4131.440999,N,07040.337005,W,2,17,0.9,18.200,M,-30.109,M,81.0,0000*75
2024-05-28T20:00:56.291000Z CNAV $GPZDA,200056.00,28,05,2024,00,00*6C
2024-05-28T20:00:56.368000Z CNAV $GPRMC,200056.00,A,4131.440996,N,07040.337013,W,0.02,264.8,280524,,,D*7C
2024-05-28T20:00:56.407000Z CNAV $GPVTG,264.8,T,,M,0.02,N,0.04,K,D*06
2024-05-28T20:00:56.499000Z CNAV $GPGGA,200056.00,4131.440996,N,07040.337013,W,2,17,0.9,18.199,M,-30.109,M,82.0,0000*7E
2024-05-28T20:00:57.306000Z CNAV $GPZDA,200057.00,28,05,2024,00,00*6D
2024-05-28T20:00:57.383000Z CNAV $GPRMC,200057.00,A,4131.440996,N,07040.337014,W,0.01,261.9,280524,,,D*7D
2024-05-28T20:00:57.422000Z CNAV $GPVTG,261.9,T,,M,0.01,N,0.02,K,D*07
2024-05-28T20:00:57.514000Z CNAV $GPGGA,200057.00,4131.440996,N,07040.337014,W,2,17,0.9,18.205,M,-30.109,M,83.0,0000*7F
2024-05-28T20:00:58.271000Z CNAV $GPZDA,200058.00,28,05,2024,00,00*62
2024-05-28T20:00:58.348000Z CNAV $GPRMC,200058.00,A,4131.440987,N,07040.337047,W,0.04,252.3,280524,,,D*7B
2024-05-28T20:00:58.387000Z CNAV $GPVTG,252.3,T,,M,0.04,N,0.08,K,D*02
2024-05-28T20:00:58.479000Z CNAV $GPGGA,200058.00,4131.440987,N,07040.337047,W,2,17,0.9,18.310,M,-30.109,M,24.0,0000*7E
2024-05-28T20:00:59.293000Z CNAV $GPZDA,200059.00,28,05,2024,00,00*63
2024-05-28T20:00:59.370000Z CNAV $GPRMC,200059.00,A,4131.440987,N,07040.337038,W,0.02,246.0,280524,,,D*72
2024-05-28T20:00:59.409000Z CNAV $GPVTG,246.0,T,,M,0.02,N,0.03,K,D*09
2024-05-28T20:00:59.501000Z CNAV $GPGGA,200059.00,4131.440987,N,07040.337038,W,2,17,0.9,18.303,M,-30.109,M,25.0,0000*74
2024-05-28T20:01:00.261000Z CNAV $GPZDA,200100.00,28,05,2024,00,00*6E
2024-05-28T20:01:00.338000Z CNAV $GPRMC,200100.00,A,4131.440985,N,07040.337039,W,0.01,236.3,280524,,,D*7B
2024-05-28T20:01:00.377000Z CNAV $GPVTG,236.3,T,,M,0.01,N,0.03,K,D*0E
2024-05-28T20:01:00.469000Z CNAV $GPGGA,200100.00,4131.440985,N,07040.337039,W,2,17,0.9,18.311,M,-30.109,M,26.0,0000*7A
2024-05-28T20:01:01.280000Z CNAV $GPZDA,200101.00,28,05,2024,00,00*6F
2024-05-28T20:01:01.357000Z CNAV $GPRMC,200101.00,A,4131.440985,N,07040.337035,W,0.01,213.7,280524,,,D*75
2024-05-28T20:01:01.397000Z CNAV $GPVTG,213.7,T,,M,0.01,N,0.01,K,D*0F
2024-05-28T20:01:01.488000Z CNAV $GPGGA,200101.00,4131.440985,N,07040.337035,W,2,17,0.9,18.297,M,-30.109,M,27.0,0000*79
2024-05-28T20:01:02.305000Z CNAV $GPZDA,200102.00,28,05,2024,00,00*6C
2024-05-28T20:01:02.382000Z CNAV $GPRMC,200102.00,A,4131.440987,N,07040.337040,W,0.01,270.0,280524,,,D*74
2024-05-28T20:01:02.422000Z CNAV $GPVTG,270.0,T,,M,0.01,N,0.01,K,D*0D
2024-05-28T20:01:02.513000Z CNAV $GPGGA,200102.00,4131.440987,N,07040.337040,W,2,17,0.9,18.299,M,-30.109,M,28.0,0000*7B
2024-05-28T20:01:03.271000Z CNAV $GPZDA,200103.00,28,05,2024,00,00*6D
2024-05-28T20:01:03.348000Z CNAV $GPRMC,200103.00,A,4131.440985,N,07040.337050,W,0.02,262.9,280524,,,D*7F
2024-05-28T20:01:03.388000Z CNAV $GPVTG,262.9,T,,M,0.02,N,0.03,K,D*06
2024-05-28T20:01:03.479000Z CNAV $GPGGA,200103.00,4131.440985,N,07040.337050,W,2,17,0.9,18.294,M,-30.109,M,29.0,0000*75
2024-05-28T20:01:04.289000Z CNAV $GPZDA,200104.00,28,05,2024,00,00*6A
2024-05-28T20:01:04.366000Z CNAV $GPRMC,200104.00,A,4131.440989,N,07040.337053,W,0.01,288.4,280524,,,D*7D
2024-05-28T20:01:04.406000Z CNAV $GPVTG,288.4,T,,M,0.01,N,0.02,K,D*0D
2024-05-28T20:01:04.497000Z CNAV $GPGGA,200104.00,4131.440989,N,07040.337053,W,2,17,0.9,18.298,M,-30.109,M,30.0,0000*79
2024-05-28T20:01:05.262000Z CNAV $GPZDA,200105.00,28,05,2024,00,00*6B
2024-05-28T20:01:05.339000Z CNAV $GPRMC,200105.00,A,4131.440987,N,07040.337059,W,0.01,270.0,280524,,,D*7B
2024-05-28T20:01:05.379000Z CNAV $GPVTG,270.0,T,,M,0.01,N,0.02,K,D*0E
2024-05-28T20:01:05.470000Z CNAV $GPGGA,200105.00,4131.440987,N,07040.337059,W,2,17,0.9,18.297,M,-30.109,M,31.0,0000*72
2024-05-28T20:01:06.280000Z CNAV $GPZDA,200106.00,28,05,2024,00,00*68
2024-05-28T20:01:06.357000Z CNAV $GPRMC,200106.00,A,4131.440986,N,07040.337056,W,0.01,251.6,280524,,,D*73
2024-05-28T20:01:06.397000Z CNAV $GPVTG,251.6,T,,M,0.01,N,0.01,K,D*08
2024-05-28T20:01:06.488000Z CNAV $GPGGA,200106.00,4131.440986,N,07040.337056,W,2,17,0.9,18.306,M,-30.109,M,32.0,0000*75
2024-05-28T20:01:07.295000Z CNAV $GPZDA,200107.00,28,05,2024,00,00*69
2024-05-28T20:01:07.372000Z CNAV $GPRMC,200107.00,A,4131.440980,N,07040.337058,W,0.01,211.0,280524,,,D*78
2024-05-28T20:01:07.412000Z CNAV $GPVTG,211.0,T,,M,0.01,N,0.02,K,D*09
2024-05-28T20:01:07.504000Z CNAV $GPGGA,200107.00,4131.440980,N,07040.337058,W,2,17,0.9,18.311,M,-30.109,M,33.0,0000*7B
2024-05-28T20:01:08.316000Z CNAV $GPZDA,200108.00,28,05,2024,00,00*66
2024-05-28T20:01:08.393000Z CNAV $GPRMC,200108.00,A,4131.440978,N,07040.337057,W,0.01,194.0,280524,,,D*71
2024-05-28T20:01:08.433000Z CNAV $GPVTG,194.0,T,,M,0.01,N,0.01,K,D*04
2024-05-28T20:01:08.525000Z CNAV $GPGGA,200108.00,4131.440978,N,07040.337057,W,2,17,0.9,18.310,M,-30.109,M,34.0,0000*7A
2024-05-28T20:01:09.283000Z CNAV $GPZDA,200109.00,28,05,2024,00,00*67
2024-05-28T20:01:09.360000Z CNAV $GPRMC,200109.00,A,4131.440978,N,07040.337059,W,0.01,225.0,280524,,,D*77
2024-05-28T20:01:09.400000Z CNAV $GPVTG,225.0,T,,M,0.01,N,0.01,K,D*0D
2024-05-28T20:01:09.491000Z CNAV $GPGGA,200109.00,4131.440978,N,07040.337059,W,2,17,0.9,18.310,M,-30.109,M,35.0,0000*74
2024-05-28T20:01:10.297000Z CNAV $GPZDA,200110.00,28,05,2024,00,00*6F
2024-05-28T20:01:10.374000Z CNAV $GPRMC,200110.00,A,4131.440980,N,07040.337061,W,0.00,243.4,280524,,,D*76
2024-05-28T20:01:10.414000Z CNAV $GPVTG,243.4,T,,M,0.00,N,0.01,K,D*08
2024-05-28T20:01:10.505000Z CNAV $GPGGA,200110.00,4131.440980,N,07040.337061,W,2,17,0.9,18.310,M,-30.109,M,36.0,0000*73
2024-05-28T20:01:11.315000Z CNAV $GPZDA,200111.00,28,05,2024,00,00*6E
2024-05-28T20:01:11.392000Z CNAV $GPRMC,200111.00,A,4131.440984,N,07040.337064,W,0.01,303.7,280524,,,D*71
2024-05-28T20:01:11.432000Z CNAV $GPVTG,303.7,T,,M,0.01,N,0.01,K,D*0F
2024-05-28T20:01:11.523000Z CNAV $GPGGA,200111.00,4131.440984,N,07040.337064,W,2,17,0.9,18.305,M,-30.109,M,37.0,0000*76
2024-05-28T20:01:12.281000Z CNAV $GPZDA,200112.00,28,05,2024,00,00*6D
2024-05-28T20:01:12.358000Z CNAV $GPRMC,200112.00,A,4131.440987,N,07040.337062,W,0.01,346.0,280524,,,D*71
2024-05-28T20:01:12.398000Z CNAV $GPVTG,346.0,T,,M,0.01,N,0.01,K,D*09
2024-05-28T20:01:12.489000Z CNAV $GPGGA,200112.00,4131.440987,N,07040.337062,W,2,17,0.9,18.298,M,-30.109,M,38.0,0000*7A
2024-05-28T20:01:13.297000Z CNAV $GPZDA,200113.00,28,05,2024,00,00*6C
2024-05-28T20:01:13.373000Z CNAV $GPRMC,200113.00,A,4131.440986,N,07040.337057,W,0.01,45.0,280524,,,D*47
2024-05-28T20:01:13.412000Z CNAV $GPVTG,45.0,T,,M,0.01,N,0.01,K,D*39
2024-05-28T20:01:13.503000Z CNAV $GPGGA,200113.00,4131.440986,N,07040.337057,W,2,17,0.9,18.299,M,-30.109,M,39.0,0000*7C
2024-05-28T20:01:14.266000Z CNAV $GPZDA,200114.00,28,05,2024,00,00*6B
2024-05-28T20:01:14.343000Z CNAV $GPRMC,200114.00,A,4131.440981,N,07040.337056,W,0.01,135.0,280524,,,D*70
2024-05-28T20:01:14.383000Z CNAV $GPVTG,135.0,T,,M,0.01,N,0.01,K,D*0F
2024-05-28T20:01:14.475000Z CNAV $GPGGA,200114.00,4131.440981,N,07040.337056,W,2,17,0.9,18.308,M,-30.109,M,40.0,0000*7A
2024-05-28T20:01:15.333000Z CNAV $GPZDA,200115.00,28,05,2024,00,00*6A
2024-05-28T20:01:15.410000Z CNAV $GPRMC,200115.00,A,4131.440979,N,07040.337051,W,0.01,135.0,280524,,,D*71
2024-05-28T20:01:15.450000Z CNAV $GPVTG,135.0,T,,M,0.01,N,0.01,K,D*0F
2024-05-28T20:01:15.542000Z CNAV $GPGGA,200115.00,4131.440979,N,07040.337051,W,2,17,0.9,18.301,M,-30.109,M,41.0,0000*73
2024-05-28T20:01:16.252000Z CNAV $GPZDA,200116.00,28,05,2024,00,00*69
2024-05-28T20:01:16.330000Z CNAV $GPRMC,200116.00,A,4131.440980,N,07040.337048,W,0.01,104.0,280524,,,D*7E
2024-05-28T20:01:16.369000Z CNAV $GPVTG,104.0,T,,M,0.01,N,0.01,K,D*0D
2024-05-28T20:01:16.461000Z CNAV $GPGGA,200116.00,4131.440980,N,07040.337048,W,2,17,0.9,18.314,M,-30.109,M,42.0,0000*79
2024-05-28T20:01:17.272000Z CNAV $GPZDA,200117.00,28,05,2024,00,00*68
2024-05-28T20:01:17.349000Z CNAV $GPRMC,200117.00,A,4131.440978,N,07040.337050,W,0.00,153.4,280524,,,D*76
2024-05-28T20:01:17.389000Z CNAV $GPVTG,153.4,T,,M,0.00,N,0.01,K,D*0A
2024-05-28T20:01:17.481000Z CNAV $GPGGA,200117.00,4131.440978,N,07040.337050,W,2,17,0.9,18.316,M,-30.109,M,43.0,0000*75
2024-05-28T20:01:18.287000Z CNAV $GPZDA,200118.00,28,05,2024,00,00*67
2024-05-28T20:01:18.363000Z CNAV $GPRMC,200118.00,A,4131.440983,N,07040.337050,W,0.00,26.6,280524,,,D*4C
2024-05-28T20:01:18.401000Z CNAV $GPVTG,26.6,T,,M,0.00,N,0.01,K,D*3B
2024-05-28T20:01:18.494000Z CNAV $GPGGA,200118.00,4131.440983,N,07040.337050,W,2,17,0.9,18.316,M,-30.109,M,44.0,0000*79
2024-05-28T20:01:19.252000Z CNAV $GPZDA,200119.00,28,05,2024,00,00*66
2024-05-28T20:01:19.329000Z CNAV $GPRMC,200119.00,A,4131.440984,N,07040.337054,W,0.01,315.0,280524,,,D*7A
2024-05-28T20:01:19.368000Z CNAV $GPVTG,315.0,T,,M,0.01,N,0.01,K,D*0F
2024-05-28T20:01:19.460000Z CNAV $GPGGA,200119.00,4131.440984,N,07040.337054,W,2,17,0.9,18.312,M,-30.109,M,45.0,0000*7E
2024-05-28T20:01:20.221000Z CNAV $GPZDA,200120.00,28,05,2024,00,00*6C
2024-05-28T20:01:20.298000Z CNAV $GPRMC,200120.00,A,4131.440984,N,07040.337055,W,0.00,315.0,280524,,,D*70
2024-05-28T20:01:20.337000Z CNAV $GPVTG,315.0,T,,M,0.00,N,0.00,K,D*0F
2024-05-28T20:01:20.429000Z CNAV $GPGGA,200120.00,4131.440984,N,07040.337055,W,2,17,0.9,18.316,M,-30.109,M,46.0,0000*72
2024-05-28T20:01:21.285000Z CNAV $GPZDA,200121.00,28,05,2024,00,00*6D
2024-05-28T20:01:21.362000Z CNAV $GPRMC,200121.00,A,4131.440984,N,07040.337049,W,0.00,63.4,280524,,,D*4A
2024-05-28T20:01:21.400000Z CNAV $GPVTG,63.4,T,,M,0.00,N,0.01,K,D*38
2024-05-28T20:01:21.492000Z CNAV $GPGGA,200121.00,4131.440984,N,07040.337049,W,2,17,0.9,18.310,M,-30.109,M,47.0,0000*79
2024-05-28T20:01:22.300000Z CNAV $GPZDA,200122.00,28,05,2024,00,00*6E
2024-05-28T20:01:22.376000Z CNAV $GPRMC,200122.00,A,4131.440983,N,07040.337050,W,0.00,90.0,280524,,,D*4E
2024-05-28T20:01:22.415000Z CNAV $GPVTG,90.0,T,,M,0.00,N,0.00,K,D*31
2024-05-28T20:01:22.507000Z CNAV $GPGGA,200122.00,4131.440983,N,07040.337050,W,2,17,0.9,18.325,M,-30.109,M,48.0,0000*7C
2024-05-28T20:01:23.273000Z CNAV $GPZDA,200123.00,28,05,2024,00,00*6F
2024-05-28T20:01:23.349000Z CNAV $GPRMC,200123.00,A,4131.440985,N,07040.337043,W,0.01,76.0,280524,,,D*42
2024-05-28T20:01:23.387000Z CNAV $GPVTG,76.0,T,,M,0.01,N,0.01,K,D*39
2024-05-28T20:01:23.479000Z CNAV $GPGGA,200123.00,4131.440985,N,07040.337043,W,2,17,0.9,18.313,M,-30.109,M,49.0,0000*7D
2024-05-28T20:01:24.289000Z CNAV $GPZDA,200124.00,28,05,2024,00,00*68
2024-05-28T20:01:24.365000Z CNAV $GPRMC,200124.00,A,4131.440984,N,07040.337043,W,0.01,90.0,280524,,,D*4C
2024-05-28T20:01:24.403000Z CNAV $GPVTG,90.0,T,,M,0.01,N,0.01,K,D*31
2024-05-28T20:01:24.495000Z CNAV $GPGGA,200124.00,4131.440984,N,07040.337043,W,2,17,0.9,18.317,M,-30.109,M,50.0,0000*77
2024-05-28T20:01:25.304000Z CNAV $GPZDA,200125.00,28,05,2024,00,00*69
2024-05-28T20:01:25.380000Z CNAV $GPRMC,200125.00,A,4131.440989,N,07040.337034,W,0.01,63.4,280524,,,D*48
2024-05-28T20:01:25.419000Z CNAV $GPVTG,63.4,T,,M,0.01,N,0.02,K,D*3A
2024-05-28T20:01:25.511000Z CNAV $GPGGA,200125.00,4131.440989,N,07040.337034,W,2,17,0.9,18.305,M,-30.109,M,51.0,0000*79
2024-05-28T20:01:26.274000Z CNAV $GPZDA,200126.00,28,05,2024,00,00*6A
2024-05-28T20:01:26.350000Z CNAV $GPRMC,200126.00,A,4131.440985,N,07040.337033,W,0.01,90.0,280524,,,D*48
2024-05-28T20:01:26.388000Z CNAV $GPVTG,90.0,T,,M,0.01,N,0.02,K,D*32
2024-05-28T20:01:26.480000Z CNAV $GPGGA,200126.00,4131.440985,N,07040.337033,W,2,17,0.9,18.312,M,-30.109,M,52.0,0000*74
2024-05-28T20:01:27.289000Z CNAV $GPZDA,200127.00,28,05,2024,00,00*6B
2024-05-28T20:01:27.366000Z CNAV $GPRMC,200127.00,A,4131.440982,N,07040.337026,W,0.01,116.6,280524,,,D*73
2024-05-28T20:01:27.405000Z CNAV $GPVTG,116.6,T,,M,0.01,N,0.02,K,D*0B
2024-05-28T20:01:27.497000Z CNAV $GPGGA,200127.00,4131.440982,N,07040.337026,W,2,17,0.9,18.302,M,-30.109,M,53.0,0000*76
2024-05-28T20:01:28.310000Z CNAV $GPZDA,200128.00,28,05,2024,00,00*64
2024-05-28T20:01:28.387000Z CNAV $GPRMC,200128.00,A,4131.440979,N,07040.337024,W,0.01,121.0,280524,,,D*78
2024-05-28T20:01:28.426000Z CNAV $GPVTG,121.0,T,,M,0.01,N,0.02,K,D*09
2024-05-28T20:01:28.518000Z CNAV $GPGGA,200128.00,4131.440979,N,07040.337024,W,2,17,0.9,18.302,M,-30.109,M,54.0,0000*78
2024-05-28T20:01:29.279000Z CNAV $GPZDA,200129.00,28,05,2024,00,00*65
2024-05-28T20:01:29.355000Z CNAV $GPRMC,200129.00,A,4131.440982,N,07040.337023,W,0.01,90.0,280524,,,D*41
2024-05-28T20:01:29.393000Z CNAV $GPVTG,90.0,T,,M,0.01,N,0.01,K,D*31
2024-05-28T20:01:29.485000Z CNAV $GPGGA,200129.00,4131.440982,N,07040.337023,W,2,17,0.9,18.301,M,-30.109,M,55.0,0000*78
2024-05-28T20:01:30.294000Z CNAV $GPZDA,200130.00,28,05,2024,00,00*6D
2024-05-28T20:01:30.371000Z CNAV $GPRMC,200130.00,A,4131.440986,N,07040.337031,W,0.00,333.4,280524,,,D*71
2024-05-28T20:01:30.410000Z CNAV $GPVTG,333.4,T,,M,0.00,N,0.01,K,D*0E
2024-05-28T20:01:30.502000Z CNAV $GPGGA,200130.00,4131.440986,N,07040.337031,W,2,17,0.9,18.303,M,-30.109,M,56.0,0000*76
2024-05-28T20:01:31.309000Z CNAV $GPZDA,200131.00,28,05,2024,00,00*6C
2024-05-28T20:01:31.386000Z CNAV $GPRMC,200131.00,A,4131.440986,N,07040.337037,W,0.01,296.6,280524,,,D*7B
2024-05-28T20:01:31.425000Z CNAV $GPVTG,296.6,T,,M,0.01,N,0.02,K,D*00
2024-05-28T20:01:31.517000Z CNAV $GPGGA,200131.00,4131.440986,N,07040.337037,W,2,17,0.9,18.298,M,-30.109,M,57.0,0000*73
2024-05-28T20:01:32.279000Z CNAV $GPZDA,200132.00,28,05,2024,00,00*6F
2024-05-28T20:01:32.356000Z CNAV $GPRMC,200132.00,A,4131.440983,N,07040.337034,W,0.00,225.0,280524,,,D*71
2024-05-28T20:01:32.395000Z CNAV $GPVTG,225.0,T,,M,0.00,N,0.00,K,D*0D
2024-05-28T20:01:32.487000Z CNAV $GPGGA,200132.00,4131.440983,N,07040.337034,W,2,17,0.9,18.305,M,-30.109,M,58.0,0000*7C
2024-05-28T20:01:33.293000Z CNAV $GPZDA,200133.00,28,05,2024,00,00*6E
2024-05-28T20:01:33.370000Z CNAV $GPRMC,200133.00,A,4131.440981,N,07040.337032,W,0.00,153.4,280524,,,D*72
2024-05-28T20:01:33.409000Z CNAV $GPVTG,153.4,T,,M,0.00,N,0.01,K,D*0A
2024-05-28T20:01:33.501000Z CNAV $GPGGA,200133.00,4131.440981,N,07040.337032,W,2,17,0.9,18.314,M,-30.109,M,59.0,0000*78
2024-05-28T20:01:34.257000Z CNAV $GPZDA,200134.00,28,05,2024,00,00*69
2024-05-28T20:01:34.334000Z CNAV $GPRMC,200134.00,A,4131.440976,N,07040.337026,W,0.01,143.1,280524,,,D*7D
2024-05-28T20:01:34.373000Z CNAV $GPVTG,143.1,T,,M,0.01,N,0.02,K,D*0C
2024-05-28T20:01:34.465000Z CNAV $GPGGA,200134.00,4131.440976,N,07040.337026,W,2,17,0.9,18.324,M,-30.109,M,60.0,0000*7B
2024-05-28T20:01:35.273000Z CNAV $GPZDA,200135.00,28,05,2024,00,00*68
2024-05-28T20:01:35.350000Z CNAV $GPRMC,200135.00,A,4131.440980,N,07040.337023,W,0.01,104.0,280524,,,D*72
2024-05-28T20:01:35.390000Z CNAV $GPVTG,104.0,T,,M,0.01,N,0.01,K,D*0D
2024-05-28T20:01:35.481000Z CNAV $GPGGA,200135.00,4131.440980,N,07040.337023,W,2,17,0.9,18.323,M,-30.109,M,61.0,0000*70
2024-05-28T20:01:36.292000Z CNAV $GPZDA,200136.00,28,05,2024,00,00*6B
2024-05-28T20:01:36.368000Z CNAV $GPRMC,200136.00,A,4131.440984,N,07040.337023,W,0.01,45.0,280524,,,D*41
2024-05-28T20:01:36.406000Z CNAV $GPVTG,45.0,T,,M,0.01,N,0.01,K,D*39
2024-05-28T20:01:36.498000Z CNAV $GPGGA,200136.00,4131.440984,N,07040.337023,W,2,17,0.9,18.324,M,-30.109,M,62.0,0000*73
2024-05-28T20:01:37.268000Z CNAV $GPZDA,200137.00,28,05,2024,00,00*6A
2024-05-28T20:01:37.345000Z CNAV $GPRMC,200137.00,A,4131.440978,N,07040.337026,W,0.00,180.0,280524,,,D*7F
2024-05-28T20:01:37.385000Z CNAV $GPVTG,180.0,T,,M,0.00,N,0.01,K,D*00
2024-05-28T20:01:37.476000Z CNAV $GPGGA,200137.00,4131.440978,N,07040.337026,W,2,17,0.9,18.329,M,-30.109,M,63.0,0000*78
2024-05-28T20:01:38.283000Z CNAV $GPZDA,200138.00,28,05,2024,00,00*65
2024-05-28T20:01:38.360000Z CNAV $GPRMC,200138.00,A,4131.440976,N,07040.337030,W,0.01,213.7,280524,,,D*76
2024-05-28T20:01:38.400000Z CNAV $GPVTG,213.7,T,,M,0.01,N,0.01,K,D*0F
2024-05-28T20:01:38.491000Z CNAV $GPGGA,200138.00,4131.440976,N,07040.337030,W,2,17,0.9,18.323,M,-30.109,M,64.0,0000*73
2024-05-28T20:01:39.257000Z CNAV $GPZDA,200139.00,28,05,2024,00,00*64
2024-05-28T20:01:39.334000Z CNAV $GPRMC,200139.00,A,4131.440974,N,07040.337036,W,0.01,233.1,280524,,,D*77
2024-05-28T20:01:39.374000Z CNAV $GPVTG,233.1,T,,M,0.01,N,0.02,K,D*08
2024-05-28T20:01:39.465000Z CNAV $GPGGA,200139.00,4131.440974,N,07040.337036,W,2,17,0.9,18.325,M,-30.109,M,65.0,0000*71
2024-05-28T20:01:40.274000Z CNAV $GPZDA,200140.00,28,05,2024,00,00*6A
2024-05-28T20:01:40.351000Z CNAV $GPRMC,200140.00,A,4131.440975,N,07040.337043,W,0.01,261.9,280524,,,D*75
2024-05-28T20:01:40.391000Z CNAV $GPVTG,261.9,T,,M,0.01,N,0.02,K,D*07
2024-05-28T20:01:40.482000Z CNAV $GPGGA,200140.00,4131.440975,N,07040.337043,W,2,17,0.9,18.326,M,-30.109,M,66.0,0000*7C
2024-05-28T20:01:41.290000Z CNAV $GPZDA,200141.00,28,05,2024,00,00*6B
2024-05-28T20:01:41.367000Z CNAV $GPRMC,200141.00,A,4131.440978,N,07040.337044,W,0.01,281.3,280524,,,D*7A
2024-05-28T20:01:41.407000Z CNAV $GPVTG,281.3,T,,M,0.01,N,0.02,K,D*03
2024-05-28T20:01:41.498000Z CNAV $GPGGA,200141.00,4131.440978,N,07040.337044,W,2,17,0.9,18.322,M,-30.109,M,67.0,0000*72
2024-05-28T20:01:42.311000Z CNAV $GPZDA,200142.00,28,05,2024,00,00*68
2024-05-28T20:01:42.388000Z CNAV $GPRMC,200142.00,A,4131.440976,N,07040.337048,W,0.01,270.0,280524,,,D*76
2024-05-28T20:01:42.428000Z CNAV $GPVTG,270.0,T,,M,0.01,N,0.02,K,D*0E
2024-05-28T20:01:42.520000Z CNAV $GPGGA,200142.00,4131.440976,N,07040.337048,W,2,17,0.9,18.328,M,-30.109,M,68.0,0000*76
2024-05-28T20:01:43.275000Z CNAV $GPZDA,200143.00,28,05,2024,00,00*69
2024-05-28T20:01:43.352000Z CNAV $GPRMC,200143.00,A,4131.440976,N,07040.337045,W,0.00,243.4,280524,,,D*7F
2024-05-28T20:01:43.392000Z CNAV $GPVTG,243.4,T,,M,0.00,N,0.01,K,D*08
2024-05-28T20:01:43.484000Z CNAV $GPGGA,200143.00,4131.440976,N,07040.337045,W,2,17,0.9,18.323,M,-30.109,M,69.0,0000*70
2024-05-28T20:01:44.290000Z CNAV $GPZDA,200144.00,28,05,2024,00,00*6E
2024-05-28T20:01:44.367000Z CNAV $GPRMC,200144.00,A,4131.440970,N,07040.337043,W,0.01,180.0,280524,,,D*71
2024-05-28T20:01:44.407000Z CNAV $GPVTG,180.0,T,,M,0.01,N,0.01,K,D*01
2024-05-28T20:01:44.499000Z CNAV $GPGGA,200144.00,4131.440970,N,07040.337043,W,2,17,0.9,18.328,M,-30.109,M,70.0,0000*74
2024-05-28T20:01:45.310000Z CNAV $GPZDA,200145.00,28,05,2024,00,00*6F
2024-05-28T20:01:45.387000Z CNAV $GPRMC,200145.00,A,4131.440972,N,07040.337036,W,0.01,104.0,280524,,,D*7C
2024-05-28T20:01:45.427000Z CNAV $GPVTG,104.0,T,,M,0.01,N,0.01,K,D*0D
2024-05-28T20:01:45.519000Z CNAV $GPGGA,200145.00,4131.440972,N,07040.337036,W,2,17,0.9,18.331,M,-30.109,M,71.0,0000*7C
2024-05-28T20:01:46.275000Z CNAV $GPZDA,200146.00,28,05,2024,00,00*6C
2024-05-28T20:01:46.352000Z CNAV $GPRMC,200146.00,A,4131.440972,N,07040.337042,W,0.00,225.0,280524,,,D*7D
2024-05-28T20:01:46.392000Z CNAV $GPVTG,225.0,T,,M,0.00,N,0.00,K,D*0D
2024-05-28T20:01:46.483000Z CNAV $GPGGA,200146.00,4131.440972,N,07040.337042,W,2,17,0.9,18.333,M,-30.109,M,72.0,0000*7D
2024-05-28T20:01:47.290000Z CNAV $GPZDA,200147.00,28,05,2024,00,00*6D
2024-05-28T20:01:47.366000Z CNAV $GPRMC,200147.00,A,4131.440973,N,07040.337041,W,0.00,90.0,280524,,,D*42
2024-05-28T20:01:47.405000Z CNAV $GPVTG,90.0,T,,M,0.00,N,0.00,K,D*31
2024-05-28T20:01:47.497000Z CNAV $GPGGA,200147.00,4131.440973,N,07040.337041,W,2,17,0.9,18.326,M,-30.109,M,73.0,0000*7B
2024-05-28T20:01:48.312000Z CNAV $GPZDA,200148.00,28,05,2024,00,00*62
2024-05-28T20:01:48.389000Z CNAV $GPRMC,200148.00,A,4131.440975,N,07040.337046,W,0.01,303.7,280524,,,D*73
2024-05-28T20:01:48.429000Z CNAV $GPVTG,303.7,T,,M,0.01,N,0.01,K,D*0F
2024-05-28T20:01:48.521000Z CNAV $GPGGA,200148.00,4131.440975,N,07040.337046,W,2,17,0.9,18.331,M,-30.109,M,74.0,0000*74
2024-05-28T20:01:49.327000Z CNAV $GPZDA,200149.00,28,05,2024,00,00*63
2024-05-28T20:01:49.404000Z CNAV $GPRMC,200149.00,A,4131.440976,N,07040.337047,W,0.01,315.0,280524,,,D*70
2024-05-28T20:01:49.444000Z CNAV $GPVTG,315.0,T,,M,0.01,N,0.01,K,D*0F
2024-05-28T20:01:49.536000Z CNAV $GPGGA,200149.00,4131.440976,N,07040.337047,W,2,17,0.9,18.320,M,-30.109,M,75.0,0000*76
2024-05-28T20:01:50.293000Z CNAV $GPZDA,200150.00,28,05,2024,00,00*6B
2024-05-28T20:01:50.370000Z CNAV $GPRMC,200150.00,A,4131.440976,N,07040.337053,W,0.01,281.3,280524,,,D*72
2024-05-28T20:01:50.410000Z CNAV $GPVTG,281.3,T,,M,0.01,N,0.02,K,D*03
2024-05-28T20:01:50.502000Z CNAV $GPGGA,200150.00,4131.440976,N,07040.337053,W,2,17,0.9,18.321,M,-30.109,M,76.0,0000*79
2024-05-28T20:01:51.312000Z CNAV $GPZDA,200151.00,28,05,2024,00,00*6A
2024-05-28T20:01:51.389000Z CNAV $GPRMC,200151.00,A,4131.440986,N,07040.337054,W,0.01,336.8,280524,,,D*7D
2024-05-28T20:01:51.429000Z CNAV $GPVTG,336.8,T,,M,0.01,N,0.03,K,D*04
2024-05-28T20:01:51.521000Z CNAV $GPGGA,200151.00,4131.440986,N,07040.337054,W,2,17,0.9,18.319,M,-30.109,M,17.0,0000*7C
2024-05-28T20:01:52.278000Z CNAV $GPZDA,200152.00,28,05,2024,00,00*69
2024-05-28T20:01:52.355000Z CNAV $GPRMC,200152.00,A,4131.440991,N,07040.337054,W,0.02,346.0,280524,,,D*74
2024-05-28T20:01:52.395000Z CNAV $GPVTG,346.0,T,,M,0.02,N,0.03,K,D*08
2024-05-28T20:01:52.487000Z CNAV $GPGGA,200152.00,4131.440991,N,07040.337054,W,2,17,0.9,18.324,M,-30.109,M,18.0,0000*78
2024-05-28T20:01:53.292000Z CNAV $GPZDA,200153.00,28,05,2024,00,00*68
2024-05-28T20:01:53.367000Z CNAV $GPRMC,200153.00,A,4131.440989,N,07040.337051,W,0.01,0.0,280524,,,D*7B
2024-05-28T20:01:53.405000Z CNAV $GPVTG,0.0,T,,M,0.01,N,0.01,K,D*08
2024-05-28T20:01:53.497000Z CNAV $GPGGA,200153.00,4131.440989,N,07040.337051,W,2,17,0.9,18.323,M,-30.109,M,19.0,0000*73
2024-05-28T20:01:54.261000Z CNAV $GPZDA,200154.00,28,05,2024,00,00*6F
2024-05-28T20:01:54.339000Z CNAV $GPRMC,200154.00,A,4131.440984,N,07040.337046,W,0.01,108.4,280524,,,D*7A
2024-05-28T20:01:54.378000Z CNAV $GPVTG,108.4,T,,M,0.01,N,0.01,K,D*05
2024-05-28T20:01:54.470000Z CNAV $GPGGA,200154.00,4131.440984,N,07040.337046,W,2,17,0.9,18.330,M,-30.109,M,20.0,0000*77
2024-05-28T20:01:55.283000Z CNAV $GPZDA,200155.00,28,05,2024,00,00*6E
2024-05-28T20:01:55.359000Z CNAV $GPRMC,200155.00,A,4131.440985,N,07040.337044,W,0.01,90.0,280524,,,D*4C
2024-05-28T20:01:55.397000Z CNAV $GPVTG,90.0,T,,M,0.01,N,0.01,K,D*31
2024-05-28T20:01:55.489000Z CNAV $GPGGA,200155.00,4131.440985,N,07040.337044,W,2,17,0.9,18.315,M,-30.109,M,21.0,0000*73
2024-05-28T20:01:56.296000Z CNAV $GPZDA,200156.00,28,05,2024,00,00*6D
2024-05-28T20:01:56.372000Z CNAV $GPRMC,200156.00,A,4131.440986,N,07040.337038,W,0.01,78.7,280524,,,D*46
2024-05-28T20:01:56.411000Z CNAV $GPVTG,78.7,T,,M,0.01,N,0.02,K,D*33
2024-05-28T20:01:56.503000Z CNAV $GPGGA,200156.00,4131.440986,N,07040.337038,W,2,17,0.9,18.318,M,-30.109,M,22.0,0000*76
2024-05-28T20:01:57.315000Z CNAV $GPZDA,200157.00,28,05,2024,00,00*6C
2024-05-28T20:01:57.391000Z CNAV $GPRMC,200157.00,A,4131.440985,N,07040.337040,W,0.00,90.0,280524,,,D*4B
2024-05-28T20:01:57.429000Z CNAV $GPVTG,90.0,T,,M,0.00,N,0.01,K,D*30
2024-05-28T20:01:57.521000Z CNAV $GPGGA,200157.00,4131.440985,N,07040.337040,W,2,17,0.9,18.321,M,-30.109,M,23.0,0000*70
2024-05-28T20:01:58.281000Z CNAV $GPZDA,200158.00,28,05,2024,00,00*63
2024-05-28T20:01:58.358000Z CNAV $GPRMC,200158.00,A,4131.440984,N,07040.337050,W,0.01,256.0,280524,,,D*7D
2024-05-28T20:01:58.397000Z CNAV $GPVTG,256.0,T,,M,0.01,N,0.01,K,D*09
2024-05-28T20:01:58.489000Z CNAV $GPGGA,200158.00,4131.440984,N,07040.337050,W,2,17,0.9,18.327,M,-30.109,M,24.0,0000*7E
2024-05-28T20:01:59.297000Z CNAV $GPZDA,200159.00,28,05,2024,00,00*62
2024-05-28T20:01:59.374000Z CNAV $GPRMC,200159.00,A,4131.440986,N,07040.337058,W,0.01,278.1,280524,,,D*7B
2024-05-28T20:01:59.413000Z CNAV $GPVTG,278.1,T,,M,0.01,N,0.02,K,D*07
2024-05-28T20:01:59.505000Z CNAV $GPGGA,200159.00,4131.440986,N,07040.337058,W,2,17,0.9,18.334,M,-30.109,M,25.0,0000*76
2024-05-28T20:02:00.317000Z CNAV $GPZDA,200200.00,28,05,2024,00,00*6D
2024-05-28T20:02:00.394000Z CNAV $GPRMC,200200.00,A,4131.440987,N,07040.337064,W,0.01,278.1,280524,,,D*7A
2024-05-28T20:02:00.433000Z CNAV $GPVTG,278.1,T,,M,0.01,N,0.02,K,D*07
2024-05-28T20:02:00.525000Z CNAV $GPGGA,200200.00,4131.440987,N,07040.337064,W,2,17,0.9,18.342,M,-30.109,M,26.0,0000*75
2024-05-28T20:02:01.284000Z CNAV $GPZDA,200201.00,28,05,2024,00,00*6C
2024-05-28T20:02:01.361000Z CNAV $GPRMC,200201.00,A,4131.440986,N,07040.337061,W,0.01,270.0,280524,,,D*76
2024-05-28T20:02:01.400000Z CNAV $GPVTG,270.0,T,,M,0.01,N,0.01,K,D*0D
2024-05-28T20:02:01.492000Z CNAV $GPGGA,200201.00,4131.440986,N,07040.337061,W,2,17,0.9,18.343,M,-30.109,M,27.0,0000*70
2024-05-28T20:02:02.248000Z CNAV $GPZDA,200202.00,28,05,2024,00,00*6F
2024-05-28T20:02:02.325000Z CNAV $GPRMC,200202.00,A,4131.440984,N,07040.337053,W,0.00,116.6,280524,,,D*72
2024-05-28T20:02:02.364000Z CNAV $GPVTG,116.6,T,,M,0.00,N,0.01,K,D*09
2024-05-28T20:02:02.456000Z CNAV $GPGGA,200202.00,4131.440984,N,07040.337053,W,2,17,0.9,18.337,M,-30.109,M,28.0,0000*7C
2024-05-28T20:02:03.321000Z CNAV $GPZDA,200203.00,28,05,2024,00,00*6E
2024-05-28T20:02:03.398000Z CNAV $GPRMC,200203.00,A,4131.440983,N,07040.337047,W,0.01,104.0,280524,,,D*75
2024-05-28T20:02:03.437000Z CNAV $GPVTG,104.0,T,,M,0.01,N,0.01,K,D*0D
2024-05-28T20:02:03.529000Z CNAV $GPGGA,200203.00,4131.440983,N,07040.337047,W,2,17,0.9,18.339,M,-30.109,M,29.0,0000*70
2024-05-28T20:02:04.286000Z CNAV $GPZDA,200204.00,28,05,2024,00,00*69
2024-05-28T20:02:04.363000Z CNAV $GPRMC,200204.00,A,4131.440982,N,07040.337047,W,0.01,123.7,280524,,,D*71
2024-05-28T20:02:04.402000Z CNAV $GPVTG,123.7,T,,M,0.01,N,0.01,K,D*0F
2024-05-28T20:02:04.494000Z CNAV $GPGGA,200204.00,4131.440982,N,07040.337047,W,2,17,0.9,18.348,M,-30.109,M,30.0,0000*78
2024-05-28T20:02:05.301000Z CNAV $GPZDA,200205.00,28,05,2024,00,00*68
2024-05-28T20:02:05.378000Z CNAV $GPRMC,200205.00,A,4131.440983,N,07040.337053,W,0.00,225.0,280524,,,D*77
2024-05-28T20:02:05.418000Z CNAV $GPVTG,225.0,T,,M,0.00,N,0.00,K,D*0D
2024-05-28T20:02:05.509000Z CNAV $GPGGA,200205.00,4131.440983,N,07040.337053,W,2,17,0.9,18.347,M,-30.109,M,31.0,0000*73
2024-05-28T20:02:06.321000Z CNAV $GPZDA,200206.00,28,05,2024,00,00*6B
2024-05-28T20:02:06.398000Z CNAV $GPRMC,200206.00,A,4131.440985,N,07040.337060,W,0.01,284.0,280524,,,D*78
2024-05-28T20:02:06.437000Z CNAV $GPVTG,284.0,T,,M,0.01,N,0.01,K,D*06
2024-05-28T20:02:06.529000Z CNAV $GPGGA,200206.00,4131.440985,N,07040.337060,W,2,17,0.9,18.338,M,-30.109,M,32.0,0000*7D
2024-05-28T20:02:07.284000Z CNAV $GPZDA,200207.00,28,05,2024,00,00*6A
2024-05-28T20:02:07.361000Z CNAV $GPRMC,200207.00,A,4131.440986,N,07040.337067,W,0.01,279.5,280524,,,D*7A
2024-05-28T20:02:07.400000Z CNAV $GPVTG,279.5,T,,M,0.01,N,0.02,K,D*02
2024-05-28T20:02:07.492000Z CNAV $GPGGA,200207.00,4131.440986,N,07040.337067,W,2,17,0.9,18.337,M,-30.109,M,33.0,0000*76
2024-05-28T20:02:08.300000Z CNAV $GPZDA,200208.00,28,05,2024,00,00*65
2024-05-28T20:02:08.377000Z CNAV $GPRMC,200208.00,A,4131.440986,N,07040.337066,W,0.01,284.0,280524,,,D*73
2024-05-28T20:02:08.417000Z CNAV $GPVTG,284.0,T,,M,0.01,N,0.01,K,D*06
2024-05-28T20:02:08.508000Z CNAV $GPGGA,200208.00,4131.440986,N,07040.337066,W,2,17,0.9,18.340,M,-30.109,M,34.0,0000*7F
2024-05-28T20:02:09.217000Z CNAV $GPZDA,200209.00,28,05,2024,00,00*64
2024-05-28T20:02:09.293000Z CNAV $GPRMC,200209.00,A,4131.440989,N,07040.337058,W,0.01,33.7,280524,,,D*49
2024-05-28T20:02:09.332000Z CNAV $GPVTG,33.7,T,,M,0.01,N,0.01,K,D*3F
2024-05-28T20:02:09.423000Z CNAV $GPGGA,200209.00,4131.440989,N,07040.337058,W,2,17,0.9,18.338,M,-30.109,M,35.0,0000*72
2024-05-28T20:02:10.284000Z CNAV $GPZDA,200210.00,28,05,2024,00,00*6C
2024-05-28T20:02:10.361000Z CNAV $GPRMC,200210.00,A,4131.440983,N,07040.337056,W,0.01,135.0,280524,,,D*75
2024-05-28T20:02:10.401000Z CNAV $GPVTG,135.0,T,,M,0.01,N,0.01,K,D*0F
2024-05-28T20:02:10.492000Z CNAV $GPGGA,200210.00,4131.440983,N,07040.337056,W,2,17,0.9,18.337,M,-30.109,M,36.0,0000*72
2024-05-28T20:02:11.300000Z CNAV $GPZDA,200211.00,28,05,2024,00,00*6D
2024-05-28T20:02:11.377000Z CNAV $GPRMC,200211.00,A,4131.440977,N,07040.337051,W,0.01,141.3,280524,,,D*78
2024-05-28T20:02:11.417000Z CNAV $GPVTG,141.3,T,,M,0.01,N,0.02,K,D*0C
2024-05-28T20:02:11.508000Z CNAV $GPGGA,200211.00,4131.440977,N,07040.337051,W,2,17,0.9,18.350,M,-30.109,M,37.0,0000*7F
2024-05-28T20:02:12.269000Z CNAV $GPZDA,200212.00,28,05,2024,00,00*6E
2024-05-28T20:02:12.346000Z CNAV $GPRMC,200212.00,A,4131.440973,N,07040.337052,W,0.01,161.6,280524,,,D*7B
2024-05-28T20:02:12.386000Z CNAV $GPVTG,161.6,T,,M,0.01,N,0.02,K,D*0B
2024-05-28T20:02:12.477000Z CNAV $GPGGA,200212.00,4131.440973,N,07040.337052,W,2,17,0.9,18.362,M,-30.109,M,38.0,0000*75
2024-05-28T20:02:13.284000Z CNAV $GPZDA,200213.00,28,05,2024,00,00*6F
2024-05-28T20:02:13.361000Z CNAV $GPRMC,200213.00,A,4131.440977,N,07040.337055,W,0.00,180.0,280524,,,D*71
2024-05-28T20:02:13.401000Z CNAV $GPVTG,180.0,T,,M,0.00,N,0.00,K,D*01
2024-05-28T20:02:13.493000Z CNAV $GPGGA,200213.00,4131.440977,N,07040.337055,W,2,17,0.9,18.350,M,-30.109,M,39.0,0000*77
2024-05-28T20:02:14.250000Z CNAV $GPZDA,200214.00,28,05,2024,00,00*68
2024-05-28T20:02:14.327000Z CNAV $GPRMC,200214.00,A,4131.440983,N,07040.337064,W,0.01,301.0,280524,,,D*75
2024-05-28T20:02:14.367000Z CNAV $GPVTG,301.0,T,,M,0.01,N,0.02,K,D*09
2024-05-28T20:02:14.459000Z CNAV $GPGGA,200214.00,4131.440983,N,07040.337064,W,2,17,0.9,18.359,M,-30.109,M,40.0,0000*7E
2024-05-28T20:02:15.271000Z CNAV $GPZDA,200215.00,28,05,2024,00,00*69
2024-05-28T20:02:15.348000Z CNAV $GPRMC,200215.00,A,4131.440987,N,07040.337071,W,0.02,305.5,280524,,,D*76
2024-05-28T20:02:15.388000Z CNAV $GPVTG,305.5,T,,M,0.02,N,0.03,K,D*0A
2024-05-28T20:02:15.480000Z CNAV $GPGGA,200215.00,4131.440987,N,07040.337071,W,2,17,0.9,18.350,M,-30.109,M,41.0,0000*77
2024-05-28T20:02:16.286000Z CNAV $GPZDA,200216.00,28,05,2024,00,00*6A
2024-05-28T20:02:16.363000Z CNAV $GPRMC,200216.00,A,4131.440987,N,07040.337071,W,0.01,306.9,280524,,,D*79
2024-05-28T20:02:16.403000Z CNAV $GPVTG,306.9,T,,M,0.01,N,0.02,K,D*07
2024-05-28T20:02:16.495000Z CNAV $GPGGA,200216.00,4131.440987,N,07040.337071,W,2,17,0.9,18.347,M,-30.109,M,42.0,0000*71
2024-05-28T20:02:17.301000Z CNAV $GPZDA,200217.00,28,05,2024,00,00*6B
2024-05-28T20:02:17.378000Z CNAV $GPRMC,200217.00,A,4131.440982,N,07040.337070,W,0.00,243.4,280524,,,D*70
2024-05-28T20:02:17.418000Z CNAV $GPVTG,243.4,T,,M,0.00,N,0.01,K,D*08
2024-05-28T20:02:17.510000Z CNAV $GPGGA,200217.00,4131.440982,N,07040.337070,W,2,17,0.9,18.354,M,-30.109,M,43.0,0000*77
2024-05-28T20:02:18.271000Z CNAV $GPZDA,200218.00,28,05,2024,00,00*64
2024-05-28T20:02:18.348000Z CNAV $GPRMC,200218.00,A,4131.440982,N,07040.337062,W,0.01,108.4,280524,,,D*71
2024-05-28T20:02:18.388000Z CNAV $GPVTG,108.4,T,,M,0.01,N,0.01,K,D*05
2024-05-28T20:02:18.480000Z CNAV $GPGGA,200218.00,4131.440982,N,07040.337062,W,2,17,0.9,18.365,M,-30.109,M,44.0,0000*7E
2024-05-28T20:02:19.286000Z CNAV $GPZDA,200219.00,28,05,2024,00,00*65
2024-05-28T20:02:19.363000Z CNAV $GPRMC,200219.00,A,4131.440981,N,07040.337055,W,0.01,101.3,280524,,,D*79
2024-05-28T20:02:19.403000Z CNAV $GPVTG,101.3,T,,M,0.01,N,0.02,K,D*08
2024-05-28T20:02:19.495000Z CNAV $GPGGA,200219.00,4131.440981,N,07040.337055,W,2,17,0.9,18.370,M,-30.109,M,45.0,0000*7D
2024-05-28T20:02:20.250000Z CNAV $GPZDA,200220.00,28,05,2024,00,00*6F
2024-05-28T20:02:20.328000Z CNAV $GPRMC,200220.00,A,4131.440980,N,07040.337054,W,0.01,116.6,280524,,,D*70
2024-05-28T20:02:20.367000Z CNAV $GPVTG,116.6,T,,M,0.01,N,0.02,K,D*0B
2024-05-28T20:02:20.459000Z CNAV $GPGGA,200220.00,4131.440980,N,07040.337054,W,2,17,0.9,18.375,M,-30.109,M,46.0,0000*71
2024-05-28T20:02:21.216000Z CNAV $GPZDA,200221.00,28,05,2024,00,00*6E
2024-05-28T20:02:21.292000Z CNAV $GPRMC,200221.00,A,4131.440985,N,07040.337052,W,0.01,45.0,280524,,,D*43
2024-05-28T20:02:21.330000Z CNAV $GPVTG,45.0,T,,M,0.01,N,0.01,K,D*39
2024-05-28T20:02:21.422000Z CNAV $GPGGA,200221.00,4131.440985,N,07040.337052,W,2,17,0.9,18.363,M,-30.109,M,47.0,0000*75
2024-05-28T20:02:22.287000Z CNAV $GPZDA,200222.00,28,05,2024,00,00*6D
2024-05-28T20:02:22.362000Z CNAV $GPRMC,200222.00,A,4131.440989,N,07040.337055,W,0.01,0.0,280524,,,D*7A
2024-05-28T20:02:22.399000Z CNAV $GPVTG,0.0,T,,M,0.01,N,0.01,K,D*08
2024-05-28T20:02:22.491000Z CNAV $GPGGA,200222.00,4131.440989,N,07040.337055,W,2,17,0.9,18.362,M,-30.109,M,48.0,0000*73
2024-05-28T20:02:23.302000Z CNAV $GPZDA,200223.00,28,05,2024,00,00*6C
2024-05-28T20:02:23.379000Z CNAV $GPRMC,200223.00,A,4131.440989,N,07040.337062,W,0.01,315.0,280524,,,D*78
2024-05-28T20:02:23.419000Z CNAV $GPVTG,315.0,T,,M,0.01,N,0.01,K,D*0F
2024-05-28T20:02:23.511000Z CNAV $GPGGA,200223.00,4131.440989,N,07040.337062,W,2,17,0.9,18.357,M,-30.109,M,49.0,0000*71
2024-05-28T20:02:24.317000Z CNAV $GPZDA,200224.00,28,05,2024,00,00*6B
2024-05-28T20:02:24.394000Z CNAV $GPRMC,200224.00,A,4131.440988,N,07040.337067,W,0.01,281.3,280524,,,D*74
2024-05-28T20:02:24.434000Z CNAV $GPVTG,281.3,T,,M,0.01,N,0.02,K,D*03
2024-05-28T20:02:24.526000Z CNAV $GPGGA,200224.00,4131.440988,N,07040.337067,W,2,17,0.9,18.352,M,-30.109,M,50.0,0000*7F
2024-05-28T20:02:25.287000Z CNAV $GPZDA,200225.00,28,05,2024,00,00*6A
2024-05-28T20:02:25.364000Z CNAV $GPRMC,200225.00,A,4131.440988,N,07040.337066,W,0.01,288.4,280524,,,D*7A
2024-05-28T20:02:25.404000Z CNAV $GPVTG,288.4,T,,M,0.01,N,0.01,K,D*0E
2024-05-28T20:02:25.496000Z CNAV $GPGGA,200225.00,4131.440988,N,07040.337066,W,2,17,0.9,18.353,M,-30.109,M,51.0,0000*7F
2024-05-28T20:02:26.304000Z CNAV $GPZDA,200226.00,28,05,2024,00,00*69
2024-05-28T20:02:26.380000Z CNAV $GPRMC,200226.00,A,4131.440987,N,07040.337064,W,0.00,90.0,280524,,,D*4A
2024-05-28T20:02:26.418000Z CNAV $GPVTG,90.0,T,,M,0.00,N,0.00,K,D*31
2024-05-28T20:02:26.509000Z CNAV $GPGGA,200226.00,4131.440987,N,07040.337064,W,2,17,0.9,18.352,M,-30.109,M,52.0,0000*73
2024-05-28T20:02:27.216000Z CNAV $GPZDA,200227.00,28,05,2024,00,00*68
2024-05-28T20:02:27.293000Z CNAV $GPRMC,200227.00,A,4131.440982,N,07040.337060,W,0.01,153.4,280524,,,D*71
2024-05-28T20:02:27.332000Z CNAV $GPVTG,153.4,T,,M,0.01,N,0.02,K,D*08
2024-05-28T20:02:27.424000Z CNAV $GPGGA,200227.00,4131.440982,N,07040.337060,W,2,17,0.9,18.356,M,-30.109,M,53.0,0000*76
2024-05-28T20:02:28.288000Z CNAV $GPZDA,200228.00,28,05,2024,00,00*67
2024-05-28T20:02:28.365000Z CNAV $GPRMC,200228.00,A,4131.440979,N,07040.337053,W,0.01,135.0,280524,,,D*7E
2024-05-28T20:02:28.404000Z CNAV $GPVTG,135.0,T,,M,0.01,N,0.02,K,D*0C
2024-05-28T20:02:28.496000Z CNAV $GPGGA,200228.00,4131.440979,N,07040.337053,W,2,17,0.9,18.356,M,-30.109,M,54.0,0000*7A
2024-05-28T20:02:29.252000Z CNAV $GPZDA,200229.00,28,05,2024,00,00*66
2024-05-28T20:02:29.329000Z CNAV $GPRMC,200229.00,A,4131.440975,N,07040.337053,W,0.01,149.0,280524,,,D*78
2024-05-28T20:02:29.368000Z CNAV $GPVTG,149.0,T,,M,0.01,N,0.02,K,D*07
2024-05-28T20:02:29.460000Z CNAV $GPGGA,200229.00,4131.440975,N,07040.337053,W,2,17,0.9,18.363,M,-30.109,M,55.0,0000*70
2024-05-28T20:02:30.267000Z CNAV $GPZDA,200230.00,28,05,2024,00,00*6E
2024-05-28T20:02:30.344000Z CNAV $GPRMC,200230.00,A,4131.440979,N,07040.337052,W,0.00,116.6,280524,,,D*70
2024-05-28T20:02:30.383000Z CNAV $GPVTG,116.6,T,,M,0.00,N,0.01,K,D*09
2024-05-28T20:02:30.475000Z CNAV $GPGGA,200230.00,4131.440979,N,07040.337052,W,2,17,0.9,18.363,M,-30.109,M,56.0,0000*76
2024-05-28T20:02:31.286000Z CNAV $GPZDA,200231.00,28,05,2024,00,00*6F
2024-05-28T20:02:31.363000Z CNAV $GPRMC,200231.00,A,4131.440983,N,07040.337057,W,0.00,333.4,280524,,,D*76
2024-05-28T20:02:31.402000Z CNAV $GPVTG,333.4,T,,M,0.00,N,0.01,K,D*0E
2024-05-28T20:02:31.494000Z CNAV $GPGGA,200231.00,4131.440983,N,07040.337057,W,2,17,0.9,18.370,M,-30.109,M,57.0,0000*74
2024-05-28T20:02:32.303000Z CNAV $GPZDA,200232.00,28,05,2024,00,00*6C
2024-05-28T20:02:32.380000Z CNAV $GPRMC,200232.00,A,4131.440988,N,07040.337061,W,0.01,329.0,280524,,,D*75
2024-05-28T20:02:32.419000Z CNAV $GPVTG,329.0,T,,M,0.01,N,0.02,K,D*03
2024-05-28T20:02:32.511000Z CNAV $GPGGA,200232.00,4131.440988,N,07040.337061,W,2,17,0.9,18.365,M,-30.109,M,58.0,0000*72
2024-05-28T20:02:33.267000Z CNAV $GPZDA,200233.00,28,05,2024,00,00*6D
2024-05-28T20:02:33.344000Z CNAV $GPRMC,200233.00,A,4131.440984,N,07040.337062,W,0.00,270.0,280524,,,D*77
2024-05-28T20:02:33.383000Z CNAV $GPVTG,270.0,T,,M,0.00,N,0.01,K,D*0C
2024-05-28T20:02:33.475000Z CNAV $GPGGA,200233.00,4131.440984,N,07040.337062,W,2,17,0.9,18.360,M,-30.109,M,59.0,0000*78
2024-05-28T20:02:34.289000Z CNAV $GPZDA,200234.00,28,05,2024,00,00*6A
2024-05-28T20:02:34.366000Z CNAV $GPRMC,200234.00,A,4131.440978,N,07040.337063,W,0.01,206.6,280524,,,D*74
2024-05-28T20:02:34.405000Z CNAV $GPVTG,206.6,T,,M,0.01,N,0.02,K,D*09
2024-05-28T20:02:34.497000Z CNAV $GPGGA,200234.00,4131.440978,N,07040.337063,W,2,17,0.9,18.354,M,-30.109,M,60.0,0000*70
2024-05-28T20:02:35.304000Z CNAV $GPZDA,200235.00,28,05,2024,00,00*6B
2024-05-28T20:02:35.381000Z CNAV $GPRMC,200235.00,A,4131.440974,N,07040.337060,W,0.01,180.0,280524,,,D*71
2024-05-28T20:02:35.420000Z CNAV $GPVTG,180.0,T,,M,0.01,N,0.02,K,D*02
2024-05-28T20:02:35.511000Z CNAV $GPGGA,200235.00,4131.440974,N,07040.337060,W,2,17,0.9,18.359,M,-30.109,M,61.0,0000*72
2024-05-28T20:02:36.268000Z CNAV $GPZDA,200236.00,28,05,2024,00,00*68
2024-05-28T20:02:36.345000Z CNAV $GPRMC,200236.00,A,4131.440974,N,07040.337054,W,0.01,135.0,280524,,,D*7B
2024-05-28T20:02:36.384000Z CNAV $GPVTG,135.0,T,,M,0.01,N,0.01,K,D*0F
2024-05-28T20:02:36.476000Z CNAV $GPGGA,200236.00,4131.440974,N,07040.337054,W,2,17,0.9,18.368,M,-30.109,M,62.0,0000*77
2024-05-28T20:02:37.288000Z CNAV $GPZDA,200237.00,28,05,2024,00,00*69
2024-05-28T20:02:37.365000Z CNAV $GPRMC,200237.00,A,4131.440972,N,07040.337053,W,0.01,135.0,280524,,,D*7B
2024-05-28T20:02:37.405000Z CNAV $GPVTG,135.0,T,,M,0.01,N,0.01,K,D*0F
2024-05-28T20:02:37.496000Z CNAV $GPGGA,200237.00,4131.440972,N,07040.337053,W,2,17,0.9,18.375,M,-30.109,M,63.0,0000*7A
2024-05-28T20:02:38.303000Z CNAV $GPZDA,200238.00,28,05,2024,00,00*66
2024-05-28T20:02:38.380000Z CNAV $GPRMC,200238.00,A,4131.440974,N,07040.337046,W,0.01,101.3,280524,,,D*72
2024-05-28T20:02:38.420000Z CNAV $GPVTG,101.3,T,,M,0.01,N,0.02,K,D*08
2024-05-28T20:02:38.511000Z CNAV $GPGGA,200238.00,4131.440974,N,07040.337046,W,2,17,0.9,18.368,M,-30.109,M,64.0,0000*7C
2024-05-28T20:02:39.267000Z CNAV $GPZDA,200239.00,28,05,2024,00,00*67
2024-05-28T20:02:39.343000Z CNAV $GPRMC,200239.00,A,4131.440975,N,07040.337043,W,0.01,90.0,280524,,,D*4D
2024-05-28T20:02:39.381000Z CNAV $GPVTG,90.0,T,,M,0.01,N,0.02,K,D*32
2024-05-28T20:02:39.473000Z CNAV $GPGGA,200239.00,4131.440975,N,07040.337043,W,2,17,0.9,18.367,M,-30.109,M,65.0,0000*77
2024-05-28T20:02:40.240000Z CNAV $GPZDA,200240.00,28,05,2024,00,00*69
2024-05-28T20:02:40.316000Z CNAV $GPRMC,200240.00,A,4131.440974,N,07040.337043,W,0.01,90.0,280524,,,D*42
2024-05-28T20:02:40.355000Z CNAV $GPVTG,90.0,T,,M,0.01,N,0.01,K,D*31
2024-05-28T20:02:40.446000Z CNAV $GPGGA,200240.00,4131.440974,N,07040.337043,W,2,17,0.9,18.372,M,-30.109,M,66.0,0000*7F
2024-05-28T20:02:41.255000Z CNAV $GPZDA,200241.00,28,05,2024,00,00*68
2024-05-28T20:02:41.331000Z CNAV $GPRMC,200241.00,A,4131.440976,N,07040.337039,W,0.01,76.0,280524,,,D*44
2024-05-28T20:02:41.370000Z CNAV $GPVTG,76.0,T,,M,0.01,N,0.01,K,D*39
2024-05-28T20:02:41.461000Z CNAV $GPGGA,200241.00,4131.440976,N,07040.337039,W,2,17,0.9,18.374,M,-30.109,M,67.0,0000*76
2024-05-28T20:02:42.270000Z CNAV $GPZDA,200242.00,28,05,2024,00,00*6B
2024-05-28T20:02:42.346000Z CNAV $GPRMC,200242.00,A,4131.440982,N,07040.337036,W,0.01,45.0,280524,,,D*43
2024-05-28T20:02:42.384000Z CNAV $GPVTG,45.0,T,,M,0.01,N,0.02,K,D*3A
2024-05-28T20:02:42.476000Z CNAV $GPGGA,200242.00,4131.440982,N,07040.337036,W,2,17,0.9,18.368,M,-30.109,M,68.0,0000*73
2024-05-28T20:02:43.251000Z CNAV $GPZDA,200243.00,28,05,2024,00,00*6A
2024-05-28T20:02:43.327000Z CNAV $GPRMC,200243.00,A,4131.440985,N,07040.337030,W,0.01,50.2,280524,,,D*45
2024-05-28T20:02:43.366000Z CNAV $GPVTG,50.2,T,,M,0.01,N,0.03,K,D*3D
2024-05-28T20:02:43.457000Z CNAV $GPGGA,200243.00,4131.440985,N,07040.337030,W,2,17,0.9,18.368,M,-30.109,M,69.0,0000*72
2024-05-28T20:02:44.269000Z CNAV $GPZDA,200244.00,28,05,2024,00,00*6D
