R/V Armstrong CSV data file  (Time stamps are GMT)
Current time zone: GMT Standard Time (GMT+0)
Data timestamps are GMT
****
GPS	2024/09/16	00:00:01	$GPGGA,000002.00,7222.361104,N,00212.889049,W,2,12,0.7,84.161,M,-13.212,M,4.0,0123*44
GPS	2024/09/16	00:01:01	$GPGGA,000102.00,7222.476572,N,00213.278027,W,2,12,0.7,83.527,M,-13.215,M,4.0,0123*4A
GPS	2024/09/16	00:02:01	$GPGGA,000202.00,7222.591400,N,00213.666886,W,2,12,0.7,84.051,M,-13.217,M,4.0,0123*4C
GPS	2024/09/16	00:03:01	$GPGGA,000302.00,7222.706240,N,00214.052959,W,2,12,0.7,82.993,M,-13.220,M,4.0,0123*43
GPS	2024/09/16	00:04:01	$GPGGA,000402.00,7222.814804,N,00214.426441,W,2,12,0.7,83.096,M,-13.222,M,4.0,0123*4E
GPS	2024/09/16	00:05:01	$GPGGA,000501.00,7222.898826,N,00214.713639,W,2,12,0.7,84.259,M,-13.224,M,3.0,0123*47
GPS	2024/09/16	00:06:01	$GPGGA,000602.00,7222.970461,N,00214.908464,W,2,12,0.7,82.846,M,-13.226,M,4.0,0123*46
GPS	2024/09/16	00:07:01	$GPGGA,000702.00,7222.996654,N,00214.865437,W,2,11,0.8,81.835,M,-13.226,M,22.0,0123*78
GPS	2024/09/16	00:08:01	$GPGGA,000802.00,7222.988227,N,00214.797382,W,2,11,0.7,83.166,M,-13.226,M,4.0,0123*45
GPS	2024/09/16	00:09:01	$GPGGA,000902.00,7222.981449,N,00214.768019,W,2,12,0.7,84.121,M,-13.226,M,4.0,0123*45
GPS	2024/09/16	00:10:01	$GPGGA,001002.00,7222.977338,N,00214.749699,W,2,11,0.7,83.665,M,-13.226,M,4.0,0123*4B
GPS	2024/09/16	00:11:01	$GPGGA,001102.00,7222.973941,N,00214.758489,W,2,11,0.7,83.006,M,-13.226,M,4.0,0123*4A
GPS	2024/09/16	00:12:01	$GPGGA,001202.00,7222.972850,N,00214.757504,W,2,11,0.7,83.118,M,-13.226,M,4.0,0123*4C
GPS	2024/09/16	00:13:01	$GPGGA,001302.00,7222.974628,N,00214.759888,W,2,11,0.7,83.235,M,-13.226,M,4.0,0123*41
GPS	2024/09/16	00:14:01	$GPGGA,001402.00,7222.976193,N,00214.753212,W,2,11,0.7,83.106,M,-13.226,M,4.0,0123*43
GPS	2024/09/16	00:15:01	$GPGGA,001502.00,7222.977892,N,00214.752024,W,2,11,0.7,82.908,M,-13.226,M,5.0,0123*4B
GPS	2024/09/16	00:16:01	$GPGGA,001601.00,7222.977871,N,00214.747868,W,2,11,0.7,82.597,M,-13.226,M,5.0,0123*48
GPS	2024/09/16	00:17:01	$GPGGA,001702.00,7222.977678,N,00214.743517,W,2,11,0.7,82.776,M,-13.226,M,5.0,0123*41
GPS	2024/09/16	00:18:01	$GPGGA,001801.00,7222.979667,N,00214.754141,W,2,11,0.7,83.536,M,-13.226,M,5.0,0123*4B
GPS	2024/09/16	00:19:01	$GPGGA,001902.00,7222.979010,N,00214.755403,W,2,11,0.7,82.439,M,-13.226,M,5.0,0123*42
GPS	2024/09/16	00:20:01	$GPGGA,002001.00,7222.978486,N,00214.748656,W,2,11,0.7,81.962,M,-13.226,M,5.0,0123*4F
GPS	2024/09/16	00:21:01	$GPGGA,002102.00,7222.978953,N,00214.748867,W,2,11,0.7,82.096,M,-13.226,M,5.0,0123*45
GPS	2024/09/16	00:22:01	$GPGGA,002202.00,7222.977807,N,00214.748612,W,2,11,0.7,82.532,M,-13.226,M,5.0,0123*4E
GPS	2024/09/16	00:23:01	$GPGGA,002301.00,7222.976920,N,00214.750631,W,2,11,0.7,83.561,M,-13.226,M,5.0,0123*46
GPS	2024/09/16	00:24:01	$GPGGA,002402.00,7222.976792,N,00214.752690,W,2,11,0.7,83.447,M,-13.226,M,5.0,0123*49
GPS	2024/09/16	00:25:01	$GPGGA,002502.00,7222.975763,N,00214.750019,W,2,11,0.7,81.655,M,-13.226,M,5.0,0123*43
GPS	2024/09/16	00:26:01	$GPGGA,002602.00,7222.977361,N,00214.753309,W,2,10,0.7,81.625,M,-13.226,M,5.0,0123*43
GPS	2024/09/16	00:27:01	$GPGGA,002702.00,7222.976284,N,00214.752526,W,2,10,0.9,82.636,M,-13.226,M,5.0,0123*4C
GPS	2024/09/16	00:28:01	$GPGGA,002802.00,7222.976562,N,00214.750381,W,2,10,0.9,81.237,M,-13.226,M,5.0,0123*43
GPS	2024/09/16	00:29:01	$GPGGA,002902.00,7222.976456,N,00214.748561,W,2,10,0.9,81.920,M,-13.226,M,5.0,0123*48
GPS	2024/09/16	00:30:01	$GPGGA,003002.00,7222.977572,N,00214.747904,W,2,10,0.9,80.319,M,-13.226,M,5.0,0123*47
GPS	2024/09/16	00:31:01	$GPGGA,003102.00,7222.976860,N,00214.745699,W,2,10,0.9,81.765,M,-13.226,M,5.0,0123*4E
GPS	2024/09/16	00:32:01	$GPGGA,003202.00,7222.975234,N,00214.746604,W,2,10,0.9,82.581,M,-13.226,M,5.0,0123*49
GPS	2024/09/16	00:33:01	$GPGGA,003302.00,7222.976040,N,00214.747843,W,2,09,0.9,81.009,M,-13.226,M,5.0,0123*48
GPS	2024/09/16	00:34:01	$GPGGA,003402.00,7222.974291,N,00214.743306,W,2,09,0.9,81.739,M,-13.226,M,5.0,0123*49
GPS	2024/09/16	00:35:01	$GPGGA,003501.00,7222.976460,N,00214.739266,W,2,09,0.9,82.653,M,-13.226,M,5.0,0123*45
GPS	2024/09/16	00:36:01	$GPGGA,003602.00,7222.977269,N,00214.734144,W,2,10,0.8,82.441,M,-13.226,M,4.0,0123*4C
GPS	2024/09/16	00:37:01	$GPGGA,003701.00,7222.978506,N,00214.727996,W,2,10,0.8,82.062,M,-13.227,M,5.0,0123*4F
GPS	2024/09/16	00:38:01	$GPGGA,003802.00,7222.979690,N,00214.719260,W,2,10,0.8,82.876,M,-13.227,M,5.0,0123*4C
GPS	2024/09/16	00:39:01	$GPGGA,003902.00,7222.977879,N,00214.711435,W,2,09,0.9,83.498,M,-13.227,M,5.0,0123*40
GPS	2024/09/16	00:40:01	$GPGGA,004002.00,7222.979239,N,00214.714745,W,2,10,0.8,82.473,M,-13.227,M,5.0,0123*42
GPS	2024/09/16	00:41:01	$GPGGA,004102.00,7222.980717,N,00214.720678,W,2,09,0.9,83.802,M,-13.227,M,4.0,0123*47
GPS	2024/09/16	00:42:01	$GPGGA,004202.00,7222.979974,N,00214.725219,W,2,09,0.9,83.159,M,-13.227,M,5.0,0123*49
GPS	2024/09/16	00:43:01	$GPGGA,004302.00,7222.978968,N,00214.728787,W,2,09,0.9,82.496,M,-13.227,M,6.0,0123*4F
GPS	2024/09/16	00:44:01	$GPGGA,004402.00,7222.979378,N,00214.731942,W,2,09,0.9,83.478,M,-13.227,M,5.0,0123*4F
GPS	2024/09/16	00:45:01	$GPGGA,004502.00,7222.979726,N,00214.730399,W,2,09,0.9,82.230,M,-13.227,M,5.0,0123*47
GPS	2024/09/16	00:46:01	$GPGGA,004602.00,7222.982504,N,00214.724981,W,2,09,0.9,81.538,M,-13.227,M,5.0,0123*48
GPS	2024/09/16	00:47:01	$GPGGA,004702.00,7222.982845,N,00214.715459,W,2,09,0.9,81.467,M,-13.227,M,5.0,0123*40
GPS	2024/09/16	00:48:01	$GPGGA,004802.00,7222.982249,N,00214.707735,W,2,08,0.9,82.404,M,-13.227,M,5.0,0123*44
GPS	2024/09/16	00:49:01	$GPGGA,004902.00,7222.982739,N,00214.705862,W,2,09,0.9,81.588,M,-13.227,M,5.0,0123*4F
GPS	2024/09/16	00:50:01	$GPGGA,005002.00,7222.983527,N,00214.708374,W,2,09,0.9,84.074,M,-13.227,M,5.0,0123*49
GPS	2024/09/16	00:51:01	$GPGGA,005101.00,7222.981924,N,00214.708769,W,2,09,0.9,81.940,M,-13.227,M,4.0,0123*44
GPS	2024/09/16	00:52:01	$GPGGA,005202.00,7222.982630,N,00214.713937,W,2,09,0.9,82.681,M,-13.227,M,5.0,0123*42
GPS	2024/09/16	00:53:01	$GPGGA,005301.00,7222.979756,N,00214.716610,W,2,08,1.0,84.586,M,-13.227,M,4.0,0123*40
GPS	2024/09/16	00:54:01	$GPGGA,005402.00,7222.978062,N,00214.720867,W,2,09,0.9,83.653,M,-13.227,M,5.0,0123*4A
GPS	2024/09/16	00:55:01	$GPGGA,005502.00,7222.979684,N,00214.720646,W,2,09,0.9,83.588,M,-13.227,M,5.0,0123*4C
GPS	2024/09/16	00:56:01	$GPGGA,005602.00,7222.981096,N,00214.719271,W,2,09,0.9,81.496,M,-13.227,M,5.0,0123*4B
GPS	2024/09/16	00:57:01	$GPGGA,005702.00,7222.977992,N,00214.713056,W,2,08,1.0,82.626,M,-13.227,M,5.0,0123*40
GPS	2024/09/16	00:58:01	$GPGGA,005802.00,7222.979751,N,00214.709673,W,2,09,0.9,81.190,M,-13.227,M,6.0,0123*49
GPS	2024/09/16	00:59:01	$GPGGA,005902.00,7222.981223,N,00214.707811,W,2,09,0.9,81.709,M,-13.227,M,5.0,0123*4E
GPS	2024/09/16	01:00:01	$GPGGA,010002.00,7222.981921,N,00214.701831,W,2,09,0.9,81.376,M,-13.227,M,5.0,0123*42
GPS	2024/09/16	01:01:01	$GPGGA,010102.00,7222.983613,N,00214.694528,W,2,09,0.9,81.727,M,-13.227,M,5.0,0123*47
GPS	2024/09/16	01:02:01	$GPGGA,010202.00,7222.983874,N,00214.687047,W,2,09,0.9,82.586,M,-13.227,M,5.0,0123*4F
GPS	2024/09/16	01:03:01	$GPGGA,010302.00,7222.981902,N,00214.678387,W,2,09,0.9,82.008,M,-13.227,M,5.0,0123*40
GPS	2024/09/16	01:04:01	$GPGGA,010402.00,7222.982509,N,00214.680637,W,2,09,0.8,83.198,M,-13.227,M,4.0,0123*43
GPS	2024/09/16	01:05:01	$GPGGA,010502.00,7222.984087,N,00214.685534,W,2,09,0.8,82.181,M,-13.227,M,4.0,0123*4B
GPS	2024/09/16	01:06:01	$GPGGA,010602.00,7222.981382,N,00214.687601,W,2,09,0.8,82.572,M,-13.227,M,4.0,0123*44
GPS	2024/09/16	01:07:01	$GPGGA,010701.00,7222.982392,N,00214.690844,W,2,08,1.0,80.886,M,-13.227,M,3.0,0123*46
GPS	2024/09/16	01:08:01	$GPGGA,010802.00,7222.983514,N,00214.689548,W,2,08,1.0,81.068,M,-13.227,M,4.0,0123*44
GPS	2024/09/16	01:09:01	$GPGGA,010902.00,7222.983689,N,00214.689979,W,2,09,0.8,80.935,M,-13.227,M,4.0,0123*44
GPS	2024/09/16	01:10:01	$GPGGA,011002.00,7222.985952,N,00214.686490,W,2,09,0.8,81.154,M,-13.227,M,4.0,0123*48
GPS	2024/09/16	01:11:01	$GPGGA,011101.00,7222.982218,N,00214.680321,W,2,09,0.8,81.208,M,-13.227,M,3.0,0123*4E
GPS	2024/09/16	01:12:01	$GPGGA,011202.00,7222.983641,N,00214.681554,W,2,08,0.9,84.271,M,-13.227,M,4.0,0123*4E
GPS	2024/09/16	01:13:01	$GPGGA,011302.00,7222.982170,N,00214.678853,W,2,09,0.8,84.642,M,-13.227,M,4.0,0123*43
GPS	2024/09/16	01:14:01	$GPGGA,011401.00,7222.982654,N,00214.682204,W,2,09,0.8,84.757,M,-13.227,M,3.0,0123*49
GPS	2024/09/16	01:15:01	$GPGGA,011502.00,7222.984254,N,00214.692165,W,2,09,0.8,84.690,M,-13.227,M,4.0,0123*41
GPS	2024/09/16	01:16:01	$GPGGA,011602.00,7222.983638,N,00214.697771,W,2,09,0.8,84.375,M,-13.227,M,4.0,0123*43
GPS	2024/09/16	01:17:01	$GPGGA,011702.00,7222.983247,N,00214.703179,W,2,09,0.8,84.705,M,-13.227,M,4.0,0123*4F
GPS	2024/09/16	01:18:01	$GPGGA,011802.00,7222.980442,N,00214.708909,W,2,09,0.8,83.584,M,-13.227,M,4.0,0123*48
GPS	2024/09/16	01:19:01	$GPGGA,011902.00,7222.979840,N,00214.720273,W,2,09,0.8,84.004,M,-13.227,M,4.0,0123*47
GPS	2024/09/16	01:20:01	$GPGGA,012002.00,7222.977931,N,00214.729273,W,2,09,0.8,84.574,M,-13.227,M,4.0,0123*4F
GPS	2024/09/16	01:21:01	$GPGGA,012102.00,7222.979438,N,00214.739622,W,2,09,0.8,84.928,M,-13.227,M,4.0,0123*40
GPS	2024/09/16	01:22:01	$GPGGA,012202.00,7222.978603,N,00214.743518,W,2,09,0.8,86.130,M,-13.227,M,4.0,0123*4C
GPS	2024/09/16	01:23:01	$GPGGA,012302.00,7222.976676,N,00214.749733,W,2,09,0.8,85.542,M,-13.227,M,4.0,0123*42
GPS	2024/09/16	01:24:01	$GPGGA,012402.00,7222.975047,N,00214.761076,W,2,10,0.8,84.300,M,-13.227,M,3.0,0123*40
GPS	2024/09/16	01:25:01	$GPGGA,012501.00,7222.974576,N,00214.765329,W,2,10,0.8,85.556,M,-13.227,M,4.0,0123*4A
GPS	2024/09/16	01:26:01	$GPGGA,012602.00,7222.975599,N,00214.766060,W,2,10,0.8,85.080,M,-13.227,M,3.0,0123*4E
GPS	2024/09/16	01:27:01	$GPGGA,012702.00,7222.974927,N,00214.762209,W,2,09,1.0,80.142,M,-13.227,M,3.0,0123*45
GPS	2024/09/16	01:28:01	$GPGGA,012802.00,7222.976013,N,00214.757803,W,2,09,1.0,79.194,M,-13.227,M,3.0,0123*4D
GPS	2024/09/16	01:29:01	$GPGGA,012901.00,7222.976455,N,00214.750139,W,2,09,1.0,79.481,M,-13.227,M,4.0,0123*48
GPS	2024/09/16	01:30:01	$GPGGA,013002.00,7222.978712,N,00214.747541,W,2,09,1.0,80.425,M,-13.227,M,3.0,0123*4F
GPS	2024/09/16	01:31:01	$GPGGA,013102.00,7222.978666,N,00214.744631,W,2,09,1.0,82.017,M,-13.227,M,3.0,0123*4C
GPS	2024/09/16	01:32:01	$GPGGA,013202.00,7222.980448,N,00214.743452,W,2,09,1.0,81.839,M,-13.227,M,4.0,0123*46
GPS	2024/09/16	01:33:01	$GPGGA,013302.00,7222.980130,N,00214.736621,W,2,09,1.0,82.515,M,-13.227,M,4.0,0123*49
GPS	2024/09/16	01:34:01	$GPGGA,013402.00,7222.985351,N,00214.738992,W,2,09,1.0,81.802,M,-13.227,M,4.0,0123*4F
GPS	2024/09/16	01:35:01	$GPGGA,013502.00,7222.981013,N,00214.722120,W,2,09,1.0,81.492,M,-13.227,M,4.0,0123*40
GPS	2024/09/16	01:36:01	$GPGGA,013602.00,7222.982408,N,00214.717635,W,2,09,1.0,83.748,M,-13.227,M,4.0,0123*4D
GPS	2024/09/16	01:37:01	$GPGGA,013702.00,7222.981591,N,00214.714009,W,2,09,1.0,83.021,M,-13.227,M,4.0,0123*4C
GPS	2024/09/16	01:38:01	$GPGGA,013802.00,7222.984275,N,00214.713538,W,2,09,1.0,81.678,M,-13.227,M,4.0,0123*43
GPS	2024/09/16	01:39:01	$GPGGA,013902.00,7222.985954,N,00214.704575,W,2,10,0.8,83.958,M,-13.227,M,4.0,0123*4A
GPS	2024/09/16	01:40:01	$GPGGA,014002.00,7222.985914,N,00214.701939,W,2,08,1.0,82.294,M,-13.227,M,4.0,0123*4B
GPS	2024/09/16	01:41:01	$GPGGA,014102.00,7222.987010,N,00214.701203,W,2,08,1.0,82.405,M,-13.227,M,4.0,0123*49
GPS	2024/09/16	01:42:01	$GPGGA,014201.00,7222.987373,N,00214.698439,W,2,08,1.0,83.210,M,-13.227,M,3.0,0123*45
GPS	2024/09/16	01:43:01	$GPGGA,014302.00,7222.989508,N,00214.700671,W,2,08,1.0,83.934,M,-13.227,M,4.0,0123*47
GPS	2024/09/16	01:44:01	$GPGGA,014401.00,7222.990229,N,00214.694749,W,2,08,1.0,84.150,M,-13.227,M,4.0,0123*44
GPS	2024/09/16	01:45:01	$GPGGA,014502.00,7222.990465,N,00214.684139,W,2,09,0.9,85.377,M,-13.227,M,3.0,0123*40
GPS	2024/09/16	01:46:01	$GPGGA,014602.00,7222.990315,N,00214.679615,W,2,09,0.9,84.964,M,-13.227,M,3.0,0123*41
GPS	2024/09/16	01:47:01	$GPGGA,014702.00,7222.994042,N,00214.674903,W,2,09,0.9,85.429,M,-13.227,M,5.0,0123*43
GPS	2024/09/16	01:48:01	$GPGGA,014802.00,7222.993446,N,00214.671244,W,2,08,1.0,83.470,M,-13.227,M,3.0,0123*43
GPS	2024/09/16	01:49:01	$GPGGA,014902.00,7222.993412,N,00214.674661,W,2,08,1.1,83.600,M,-13.227,M,3.0,0123*41
GPS	2024/09/16	01:50:01	$GPGGA,015001.00,7222.993885,N,00214.677682,W,2,09,1.0,84.002,M,-13.227,M,3.0,0123*45
GPS	2024/09/16	01:51:01	$GPGGA,015102.00,7222.994358,N,00214.677249,W,2,09,1.0,83.807,M,-13.227,M,4.0,0123*45
GPS	2024/09/16	01:52:01	$GPGGA,015202.00,7222.993854,N,00214.677079,W,2,09,1.0,83.690,M,-13.227,M,4.0,0123*47
GPS	2024/09/16	01:53:01	$GPGGA,015301.00,7222.993251,N,00214.679114,W,2,09,1.0,84.502,M,-13.227,M,3.0,0123*46
GPS	2024/09/16	01:54:01	$GPGGA,015402.00,7222.993469,N,00214.677899,W,2,09,1.0,83.739,M,-13.227,M,4.0,0123*47
GPS	2024/09/16	01:55:01	$GPGGA,015502.00,7222.991779,N,00214.683352,W,2,09,1.0,84.472,M,-13.227,M,4.0,0123*4A
GPS	2024/09/16	01:56:01	$GPGGA,015602.00,7222.991811,N,00214.686372,W,2,08,1.0,84.995,M,-13.227,M,4.0,0123*4A
GPS	2024/09/16	01:57:01	$GPGGA,015701.00,7222.990730,N,00214.693893,W,2,08,1.0,85.913,M,-13.227,M,3.0,0123*4D
GPS	2024/09/16	01:58:01	$GPGGA,015802.00,7222.987641,N,00214.699759,W,2,08,1.0,85.751,M,-13.227,M,4.0,0123*4C
GPS	2024/09/16	01:59:01	$GPGGA,015902.00,7222.971751,N,00214.705177,W,2,08,1.0,85.146,M,-13.227,M,4.0,0123*4A
GPS	2024/09/16	02:00:01	$GPGGA,020002.00,7222.921633,N,00214.673559,W,2,08,1.0,85.451,M,-13.226,M,4.0,0123*4F
GPS	2024/09/16	02:01:01	$GPGGA,020102.00,7222.839657,N,00214.703222,W,2,07,1.3,84.633,M,-13.224,M,4.0,0123*40
GPS	2024/09/16	02:02:01	$GPGGA,020202.00,7222.840276,N,00214.960349,W,2,07,1.1,84.587,M,-13.220,M,4.0,0123*47
GPS	2024/09/16	02:03:01	$GPGGA,020302.00,7222.897608,N,00215.202004,W,2,09,0.8,82.809,M,-13.221,M,4.0,0123*4F
GPS	2024/09/16	02:04:01	$GPGGA,020402.00,7222.987875,N,00215.493286,W,2,09,0.8,82.838,M,-13.223,M,4.0,0123*4A
GPS	2024/09/16	02:05:01	$GPGGA,020502.00,7223.099195,N,00215.840445,W,2,09,0.8,81.690,M,-13.225,M,4.0,0123*49
GPS	2024/09/16	02:06:01	$GPGGA,020602.00,7223.216339,N,00216.216267,W,2,09,0.8,84.409,M,-13.228,M,8.0,0123*41
GPS	2024/09/16	02:07:01	$GPGGA,020702.00,7223.336966,N,00216.608228,W,2,09,0.8,84.082,M,-13.230,M,4.0,0123*41
GPS	2024/09/16	02:08:01	$GPGGA,020802.00,7223.456282,N,00217.009505,W,2,09,0.8,82.954,M,-13.233,M,4.0,0123*47
GPS	2024/09/16	02:09:01	$GPGGA,020902.00,7223.573076,N,00217.401015,W,2,09,0.8,83.000,M,-13.236,M,4.0,0123*4D
GPS	2024/09/16	02:10:01	$GPGGA,021002.00,7223.691819,N,00217.799430,W,2,09,0.8,82.915,M,-13.238,M,4.0,0123*48
GPS	2024/09/16	02:11:01	$GPGGA,021102.00,7223.810685,N,00218.199808,W,2,09,0.8,83.558,M,-13.241,M,4.0,0123*41
GPS	2024/09/16	02:12:01	$GPGGA,021202.00,7223.926800,N,00218.584586,W,2,09,0.8,81.948,M,-13.243,M,4.0,0123*4B
GPS	2024/09/16	02:13:01	$GPGGA,021302.00,7224.044765,N,00218.967435,W,2,09,0.8,83.080,M,-13.246,M,4.0,0123*4E
GPS	2024/09/16	02:14:01	$GPGGA,021402.00,7224.163417,N,00219.362052,W,2,09,0.8,83.461,M,-13.249,M,4.0,0123*44
GPS	2024/09/16	02:15:01	$GPGGA,021501.00,7224.281707,N,00219.757832,W,2,09,0.8,83.869,M,-13.251,M,3.0,0123*4D
GPS	2024/09/16	02:16:01	$GPGGA,021602.00,7224.402910,N,00220.159300,W,2,09,0.8,83.216,M,-13.254,M,4.0,0123*40
GPS	2024/09/16	02:17:01	$GPGGA,021702.00,7224.522654,N,00220.562680,W,2,09,0.8,83.133,M,-13.256,M,4.0,0123*4A
GPS	2024/09/16	02:18:01	$GPGGA,021802.00,7224.642991,N,00220.972791,W,2,09,0.8,83.010,M,-13.259,M,4.0,0123*45
GPS	2024/09/16	02:19:01	$GPGGA,021902.00,7224.764043,N,00221.383371,W,2,09,0.8,83.204,M,-13.261,M,4.0,0123*44
GPS	2024/09/16	02:20:01	$GPGGA,022002.00,7224.885573,N,00221.785126,W,2,10,0.8,84.641,M,-13.264,M,3.0,0123*42
GPS	2024/09/16	02:21:01	$GPGGA,022102.00,7225.005681,N,00222.185675,W,2,10,0.8,84.208,M,-13.266,M,4.0,0123*44
GPS	2024/09/16	02:22:01	$GPGGA,022202.00,7225.126272,N,00222.594636,W,2,10,0.8,83.956,M,-13.270,M,4.0,0123*4C
GPS	2024/09/16	02:23:01	$GPGGA,022302.00,7225.249402,N,00222.972443,W,2,10,0.8,83.669,M,-13.272,M,4.0,0123*43
GPS	2024/09/16	02:24:01	$GPGGA,022402.00,7225.372056,N,00223.362590,W,2,10,0.8,83.701,M,-13.274,M,4.0,0123*44
GPS	2024/09/16	02:25:01	$GPGGA,022502.00,7225.496806,N,00223.754605,W,2,10,0.8,83.476,M,-13.277,M,4.0,0123*4B
GPS	2024/09/16	02:26:01	$GPGGA,022601.00,7225.618713,N,00224.143084,W,2,10,0.8,83.563,M,-13.280,M,3.0,0123*46
GPS	2024/09/16	02:27:01	$GPGGA,022702.00,7225.745313,N,00224.537546,W,2,10,0.8,83.308,M,-13.283,M,4.0,0123*4A
GPS	2024/09/16	02:28:01	$GPGGA,022802.00,7225.869816,N,00224.935437,W,2,10,0.8,83.552,M,-13.285,M,4.0,0123*4C
GPS	2024/09/16	02:29:01	$GPGGA,022902.00,7225.996894,N,00225.331191,W,2,10,0.8,84.883,M,-13.288,M,4.0,0123*4B
GPS	2024/09/16	02:30:01	$GPGGA,023002.00,7226.124042,N,00225.728006,W,2,10,0.8,84.532,M,-13.291,M,4.0,0123*4E
GPS	2024/09/16	02:31:01	$GPGGA,023102.00,7226.249504,N,00226.111526,W,2,10,0.8,83.323,M,-13.294,M,4.0,0123*4C
GPS	2024/09/16	02:32:01	$GPGGA,023202.00,7226.371904,N,00226.502452,W,2,10,0.8,84.897,M,-13.298,M,4.0,0123*42
GPS	2024/09/16	02:33:01	$GPGGA,023302.00,7226.492542,N,00226.899143,W,2,10,0.8,84.263,M,-13.300,M,4.0,0123*4C
GPS	2024/09/16	02:34:01	$GPGGA,023402.00,7226.613973,N,00227.299012,W,2,10,0.8,84.342,M,-13.303,M,4.0,0123*41
GPS	2024/09/16	02:35:01	$GPGGA,023502.00,7226.736704,N,00227.703207,W,2,10,0.8,84.428,M,-13.305,M,4.0,0123*45
GPS	2024/09/16	02:36:01	$GPGGA,023602.00,7226.859893,N,00228.102336,W,2,10,0.8,83.844,M,-13.308,M,4.0,0123*46
GPS	2024/09/16	02:37:01	$GPGGA,023701.00,7226.977815,N,00228.502303,W,2,10,0.8,84.463,M,-13.311,M,5.0,0123*42
GPS	2024/09/16	02:38:01	$GPGGA,023802.00,7227.101534,N,00228.922904,W,2,10,0.8,83.939,M,-13.312,M,4.0,0123*4C
GPS	2024/09/16	02:39:01	$GPGGA,023901.00,7227.219850,N,00229.326087,W,2,11,0.8,83.675,M,-13.315,M,3.0,0123*40
GPS	2024/09/16	02:40:01	$GPGGA,024002.00,7227.339964,N,00229.739655,W,2,11,0.8,83.146,M,-13.317,M,4.0,0123*49
GPS	2024/09/16	02:41:01	$GPGGA,024102.00,7227.458681,N,00230.146589,W,2,11,0.8,83.146,M,-13.320,M,3.0,0123*4B
GPS	2024/09/16	02:42:01	$GPGGA,024202.00,7227.578505,N,00230.540517,W,2,11,0.8,83.952,M,-13.323,M,3.0,0123*4F
GPS	2024/09/16	02:43:01	$GPGGA,024301.00,7227.696091,N,00230.939255,W,2,11,0.8,83.501,M,-13.326,M,6.0,0123*4F
GPS	2024/09/16	02:44:01	$GPGGA,024402.00,7227.819320,N,00231.354290,W,2,11,0.8,82.862,M,-13.328,M,3.0,0123*40
GPS	2024/09/16	02:45:01	$GPGGA,024502.00,7227.939865,N,00231.753282,W,2,10,0.9,82.085,M,-13.331,M,6.0,0123*44
GPS	2024/09/16	02:46:01	$GPGGA,024602.00,7228.059294,N,00232.148859,W,2,12,0.7,83.012,M,-13.333,M,5.0,0123*42
GPS	2024/09/16	02:47:01	$GPGGA,024702.00,7228.179513,N,00232.537202,W,2,12,0.7,83.834,M,-13.336,M,5.0,0123*49
GPS	2024/09/16	02:48:01	$GPGGA,024802.00,7228.298233,N,00232.927095,W,2,12,0.7,83.517,M,-13.339,M,5.0,0123*4D
GPS	2024/09/16	02:49:01	$GPGGA,024902.00,7228.415978,N,00233.315238,W,2,12,0.7,83.445,M,-13.341,M,5.0,0123*4D
GPS	2024/09/16	02:50:01	$GPGGA,025002.00,7228.533385,N,00233.706827,W,2,12,0.7,83.447,M,-13.344,M,5.0,0123*4D
GPS	2024/09/16	02:51:01	$GPGGA,025102.00,7228.651103,N,00234.107390,W,2,12,0.7,82.996,M,-13.347,M,5.0,0123*43
GPS	2024/09/16	02:52:01	$GPGGA,025202.00,7228.771271,N,00234.494891,W,2,12,0.7,83.599,M,-13.349,M,5.0,0123*4C
GPS	2024/09/16	02:53:01	$GPGGA,025302.00,7228.888092,N,00234.899181,W,2,12,0.7,83.384,M,-13.352,M,3.0,0123*44
GPS	2024/09/16	02:54:01	$GPGGA,025401.00,7229.006049,N,00235.296903,W,2,12,0.7,83.430,M,-13.354,M,5.0,0123*47
GPS	2024/09/16	02:55:01	$GPGGA,025502.00,7229.124596,N,00235.699320,W,2,11,0.8,84.083,M,-13.356,M,5.0,0123*46
GPS	2024/09/16	02:56:01	$GPGGA,025601.00,7229.239935,N,00236.097397,W,2,10,0.8,82.315,M,-13.358,M,5.0,0123*4E
GPS	2024/09/16	02:57:01	$GPGGA,025701.00,7229.356363,N,00236.503276,W,2,10,0.8,82.461,M,-13.361,M,5.0,0123*46
GPS	2024/09/16	02:58:01	$GPGGA,025801.00,7229.473396,N,00236.916995,W,2,10,0.8,81.311,M,-13.363,M,5.0,0123*4C
GPS	2024/09/16	02:59:01	$GPGGA,025902.00,7229.590855,N,00237.333226,W,2,10,0.8,81.863,M,-13.366,M,5.0,0123*42
GPS	2024/09/16	03:00:01	$GPGGA,030002.00,7229.709756,N,00237.732030,W,2,10,0.8,82.099,M,-13.368,M,5.0,0123*41
GPS	2024/09/16	03:01:01	$GPGGA,030102.00,7229.827076,N,00238.125273,W,2,09,0.8,82.643,M,-13.371,M,5.0,0123*4D
GPS	2024/09/16	03:02:01	$GPGGA,030202.00,7229.946994,N,00238.506207,W,2,10,0.8,81.900,M,-13.374,M,5.0,0123*4D
GPS	2024/09/16	03:03:01	$GPGGA,030302.00,7230.072439,N,00238.879233,W,2,10,0.8,82.672,M,-13.377,M,5.0,0123*48
GPS	2024/09/16	03:04:01	$GPGGA,030402.00,7230.198337,N,00239.229023,W,2,10,0.8,81.808,M,-13.380,M,5.0,0123*46
GPS	2024/09/16	03:05:01	$GPGGA,030502.00,7230.322345,N,00239.576902,W,2,09,0.8,82.409,M,-13.383,M,5.0,0123*43
GPS	2024/09/16	03:06:01	$GPGGA,030602.00,7230.443895,N,00239.928261,W,2,10,0.8,82.355,M,-13.386,M,5.0,0123*4C
GPS	2024/09/16	03:07:01	$GPGGA,030702.00,7230.555515,N,00240.227160,W,2,10,0.8,83.650,M,-13.389,M,5.0,0123*48
GPS	2024/09/16	03:08:01	$GPGGA,030802.00,7230.616753,N,00240.277799,W,2,09,1.0,81.363,M,-13.391,M,11.0,0123*7C
GPS	2024/09/16	03:09:01	$GPGGA,030902.00,7230.614539,N,00240.188608,W,2,10,0.8,81.860,M,-13.391,M,3.0,0123*41
GPS	2024/09/16	03:10:01	$GPGGA,031002.00,7230.585764,N,00240.156099,W,2,10,0.8,81.977,M,-13.391,M,3.0,0123*42
GPS	2024/09/16	03:11:01	$GPGGA,031102.00,7230.567104,N,00240.173433,W,2,10,0.8,82.258,M,-13.391,M,3.0,0123*49
GPS	2024/09/16	03:12:01	$GPGGA,031201.00,7230.562265,N,00240.214415,W,2,10,0.8,82.386,M,-13.391,M,4.0,0123*4B
GPS	2024/09/16	03:13:01	$GPGGA,031302.00,7230.555659,N,00240.243300,W,2,10,0.8,81.952,M,-13.391,M,3.0,0123*40
GPS	2024/09/16	03:14:01	$GPGGA,031401.00,7230.549992,N,00240.258080,W,2,10,0.8,80.977,M,-13.391,M,4.0,0123*41
GPS	2024/09/16	03:15:01	$GPGGA,031502.00,7230.547403,N,00240.277230,W,2,10,0.8,81.677,M,-13.391,M,3.0,0123*45
GPS	2024/09/16	03:16:01	$GPGGA,031602.00,7230.542618,N,00240.285302,W,2,10,0.8,81.653,M,-13.391,M,3.0,0123*40
GPS	2024/09/16	03:17:01	$GPGGA,031702.00,7230.540230,N,00240.295726,W,2,10,0.8,82.545,M,-13.389,M,3.0,0123*40
GPS	2024/09/16	03:18:01	$GPGGA,031802.00,7230.537187,N,00240.291189,W,2,10,0.8,80.005,M,-13.389,M,3.0,0123*44
GPS	2024/09/16	03:19:01	$GPGGA,031902.00,7230.533920,N,00240.302196,W,2,10,0.8,81.777,M,-13.389,M,3.0,0123*42
GPS	2024/09/16	03:20:01	$GPGGA,032001.00,7230.531605,N,00240.310833,W,2,10,0.8,82.138,M,-13.389,M,4.0,0123*4D
GPS	2024/09/16	03:21:01	$GPGGA,032102.00,7230.529958,N,00240.320812,W,2,10,0.8,81.069,M,-13.389,M,4.0,0123*47
GPS	2024/09/16	03:22:01	$GPGGA,032202.00,7230.528519,N,00240.332071,W,2,11,0.7,81.817,M,-13.389,M,4.0,0123*4D
GPS	2024/09/16	03:23:01	$GPGGA,032301.00,7230.527031,N,00240.342661,W,2,11,0.7,82.725,M,-13.389,M,4.0,0123*42
GPS	2024/09/16	03:24:01	$GPGGA,032402.00,7230.524266,N,00240.350525,W,2,11,0.7,81.943,M,-13.389,M,4.0,0123*48
GPS	2024/09/16	03:25:01	$GPGGA,032502.00,7230.526173,N,00240.362894,W,2,11,0.7,82.437,M,-13.389,M,4.0,0123*47
GPS	2024/09/16	03:26:01	$GPGGA,032602.00,7230.523304,N,00240.374753,W,2,11,0.7,82.498,M,-13.389,M,4.0,0123*45
GPS	2024/09/16	03:27:01	$GPGGA,032702.00,7230.521858,N,00240.396359,W,2,11,0.7,81.459,M,-13.389,M,4.0,0123*48
GPS	2024/09/16	03:28:01	$GPGGA,032802.00,7230.522068,N,00240.419972,W,2,11,0.7,81.548,M,-13.389,M,3.0,0123*4A
GPS	2024/09/16	03:29:01	$GPGGA,032902.00,7230.521228,N,00240.444078,W,2,10,0.8,82.907,M,-13.389,M,4.0,0123*48
GPS	2024/09/16	03:30:01	$GPGGA,033001.00,7230.522422,N,00240.472840,W,2,10,0.8,83.597,M,-13.387,M,4.0,0123*40
GPS	2024/09/16	03:31:01	$GPGGA,033102.00,7230.521710,N,00240.483574,W,2,11,0.7,82.149,M,-13.387,M,3.0,0123*48
GPS	2024/09/16	03:32:01	$GPGGA,033202.00,7230.521285,N,00240.478256,W,2,11,0.7,79.395,M,-13.387,M,4.0,0123*41
GPS	2024/09/16	03:33:01	$GPGGA,033302.00,7230.522126,N,00240.484892,W,2,11,0.7,81.132,M,-13.387,M,4.0,0123*40
GPS	2024/09/16	03:34:01	$GPGGA,033402.00,7230.519467,N,00240.497162,W,2,11,0.7,81.618,M,-13.387,M,5.0,0123*45
GPS	2024/09/16	03:35:01	$GPGGA,033502.00,7230.514550,N,00240.512056,W,2,11,0.7,82.557,M,-13.387,M,4.0,0123*4C
GPS	2024/09/16	03:36:01	$GPGGA,033602.00,7230.510189,N,00240.542644,W,2,10,0.8,83.606,M,-13.387,M,4.0,0123*43
GPS	2024/09/16	03:37:01	$GPGGA,033702.00,7230.505546,N,00240.577101,W,2,10,0.8,83.817,M,-13.387,M,4.0,0123*4F
GPS	2024/09/16	03:38:01	$GPGGA,033802.00,7230.501444,N,00240.602755,W,2,10,0.8,84.411,M,-13.387,M,4.0,0123*4C
GPS	2024/09/16	03:39:01	$GPGGA,033902.00,7230.497484,N,00240.615112,W,2,10,0.8,84.458,M,-13.387,M,4.0,0123*41
GPS	2024/09/16	03:40:01	$GPGGA,034002.00,7230.493672,N,00240.626823,W,2,11,0.7,84.529,M,-13.385,M,4.0,0123*40
GPS	2024/09/16	03:41:01	$GPGGA,034101.00,7230.493091,N,00240.636113,W,2,10,0.8,85.119,M,-13.385,M,4.0,0123*4A
GPS	2024/09/16	03:42:01	$GPGGA,034202.00,7230.489389,N,00240.640170,W,2,10,0.8,84.196,M,-13.385,M,4.0,0123*49
GPS	2024/09/16	03:43:01	$GPGGA,034302.00,7230.485864,N,00240.649699,W,2,10,0.8,84.004,M,-13.385,M,4.0,0123*4F
GPS	2024/09/16	03:44:01	$GPGGA,034402.00,7230.485379,N,00240.662700,W,2,10,0.8,82.554,M,-13.385,M,4.0,0123*41
GPS	2024/09/16	03:45:01	$GPGGA,034502.00,7230.481843,N,00240.673490,W,2,10,0.8,82.249,M,-13.385,M,5.0,0123*46
GPS	2024/09/16	03:46:01	$GPGGA,034602.00,7230.478569,N,00240.688075,W,2,10,0.8,82.668,M,-13.385,M,4.0,0123*4B
GPS	2024/09/16	03:47:01	$GPGGA,034702.00,7230.476023,N,00240.697764,W,2,10,0.8,83.416,M,-13.385,M,5.0,0123*4D
GPS	2024/09/16	03:48:01	$GPGGA,034801.00,7230.472319,N,00240.713693,W,2,10,0.8,83.564,M,-13.385,M,4.0,0123*4E
GPS	2024/09/16	03:49:01	$GPGGA,034902.00,7230.472991,N,00240.734642,W,2,10,0.8,83.102,M,-13.385,M,4.0,0123*4B
GPS	2024/09/16	03:50:01	$GPGGA,035002.00,7230.467441,N,00240.748254,W,2,10,0.8,82.365,M,-13.385,M,4.0,0123*4D
GPS	2024/09/16	03:51:01	$GPGGA,035102.00,7230.465931,N,00240.764159,W,2,10,0.8,83.169,M,-13.385,M,4.0,0123*4B
GPS	2024/09/16	03:52:01	$GPGGA,035202.00,7230.462395,N,00240.774485,W,2,11,0.7,82.488,M,-13.383,M,4.0,0123*4D
GPS	2024/09/16	03:53:01	$GPGGA,035301.00,7230.460078,N,00240.785897,W,2,10,0.8,83.567,M,-13.383,M,4.0,0123*43
GPS	2024/09/16	03:54:01	$GPGGA,035402.00,7230.458347,N,00240.800248,W,2,10,0.8,82.466,M,-13.383,M,4.0,0123*48
GPS	2024/09/16	03:55:01	$GPGGA,035501.00,7230.455747,N,00240.808280,W,2,11,0.7,82.025,M,-13.383,M,4.0,0123*42
GPS	2024/09/16	03:56:01	$GPGGA,035602.00,7230.456042,N,00240.824500,W,2,11,0.7,82.082,M,-13.383,M,4.0,0123*4F
GPS	2024/09/16	03:57:01	$GPGGA,035702.00,7230.452757,N,00240.830500,W,2,12,0.7,82.540,M,-13.383,M,4.0,0123*44
GPS	2024/09/16	03:58:01	$GPGGA,035802.00,7230.451832,N,00240.837691,W,2,11,0.8,83.482,M,-13.383,M,4.0,0123*4A
GPS	2024/09/16	03:59:01	$GPGGA,035902.00,7230.452022,N,00240.848991,W,2,11,0.8,84.440,M,-13.383,M,4.0,0123*4F
GPS	2024/09/16	04:00:01	$GPGGA,040001.00,7230.446541,N,00240.862831,W,2,11,0.8,81.507,M,-13.383,M,4.0,0123*46
GPS	2024/09/16	04:01:01	$GPGGA,040102.00,7230.444910,N,00240.877643,W,2,11,0.8,82.616,M,-13.383,M,4.0,0123*41
GPS	2024/09/16	04:02:01	$GPGGA,040202.00,7230.444569,N,00240.889080,W,2,11,0.8,82.774,M,-13.383,M,4.0,0123*4D
GPS	2024/09/16	04:03:01	$GPGGA,040301.00,7230.440653,N,00240.895086,W,2,11,0.8,82.968,M,-13.383,M,4.0,0123*49
GPS	2024/09/16	04:04:01	$GPGGA,040402.00,7230.440422,N,00240.904419,W,2,10,1.1,82.423,M,-13.383,M,3.0,0123*4E
GPS	2024/09/16	04:05:01	$GPGGA,040502.00,7230.440185,N,00240.916269,W,2,11,1.0,83.100,M,-13.383,M,3.0,0123*40
GPS	2024/09/16	04:06:01	$GPGGA,040602.00,7230.436964,N,00240.925105,W,2,11,1.0,82.641,M,-13.381,M,3.0,0123*4D
GPS	2024/09/16	04:07:01	$GPGGA,040702.00,7230.436985,N,00240.933299,W,2,11,1.0,82.572,M,-13.381,M,3.0,0123*41
GPS	2024/09/16	04:08:01	$GPGGA,040802.00,7230.433816,N,00240.939110,W,2,11,1.0,82.733,M,-13.381,M,3.0,0123*4F
GPS	2024/09/16	04:09:01	$GPGGA,040902.00,7230.430583,N,00240.945480,W,2,11,1.1,82.937,M,-13.381,M,3.0,0123*40
GPS	2024/09/16	04:10:01	$GPGGA,041001.00,7230.433425,N,00240.955382,W,2,11,1.1,83.105,M,-13.381,M,4.0,0123*4E
GPS	2024/09/16	04:11:01	$GPGGA,041102.00,7230.430963,N,00240.952542,W,2,11,1.1,82.190,M,-13.381,M,3.0,0123*47
GPS	2024/09/16	04:12:01	$GPGGA,041202.00,7230.432527,N,00240.957335,W,2,11,1.1,81.677,M,-13.381,M,4.0,0123*43
GPS	2024/09/16	04:13:01	$GPGGA,041302.00,7230.432022,N,00240.965423,W,2,11,1.1,80.248,M,-13.381,M,4.0,0123*4A
GPS	2024/09/16	04:14:01	$GPGGA,041402.00,7230.426950,N,00240.969736,W,2,11,1.1,83.295,M,-13.381,M,4.0,0123*4C
GPS	2024/09/16	04:15:01	$GPGGA,041502.00,7230.425088,N,00240.987940,W,2,11,1.1,81.305,M,-13.381,M,4.0,0123*47
GPS	2024/09/16	04:16:01	$GPGGA,041602.00,7230.425473,N,00240.999615,W,2,11,1.1,82.349,M,-13.381,M,4.0,0123*4F
GPS	2024/09/16	04:17:01	$GPGGA,041702.00,7230.425763,N,00241.012918,W,2,11,1.1,81.746,M,-13.381,M,4.0,0123*4D
GPS	2024/09/16	04:18:01	$GPGGA,041802.00,7230.423601,N,00241.022960,W,2,11,1.1,82.424,M,-13.381,M,4.0,0123*49
GPS	2024/09/16	04:19:01	$GPGGA,041902.00,7230.420898,N,00241.039219,W,2,11,1.1,81.060,M,-13.381,M,4.0,0123*4D
GPS	2024/09/16	04:20:01	$GPGGA,042002.00,7230.419335,N,00241.046334,W,2,11,1.1,81.259,M,-13.381,M,4.0,0123*4F
GPS	2024/09/16	04:21:01	$GPGGA,042102.00,7230.415179,N,00241.052301,W,2,11,1.1,83.006,M,-13.381,M,4.0,0123*41
GPS	2024/09/16	04:22:01	$GPGGA,042202.00,7230.416012,N,00241.061210,W,2,11,1.1,82.568,M,-13.381,M,4.0,0123*40
GPS	2024/09/16	04:23:01	$GPGGA,042302.00,7230.416247,N,00241.070111,W,2,11,1.1,82.037,M,-13.381,M,4.0,0123*4E
GPS	2024/09/16	04:24:01	$GPGGA,042402.00,7230.413637,N,00241.073398,W,2,10,1.1,82.992,M,-13.381,M,4.0,0123*48
GPS	2024/09/16	04:25:01	$GPGGA,042502.00,7230.413998,N,00241.081280,W,2,11,1.1,80.683,M,-13.381,M,4.0,0123*4A
GPS	2024/09/16	04:26:01	$GPGGA,042602.00,7230.411640,N,00241.096985,W,2,10,1.1,81.812,M,-13.379,M,4.0,0123*48
GPS	2024/09/16	04:27:01	$GPGGA,042702.00,7230.411752,N,00241.120281,W,2,10,1.1,82.537,M,-13.379,M,4.0,0123*41
GPS	2024/09/16	04:28:01	$GPGGA,042802.00,7230.408617,N,00241.129235,W,2,10,1.1,82.320,M,-13.379,M,4.0,0123*40
GPS	2024/09/16	04:29:01	$GPGGA,042902.00,7230.406912,N,00241.140793,W,2,10,1.1,81.557,M,-13.379,M,4.0,0123*46
GPS	2024/09/16	04:30:01	$GPGGA,043001.00,7230.404806,N,00241.150977,W,2,10,1.1,82.936,M,-13.379,M,3.0,0123*41
GPS	2024/09/16	04:31:01	$GPGGA,043102.00,7230.403034,N,00241.163433,W,2,10,1.1,81.801,M,-13.379,M,4.0,0123*41
GPS	2024/09/16	04:32:01	$GPGGA,043202.00,7230.400408,N,00241.171313,W,2,10,1.1,82.547,M,-13.379,M,4.0,0123*40
GPS	2024/09/16	04:33:01	$GPGGA,043301.00,7230.399470,N,00241.180532,W,2,09,1.1,81.600,M,-13.379,M,4.0,0123*4A
GPS	2024/09/16	04:34:01	$GPGGA,043402.00,7230.397279,N,00241.189139,W,2,09,1.1,81.166,M,-13.379,M,4.0,0123*4E
GPS	2024/09/16	04:35:01	$GPGGA,043502.00,7230.397018,N,00241.200304,W,2,09,1.1,80.261,M,-13.379,M,4.0,0123*41
GPS	2024/09/16	04:36:01	$GPGGA,043601.00,7230.394576,N,00241.212891,W,2,09,1.1,79.696,M,-13.379,M,4.0,0123*41
GPS	2024/09/16	04:37:01	$GPGGA,043702.00,7230.393912,N,00241.222979,W,2,09,1.1,80.962,M,-13.379,M,4.0,0123*4C
GPS	2024/09/16	04:38:01	$GPGGA,043802.00,7230.392772,N,00241.232421,W,2,09,1.1,81.275,M,-13.379,M,4.0,0123*47
GPS	2024/09/16	04:39:01	$GPGGA,043901.00,7230.393194,N,00241.243103,W,2,09,1.1,81.665,M,-13.379,M,3.0,0123*4B
GPS	2024/09/16	04:40:01	$GPGGA,044002.00,7230.388927,N,00241.253142,W,2,09,1.1,81.906,M,-13.377,M,4.0,0123*4B
GPS	2024/09/16	04:41:01	$GPGGA,044102.00,7230.389604,N,00241.272322,W,2,09,1.1,81.594,M,-13.377,M,4.0,0123*45
GPS	2024/09/16	04:42:01	$GPGGA,044202.00,7230.385509,N,00241.284106,W,2,09,1.1,82.364,M,-13.377,M,4.0,0123*43
GPS	2024/09/16	04:43:01	$GPGGA,044301.00,7230.382750,N,00241.301981,W,2,09,1.1,80.783,M,-13.377,M,3.0,0123*4B
GPS	2024/09/16	04:44:01	$GPGGA,044402.00,7230.379853,N,00241.322221,W,2,09,1.1,81.685,M,-13.377,M,3.0,0123*41
GPS	2024/09/16	04:45:01	$GPGGA,044502.00,7230.377122,N,00241.340505,W,2,09,1.1,80.876,M,-13.377,M,4.0,0123*40
GPS	2024/09/16	04:46:01	$GPGGA,044602.00,7230.373316,N,00241.353910,W,2,09,1.1,81.549,M,-13.377,M,4.0,0123*48
GPS	2024/09/16	04:47:01	$GPGGA,044702.00,7230.371984,N,00241.366125,W,2,09,1.0,82.055,M,-13.377,M,4.0,0123*48
GPS	2024/09/16	04:48:01	$GPGGA,044802.00,7230.370203,N,00241.373342,W,2,09,1.0,81.176,M,-13.377,M,4.0,0123*46
GPS	2024/09/16	04:49:01	$GPGGA,044902.00,7230.370326,N,00241.386397,W,2,09,1.0,81.360,M,-13.377,M,4.0,0123*46
GPS	2024/09/16	04:50:01	$GPGGA,045001.00,7230.367477,N,00241.399863,W,2,09,1.0,80.821,M,-13.377,M,3.0,0123*4E
GPS	2024/09/16	04:51:01	$GPGGA,045102.00,7230.363929,N,00241.410515,W,2,10,0.9,82.478,M,-13.375,M,4.0,0123*43
GPS	2024/09/16	04:52:01	$GPGGA,045202.00,7230.363221,N,00241.423341,W,2,10,0.9,84.622,M,-13.375,M,4.0,0123*4F
GPS	2024/09/16	04:53:01	$GPGGA,045301.00,7230.360126,N,00241.433912,W,2,11,0.8,83.862,M,-13.375,M,3.0,0123*4D
GPS	2024/09/16	04:54:01	$GPGGA,045402.00,7230.359397,N,00241.443296,W,2,11,0.8,84.549,M,-13.375,M,4.0,0123*4F
GPS	2024/09/16	04:55:01	$GPGGA,045502.00,7230.358528,N,00241.451384,W,2,11,0.8,83.611,M,-13.375,M,4.0,0123*45
GPS	2024/09/16	04:56:01	$GPGGA,045602.00,7230.355976,N,00241.456858,W,2,12,0.8,84.624,M,-13.375,M,4.0,0123*43
GPS	2024/09/16	04:57:01	$GPGGA,045702.00,7230.358182,N,00241.471666,W,2,12,0.8,84.429,M,-13.375,M,4.0,0123*45
GPS	2024/09/16	04:58:01	$GPGGA,045801.00,7230.354576,N,00241.482133,W,2,12,0.8,83.885,M,-13.375,M,3.0,0123*4B
GPS	2024/09/16	04:59:01	$GPGGA,045902.00,7230.350803,N,00241.493245,W,2,12,0.8,85.188,M,-13.375,M,4.0,0123*45
GPS	2024/09/16	05:00:01	$GPGGA,050002.00,7230.347637,N,00241.507842,W,2,12,0.8,84.735,M,-13.375,M,4.0,0123*47
GPS	2024/09/16	05:01:01	$GPGGA,050102.00,7230.346548,N,00241.522107,W,2,12,0.8,84.614,M,-13.375,M,3.0,0123*46
GPS	2024/09/16	05:02:01	$GPGGA,050202.00,7230.344158,N,00241.537066,W,2,12,0.8,84.539,M,-13.375,M,3.0,0123*4C
GPS	2024/09/16	05:03:01	$GPGGA,050302.00,7230.342832,N,00241.552785,W,2,12,0.8,84.546,M,-13.375,M,3.0,0123*4F
GPS	2024/09/16	05:04:01	$GPGGA,050401.00,7230.339740,N,00241.564929,W,2,12,0.8,85.594,M,-13.375,M,3.0,0123*4E
GPS	2024/09/16	05:05:01	$GPGGA,050502.00,7230.337655,N,00241.575309,W,2,12,0.8,85.956,M,-13.373,M,3.0,0123*4B
GPS	2024/09/16	05:06:01	$GPGGA,050602.00,7230.336046,N,00241.585781,W,2,10,0.8,84.105,M,-13.373,M,3.0,0123*4B
GPS	2024/09/16	05:07:01	$GPGGA,050702.00,7230.334857,N,00241.597785,W,2,10,0.8,83.066,M,-13.373,M,3.0,0123*44
GPS	2024/09/16	05:08:01	$GPGGA,050801.00,7230.333674,N,00241.603558,W,2,10,0.8,82.565,M,-13.373,M,3.0,0123*4B
GPS	2024/09/16	05:09:01	$GPGGA,050902.00,7230.332389,N,00241.607109,W,2,10,0.8,83.383,M,-13.373,M,3.0,0123*44
GPS	2024/09/16	05:10:01	$GPGGA,051002.00,7230.330235,N,00241.613312,W,2,10,0.8,83.508,M,-13.373,M,3.0,0123*40
GPS	2024/09/16	05:11:01	$GPGGA,051102.00,7230.329861,N,00241.622262,W,2,10,0.8,83.563,M,-13.373,M,3.0,0123*4B
GPS	2024/09/16	05:12:01	$GPGGA,051201.00,7230.328699,N,00241.630224,W,2,10,0.8,83.030,M,-13.373,M,3.0,0123*41
GPS	2024/09/16	05:13:01	$GPGGA,051302.00,7230.325797,N,00241.646295,W,2,10,0.8,83.792,M,-13.373,M,3.0,0123*45
GPS	2024/09/16	05:14:01	$GPGGA,051402.00,7230.325928,N,00241.660031,W,2,10,0.8,84.967,M,-13.373,M,3.0,0123*43
GPS	2024/09/16	05:15:01	$GPGGA,051502.00,7230.322073,N,00241.665628,W,2,10,0.8,84.637,M,-13.373,M,3.0,0123*43
GPS	2024/09/16	05:16:01	$GPGGA,051602.00,7230.322677,N,00241.677807,W,2,10,0.8,83.318,M,-13.373,M,3.0,0123*4D
GPS	2024/09/16	05:17:01	$GPGGA,051701.00,7230.321244,N,00241.681790,W,2,10,0.9,84.713,M,-13.373,M,3.0,0123*49
GPS	2024/09/16	05:18:01	$GPGGA,051802.00,7230.317727,N,00241.688977,W,2,10,0.9,84.513,M,-13.373,M,3.0,0123*4C
GPS	2024/09/16	05:19:01	$GPGGA,051902.00,7230.316950,N,00241.701608,W,2,10,0.9,82.756,M,-13.373,M,3.0,0123*40
GPS	2024/09/16	05:20:01	$GPGGA,052002.00,7230.313041,N,00241.720108,W,2,10,0.9,82.996,M,-13.373,M,4.0,0123*47
GPS	2024/09/16	05:21:01	$GPGGA,052102.00,7230.308038,N,00241.744751,W,2,10,0.9,85.023,M,-13.371,M,3.0,0123*4F
GPS	2024/09/16	05:22:01	$GPGGA,052202.00,7230.304974,N,00241.777220,W,2,10,0.9,85.565,M,-13.371,M,3.0,0123*45
GPS	2024/09/16	05:23:01	$GPGGA,052302.00,7230.299859,N,00241.811480,W,2,10,0.9,86.197,M,-13.371,M,3.0,0123*46
GPS	2024/09/16	05:24:01	$GPGGA,052401.00,7230.293032,N,00241.842253,W,2,10,0.9,85.657,M,-13.371,M,3.0,0123*4B
GPS	2024/09/16	05:25:01	$GPGGA,052502.00,7230.288728,N,00241.878535,W,2,10,0.9,85.494,M,-13.371,M,10.0,0123*7E
GPS	2024/09/16	05:26:01	$GPGGA,052602.00,7230.281846,N,00241.913640,W,2,10,0.9,85.166,M,-13.370,M,3.0,0123*45
GPS	2024/09/16	05:27:01	$GPGGA,052701.00,7230.279892,N,00241.960304,W,2,10,0.9,85.110,M,-13.370,M,3.0,0123*49
GPS	2024/09/16	05:28:01	$GPGGA,052802.00,7230.316364,N,00242.073145,W,2,10,0.9,85.299,M,-13.369,M,3.0,0123*4A
GPS	2024/09/16	05:29:01	$GPGGA,052901.00,7230.381707,N,00242.273359,W,2,09,1.0,85.751,M,-13.370,M,3.0,0123*43
GPS	2024/09/16	05:30:01	$GPGGA,053002.00,7230.468638,N,00242.612140,W,2,10,0.9,85.239,M,-13.373,M,3.0,0123*44
GPS	2024/09/16	05:31:01	$GPGGA,053102.00,7230.558255,N,00243.044947,W,2,10,0.9,85.093,M,-13.374,M,3.0,0123*46
GPS	2024/09/16	05:32:01	$GPGGA,053201.00,7230.661512,N,00243.481096,W,2,10,0.9,85.601,M,-13.376,M,3.0,0123*4C
GPS	2024/09/16	05:33:01	$GPGGA,053302.00,7230.768680,N,00243.959497,W,2,10,0.9,85.730,M,-13.377,M,3.0,0123*41
GPS	2024/09/16	05:34:01	$GPGGA,053402.00,7230.879128,N,00244.423162,W,2,10,0.9,85.619,M,-13.379,M,3.0,0123*40
GPS	2024/09/16	05:35:01	$GPGGA,053502.00,7230.985421,N,00244.891930,W,2,10,0.9,85.517,M,-13.381,M,3.0,0123*4F
GPS	2024/09/16	05:36:01	$GPGGA,053602.00,7231.093755,N,00245.354675,W,2,09,0.9,85.756,M,-13.383,M,3.0,0123*43
GPS	2024/09/16	05:37:01	$GPGGA,053701.00,7231.199201,N,00245.809736,W,2,09,0.9,85.007,M,-13.385,M,3.0,0123*4E
GPS	2024/09/16	05:38:01	$GPGGA,053802.00,7231.307016,N,00246.284575,W,2,09,0.9,85.731,M,-13.387,M,3.0,0123*4A
GPS	2024/09/16	05:39:01	$GPGGA,053902.00,7231.415363,N,00246.757788,W,2,09,0.9,84.185,M,-13.388,M,3.0,0123*42
GPS	2024/09/16	05:40:01	$GPGGA,054002.00,7231.524792,N,00247.232035,W,2,09,0.9,84.705,M,-13.390,M,3.0,0123*44
GPS	2024/09/16	05:41:01	$GPGGA,054101.00,7231.632803,N,00247.693402,W,2,09,0.9,85.572,M,-13.392,M,3.0,0123*4B
GPS	2024/09/16	05:42:01	$GPGGA,054202.00,7231.743004,N,00248.176887,W,2,10,0.9,85.881,M,-13.394,M,4.0,0123*49
GPS	2024/09/16	05:43:01	$GPGGA,054301.00,7231.850396,N,00248.642683,W,2,09,0.9,86.176,M,-13.396,M,3.0,0123*4B
GPS	2024/09/16	05:44:01	$GPGGA,054402.00,7231.963430,N,00249.120531,W,2,09,0.9,85.743,M,-13.396,M,3.0,0123*4E
GPS	2024/09/16	05:45:01	$GPGGA,054502.00,7232.073388,N,00249.596343,W,2,09,0.9,84.412,M,-13.398,M,3.0,0123*42
GPS	2024/09/16	05:46:01	$GPGGA,054602.00,7232.182821,N,00250.077516,W,2,08,0.9,83.738,M,-13.400,M,3.0,0123*49
GPS	2024/09/16	05:47:01	$GPGGA,054701.00,7232.290030,N,00250.545174,W,2,09,1.0,85.025,M,-13.402,M,4.0,0123*46
GPS	2024/09/16	05:48:01	$GPGGA,054802.00,7232.401770,N,00251.017344,W,2,09,1.0,84.317,M,-13.404,M,3.0,0123*47
GPS	2024/09/16	05:49:01	$GPGGA,054902.00,7232.508383,N,00251.476942,W,2,09,1.0,85.530,M,-13.406,M,3.0,0123*49
GPS	2024/09/16	05:50:01	$GPGGA,055002.00,7232.615341,N,00251.944640,W,2,09,1.0,83.508,M,-13.407,M,3.0,0123*4D
GPS	2024/09/16	05:51:01	$GPGGA,055102.00,7232.724100,N,00252.408508,W,2,09,1.0,83.872,M,-13.410,M,3.0,0123*47
GPS	2024/09/16	05:52:01	$GPGGA,055202.00,7232.832707,N,00252.882632,W,2,09,1.0,85.031,M,-13.411,M,3.0,0123*41
GPS	2024/09/16	05:53:01	$GPGGA,055302.00,7232.940860,N,00253.360846,W,2,09,1.0,83.959,M,-13.413,M,3.0,0123*42
GPS	2024/09/16	05:54:01	$GPGGA,055401.00,7233.050030,N,00253.823347,W,2,09,1.0,84.327,M,-13.415,M,4.0,0123*41
GPS	2024/09/16	05:55:01	$GPGGA,055502.00,7233.159348,N,00254.305545,W,2,10,0.9,84.587,M,-13.417,M,3.0,0123*42
GPS	2024/09/16	05:56:01	$GPGGA,055602.00,7233.267426,N,00254.779683,W,2,09,1.0,81.694,M,-13.419,M,3.0,0123*4C
GPS	2024/09/16	05:57:01	$GPGGA,055702.00,7233.376210,N,00255.261177,W,2,09,1.0,80.837,M,-13.420,M,3.0,0123*42
GPS	2024/09/16	05:58:01	$GPGGA,055801.00,7233.484003,N,00255.728556,W,2,09,1.0,81.663,M,-13.422,M,4.0,0123*40
GPS	2024/09/16	05:59:01	$GPGGA,055902.00,7233.595158,N,00256.209621,W,2,09,1.0,81.714,M,-13.424,M,3.0,0123*4A
GPS	2024/09/16	06:00:01	$GPGGA,060002.00,7233.705369,N,00256.683070,W,2,09,1.0,82.125,M,-13.426,M,3.0,0123*4F
GPS	2024/09/16	06:01:01	$GPGGA,060102.00,7233.814096,N,00257.163629,W,2,09,0.9,80.828,M,-13.428,M,3.0,0123*40
GPS	2024/09/16	06:02:01	$GPGGA,060202.00,7233.924008,N,00257.642650,W,2,09,0.9,81.638,M,-13.430,M,3.0,0123*4B
GPS	2024/09/16	06:03:01	$GPGGA,060301.00,7234.031949,N,00258.114704,W,2,09,0.9,82.871,M,-13.432,M,4.0,0123*41
GPS	2024/09/16	06:04:01	$GPGGA,060402.00,7234.144348,N,00258.607628,W,2,09,0.9,81.233,M,-13.434,M,5.0,0123*4F
GPS	2024/09/16	06:05:01	$GPGGA,060502.00,7234.255936,N,00259.086360,W,2,09,0.9,81.593,M,-13.435,M,5.0,0123*45
GPS	2024/09/16	06:06:01	$GPGGA,060602.00,7234.365820,N,00259.560179,W,2,09,0.9,82.575,M,-13.437,M,5.0,0123*4C
GPS	2024/09/16	06:07:01	$GPGGA,060702.00,7234.473513,N,00300.039839,W,2,09,0.9,82.467,M,-13.438,M,4.0,0123*45
GPS	2024/09/16	06:08:01	$GPGGA,060801.00,7234.581106,N,00300.502711,W,2,09,0.9,82.418,M,-13.441,M,5.0,0123*4A
GPS	2024/09/16	06:09:01	$GPGGA,060902.00,7234.689685,N,00300.990140,W,2,09,0.9,81.790,M,-13.443,M,5.0,0123*48
GPS	2024/09/16	06:10:01	$GPGGA,061001.00,7234.797190,N,00301.462127,W,2,09,0.8,83.649,M,-13.445,M,5.0,0123*4E
GPS	2024/09/16	06:11:01	$GPGGA,061102.00,7234.907527,N,00301.943728,W,2,08,1.1,82.477,M,-13.447,M,5.0,0123*41
GPS	2024/09/16	06:12:01	$GPGGA,061201.00,7235.012496,N,00302.408658,W,2,09,0.8,81.358,M,-13.451,M,5.0,0123*46
GPS	2024/09/16	06:13:01	$GPGGA,061302.00,7235.123323,N,00302.888146,W,2,09,0.8,82.180,M,-13.453,M,5.0,0123*44
GPS	2024/09/16	06:14:01	$GPGGA,061401.00,7235.227938,N,00303.350546,W,2,10,0.8,82.144,M,-13.455,M,5.0,0123*4A
GPS	2024/09/16	06:15:01	$GPGGA,061502.00,7235.335272,N,00303.820645,W,2,09,0.8,82.019,M,-13.457,M,5.0,0123*40
GPS	2024/09/16	06:16:01	$GPGGA,061602.00,7235.444253,N,00304.290976,W,2,09,0.8,82.368,M,-13.460,M,5.0,0123*49
GPS	2024/09/16	06:17:01	$GPGGA,061701.00,7235.551368,N,00304.759012,W,2,09,0.8,81.149,M,-13.462,M,5.0,0123*4C
GPS	2024/09/16	06:18:01	$GPGGA,061802.00,7235.661235,N,00305.234718,W,2,09,0.8,82.805,M,-13.465,M,5.0,0123*4E
GPS	2024/09/16	06:19:01	$GPGGA,061901.00,7235.764508,N,00305.702581,W,2,09,0.8,83.651,M,-13.467,M,5.0,0123*4F
GPS	2024/09/16	06:20:01	$GPGGA,062002.00,7235.874277,N,00306.177444,W,2,09,0.8,84.070,M,-13.470,M,4.0,0123*4D
GPS	2024/09/16	06:21:01	$GPGGA,062102.00,7235.981736,N,00306.650465,W,2,09,0.8,82.489,M,-13.472,M,4.0,0123*40
GPS	2024/09/16	06:22:01	$GPGGA,062201.00,7236.087164,N,00307.121834,W,2,09,0.8,83.189,M,-13.474,M,5.0,0123*46
GPS	2024/09/16	06:23:01	$GPGGA,062302.00,7236.195821,N,00307.607407,W,2,09,0.8,81.988,M,-13.477,M,4.0,0123*48
GPS	2024/09/16	06:24:01	$GPGGA,062402.00,7236.302765,N,00308.075655,W,2,10,0.8,83.975,M,-13.479,M,4.0,0123*43
GPS	2024/09/16	06:25:01	$GPGGA,062502.00,7236.407823,N,00308.546622,W,2,09,0.8,83.022,M,-13.481,M,4.0,0123*4C
GPS	2024/09/16	06:26:01	$GPGGA,062602.00,7236.514867,N,00309.029003,W,2,09,0.8,82.785,M,-13.483,M,3.0,0123*4A
GPS	2024/09/16	06:27:01	$GPGGA,062701.00,7236.621406,N,00309.496972,W,2,09,0.8,82.616,M,-13.485,M,5.0,0123*42
GPS	2024/09/16	06:28:01	$GPGGA,062802.00,7236.732526,N,00309.979165,W,2,09,0.8,83.520,M,-13.488,M,4.0,0123*47
GPS	2024/09/16	06:29:01	$GPGGA,062902.00,7236.839128,N,00310.456092,W,2,09,0.8,82.194,M,-13.491,M,4.0,0123*4B
GPS	2024/09/16	06:30:01	$GPGGA,063002.00,7236.947510,N,00310.931697,W,2,10,0.8,84.031,M,-13.493,M,4.0,0123*49
GPS	2024/09/16	06:31:01	$GPGGA,063102.00,7237.055230,N,00311.405587,W,2,10,0.8,82.387,M,-13.495,M,5.0,0123*40
GPS	2024/09/16	06:32:01	$GPGGA,063202.00,7237.159938,N,00311.888161,W,2,09,0.8,82.310,M,-13.498,M,5.0,0123*43
GPS	2024/09/16	06:33:01	$GPGGA,063302.00,7237.267794,N,00312.369001,W,2,10,0.8,82.571,M,-13.500,M,5.0,0123*4D
GPS	2024/09/16	06:34:01	$GPGGA,063402.00,7237.375422,N,00312.859578,W,2,09,0.8,82.595,M,-13.503,M,5.0,0123*44
GPS	2024/09/16	06:35:01	$GPGGA,063501.00,7237.482279,N,00313.338888,W,2,09,0.8,82.165,M,-13.505,M,5.0,0123*43
GPS	2024/09/16	06:36:01	$GPGGA,063602.00,7237.590551,N,00313.827912,W,2,10,0.8,81.233,M,-13.507,M,5.0,0123*42
GPS	2024/09/16	06:37:01	$GPGGA,063701.00,7237.695863,N,00314.305728,W,2,10,0.8,81.978,M,-13.509,M,5.0,0123*4B
GPS	2024/09/16	06:38:01	$GPGGA,063802.00,7237.805245,N,00314.791441,W,2,10,0.8,82.352,M,-13.512,M,5.0,0123*40
GPS	2024/09/16	06:39:01	$GPGGA,063902.00,7237.911478,N,00315.273077,W,2,10,0.8,83.695,M,-13.514,M,5.0,0123*4D
GPS	2024/09/16	06:40:01	$GPGGA,064002.00,7238.019082,N,00315.753305,W,2,10,0.8,81.002,M,-13.517,M,5.0,0123*44
GPS	2024/09/16	06:41:01	$GPGGA,064102.00,7238.124964,N,00316.221020,W,2,10,0.8,82.085,M,-13.519,M,5.0,0123*4E
GPS	2024/09/16	06:42:01	$GPGGA,064201.00,7238.227113,N,00316.683278,W,2,10,0.8,83.045,M,-13.521,M,5.0,0123*43
GPS	2024/09/16	06:43:01	$GPGGA,064302.00,7238.335564,N,00317.162257,W,2,10,0.8,82.237,M,-13.523,M,3.0,0123*41
GPS	2024/09/16	06:44:01	$GPGGA,064402.00,7238.441979,N,00317.630864,W,2,11,0.7,84.103,M,-13.526,M,5.0,0123*47
GPS	2024/09/16	06:45:01	$GPGGA,064502.00,7238.547263,N,00318.093073,W,2,11,0.7,83.658,M,-13.528,M,5.0,0123*4F
GPS	2024/09/16	06:46:01	$GPGGA,064602.00,7238.654428,N,00318.555668,W,2,11,0.7,84.373,M,-13.530,M,5.0,0123*45
GPS	2024/09/16	06:47:01	$GPGGA,064702.00,7238.759272,N,00319.021643,W,2,10,0.9,83.591,M,-13.532,M,5.0,0123*4F
GPS	2024/09/16	06:48:01	$GPGGA,064802.00,7238.865800,N,00319.489717,W,2,10,0.9,84.921,M,-13.535,M,3.0,0123*48
GPS	2024/09/16	06:49:01	$GPGGA,064902.00,7238.975316,N,00319.957841,W,2,09,1.0,84.986,M,-13.538,M,5.0,0123*41
GPS	2024/09/16	06:50:01	$GPGGA,065002.00,7239.082676,N,00320.430715,W,2,09,1.0,85.266,M,-13.540,M,5.0,0123*49
GPS	2024/09/16	06:51:01	$GPGGA,065102.00,7239.190480,N,00320.910474,W,2,10,0.9,81.953,M,-13.542,M,5.0,0123*41
GPS	2024/09/16	06:52:01	$GPGGA,065202.00,7239.301462,N,00321.383133,W,2,10,0.9,81.949,M,-13.545,M,5.0,0123*4F
GPS	2024/09/16	06:53:01	$GPGGA,065302.00,7239.411327,N,00321.862809,W,2,09,1.0,84.630,M,-13.548,M,5.0,0123*43
GPS	2024/09/16	06:54:01	$GPGGA,065402.00,7239.519933,N,00322.337457,W,2,09,1.1,84.392,M,-13.550,M,5.0,0123*48
GPS	2024/09/16	06:55:01	$GPGGA,065502.00,7239.626622,N,00322.812396,W,2,09,1.1,85.347,M,-13.553,M,5.0,0123*45
GPS	2024/09/16	06:56:01	$GPGGA,065602.00,7239.736180,N,00323.290909,W,2,09,1.1,87.184,M,-13.555,M,5.0,0123*4D
GPS	2024/09/16	06:57:01	$GPGGA,065701.00,7239.846692,N,00323.759755,W,2,09,1.1,87.264,M,-13.557,M,4.0,0123*4A
GPS	2024/09/16	06:58:01	$GPGGA,065802.00,7239.958823,N,00324.244386,W,2,09,1.1,88.052,M,-13.560,M,5.0,0123*45
GPS	2024/09/16	06:59:01	$GPGGA,065902.00,7240.067947,N,00324.720150,W,2,09,1.1,87.008,M,-13.562,M,5.0,0123*40
GPS	2024/09/16	07:00:01	$GPGGA,070002.00,7240.175856,N,00325.187186,W,2,09,1.1,87.291,M,-13.564,M,4.0,0123*4A
GPS	2024/09/16	07:01:01	$GPGGA,070102.00,7240.284508,N,00325.658241,W,2,09,1.1,87.626,M,-13.566,M,4.0,0123*47
GPS	2024/09/16	07:02:01	$GPGGA,070201.00,7240.392042,N,00326.122264,W,2,09,1.1,86.843,M,-13.569,M,4.0,0123*47
GPS	2024/09/16	07:03:01	$GPGGA,070302.00,7240.503517,N,00326.596805,W,2,09,1.1,83.782,M,-13.572,M,4.0,0123*45
GPS	2024/09/16	07:04:01	$GPGGA,070402.00,7240.612811,N,00327.052735,W,2,09,1.1,84.802,M,-13.575,M,4.0,0123*4D
GPS	2024/09/16	07:05:01	$GPGGA,070502.00,7240.720828,N,00327.509966,W,2,09,1.1,85.933,M,-13.577,M,3.0,0123*42
GPS	2024/09/16	07:06:01	$GPGGA,070602.00,7240.831022,N,00327.971467,W,2,09,1.1,86.508,M,-13.579,M,4.0,0123*4D
GPS	2024/09/16	07:07:01	$GPGGA,070702.00,7240.940491,N,00328.431629,W,2,09,1.1,86.732,M,-13.582,M,4.0,0123*46
GPS	2024/09/16	07:08:01	$GPGGA,070801.00,7241.047441,N,00328.890213,W,2,09,1.1,86.631,M,-13.584,M,5.0,0123*47
GPS	2024/09/16	07:09:01	$GPGGA,070902.00,7241.159948,N,00329.364591,W,2,09,1.1,86.690,M,-13.587,M,4.0,0123*4A
GPS	2024/09/16	07:10:01	$GPGGA,071002.00,7241.269560,N,00329.822805,W,2,09,1.1,87.087,M,-13.590,M,3.0,0123*4D
GPS	2024/09/16	07:11:01	$GPGGA,071102.00,7241.381253,N,00330.279100,W,2,09,1.1,85.887,M,-13.593,M,4.0,0123*42
GPS	2024/09/16	07:12:01	$GPGGA,071202.00,7241.488064,N,00330.742859,W,2,09,1.1,86.997,M,-13.595,M,4.0,0123*44
GPS	2024/09/16	07:13:01	$GPGGA,071302.00,7241.595926,N,00331.206127,W,2,09,1.1,87.553,M,-13.597,M,4.0,0123*44
GPS	2024/09/16	07:14:01	$GPGGA,071402.00,7241.705339,N,00331.663368,W,2,09,1.0,86.230,M,-13.600,M,4.0,0123*4D
GPS	2024/09/16	07:15:01	$GPGGA,071501.00,7241.808717,N,00332.118900,W,2,09,1.0,86.425,M,-13.602,M,3.0,0123*4E
GPS	2024/09/16	07:16:01	$GPGGA,071602.00,7241.918061,N,00332.591233,W,2,09,1.0,85.581,M,-13.604,M,4.0,0123*4B
GPS	2024/09/16	07:17:01	$GPGGA,071702.00,7242.024307,N,00333.052824,W,2,09,1.0,85.393,M,-13.607,M,4.0,0123*4D
GPS	2024/09/16	07:18:01	$GPGGA,071802.00,7242.133244,N,00333.514184,W,2,08,1.1,81.757,M,-13.609,M,4.0,0123*41
GPS	2024/09/16	07:19:01	$GPGGA,071902.00,7242.239808,N,00333.978839,W,2,08,1.1,82.720,M,-13.611,M,4.0,0123*48
GPS	2024/09/16	07:20:01	$GPGGA,072002.00,7242.348086,N,00334.438070,W,2,08,1.1,80.029,M,-13.614,M,4.0,0123*49
GPS	2024/09/16	07:21:01	$GPGGA,072102.00,7242.453932,N,00334.901440,W,2,08,1.1,81.086,M,-13.616,M,4.0,0123*45
GPS	2024/09/16	07:22:01	$GPGGA,072201.00,7242.561224,N,00335.360071,W,2,08,1.1,80.306,M,-13.618,M,5.0,0123*46
GPS	2024/09/16	07:23:01	$GPGGA,072302.00,7242.670032,N,00335.838791,W,2,08,1.1,80.179,M,-13.622,M,4.0,0123*4F
GPS	2024/09/16	07:24:01	$GPGGA,072401.00,7242.776229,N,00336.293331,W,2,09,1.0,80.786,M,-13.624,M,5.0,0123*43
GPS	2024/09/16	07:25:01	$GPGGA,072502.00,7242.886715,N,00336.768064,W,2,08,1.1,80.082,M,-13.626,M,4.0,0123*49
GPS	2024/09/16	07:26:01	$GPGGA,072601.00,7242.992260,N,00337.233445,W,2,08,1.1,80.393,M,-13.629,M,5.0,0123*4A
GPS	2024/09/16	07:27:01	$GPGGA,072702.00,7243.102804,N,00337.706958,W,2,09,1.0,80.493,M,-13.631,M,3.0,0123*4A
GPS	2024/09/16	07:28:01	$GPGGA,072802.00,7243.211469,N,00338.174552,W,2,09,1.0,81.275,M,-13.633,M,4.0,0123*43
GPS	2024/09/16	07:29:01	$GPGGA,072902.00,7243.320740,N,00338.635815,W,2,09,1.0,81.305,M,-13.637,M,4.0,0123*47
GPS	2024/09/16	07:30:01	$GPGGA,073001.00,7243.427703,N,00339.089392,W,2,09,1.0,81.097,M,-13.639,M,5.0,0123*48
GPS	2024/09/16	07:31:01	$GPGGA,073102.00,7243.536647,N,00339.566149,W,2,09,1.0,82.343,M,-13.641,M,4.0,0123*4D
GPS	2024/09/16	07:32:01	$GPGGA,073201.00,7243.644032,N,00340.020128,W,2,09,1.0,80.874,M,-13.644,M,5.0,0123*48
GPS	2024/09/16	07:33:01	$GPGGA,073302.00,7243.755295,N,00340.488204,W,2,09,0.9,81.941,M,-13.646,M,4.0,0123*42
GPS	2024/09/16	07:34:01	$GPGGA,073402.00,7243.865338,N,00340.942153,W,2,09,0.9,82.372,M,-13.648,M,4.0,0123*42
GPS	2024/09/16	07:35:01	$GPGGA,073502.00,7243.973411,N,00341.405553,W,2,09,0.9,82.371,M,-13.651,M,4.0,0123*49
GPS	2024/09/16	07:36:01	$GPGGA,073601.00,7244.080917,N,00341.858618,W,2,09,0.9,82.819,M,-13.654,M,5.0,0123*49
GPS	2024/09/16	07:37:01	$GPGGA,073701.00,7244.189676,N,00342.317400,W,2,09,0.9,82.331,M,-13.656,M,3.0,0123*45
GPS	2024/09/16	07:38:01	$GPGGA,073802.00,7244.301974,N,00342.790341,W,2,08,1.0,81.925,M,-13.658,M,4.0,0123*43
GPS	2024/09/16	07:39:01	$GPGGA,073902.00,7244.411118,N,00343.252109,W,2,08,1.0,81.979,M,-13.661,M,5.0,0123*40
GPS	2024/09/16	07:40:01	$GPGGA,074002.00,7244.521160,N,00343.714220,W,2,08,1.0,80.221,M,-13.663,M,5.0,0123*49
GPS	2024/09/16	07:41:01	$GPGGA,074102.00,7244.631451,N,00344.175874,W,2,08,1.0,78.713,M,-13.667,M,5.0,0123*47
GPS	2024/09/16	07:42:01	$GPGGA,074202.00,7244.742238,N,00344.634407,W,2,09,1.0,82.849,M,-13.669,M,5.0,0123*48
GPS	2024/09/16	07:43:01	$GPGGA,074301.00,7244.850823,N,00345.087280,W,2,09,1.0,81.328,M,-13.672,M,5.0,0123*45
GPS	2024/09/16	07:44:01	$GPGGA,074402.00,7244.961438,N,00345.545265,W,2,09,1.0,82.187,M,-13.674,M,5.0,0123*46
GPS	2024/09/16	07:45:01	$GPGGA,074502.00,7245.070066,N,00346.004456,W,2,09,1.0,81.701,M,-13.677,M,5.0,0123*4D
GPS	2024/09/16	07:46:01	$GPGGA,074602.00,7245.177961,N,00346.472899,W,2,09,1.0,82.136,M,-13.679,M,5.0,0123*43
GPS	2024/09/16	07:47:01	$GPGGA,074701.00,7245.286005,N,00346.924351,W,2,09,1.0,83.666,M,-13.682,M,5.0,0123*41
GPS	2024/09/16	07:48:01	$GPGGA,074802.00,7245.396869,N,00347.390730,W,2,09,1.0,81.667,M,-13.685,M,5.0,0123*4C
GPS	2024/09/16	07:49:01	$GPGGA,074902.00,7245.506473,N,00347.852935,W,2,09,1.0,80.154,M,-13.687,M,5.0,0123*4F
GPS	2024/09/16	07:50:01	$GPGGA,075002.00,7245.615742,N,00348.313617,W,2,09,1.0,80.762,M,-13.689,M,5.0,0123*44
GPS	2024/09/16	07:51:01	$GPGGA,075102.00,7245.724584,N,00348.777151,W,2,09,1.0,81.037,M,-13.691,M,5.0,0123*42
GPS	2024/09/16	07:52:01	$GPGGA,075202.00,7245.835323,N,00349.241514,W,2,09,1.0,80.851,M,-13.694,M,5.0,0123*4D
GPS	2024/09/16	07:53:01	$GPGGA,075301.00,7245.944768,N,00349.707690,W,2,09,1.0,81.934,M,-13.696,M,5.0,0123*4A
GPS	2024/09/16	07:54:01	$GPGGA,075402.00,7246.056517,N,00350.194722,W,2,09,1.0,79.780,M,-13.699,M,3.0,0123*4E
GPS	2024/09/16	07:55:01	$GPGGA,075501.00,7246.166780,N,00350.655112,W,2,09,1.0,80.920,M,-13.702,M,5.0,0123*4A
GPS	2024/09/16	07:56:01	$GPGGA,075602.00,7246.277688,N,00351.133614,W,2,09,1.0,80.024,M,-13.704,M,5.0,0123*4C
GPS	2024/09/16	07:57:01	$GPGGA,075702.00,7246.388544,N,00351.602623,W,2,10,0.9,79.545,M,-13.707,M,5.0,0123*49
GPS	2024/09/16	07:58:01	$GPGGA,075802.00,7246.499766,N,00352.072274,W,2,10,0.9,79.696,M,-13.709,M,5.0,0123*44
GPS	2024/09/16	07:59:01	$GPGGA,075902.00,7246.610113,N,00352.548816,W,2,10,0.9,80.440,M,-13.712,M,4.0,0123*44
GPS	2024/09/16	08:00:01	$GPGGA,080002.00,7246.720358,N,00353.012617,W,2,10,0.9,79.336,M,-13.715,M,5.0,0123*4A
GPS	2024/09/16	08:01:01	$GPGGA,080102.00,7246.829124,N,00353.476278,W,2,10,0.9,80.394,M,-13.717,M,5.0,0123*43
GPS	2024/09/16	08:02:01	$GPGGA,080202.00,7246.938273,N,00353.951903,W,2,10,0.9,80.227,M,-13.720,M,5.0,0123*42
GPS	2024/09/16	08:03:01	$GPGGA,080302.00,7247.050350,N,00354.425627,W,2,10,0.9,80.199,M,-13.722,M,5.0,0123*41
GPS	2024/09/16	08:04:01	$GPGGA,080402.00,7247.160515,N,00354.898696,W,2,10,0.9,80.515,M,-13.725,M,5.0,0123*44
GPS	2024/09/16	08:05:01	$GPGGA,080502.00,7247.271496,N,00355.368931,W,2,10,0.9,80.312,M,-13.728,M,5.0,0123*47
GPS	2024/09/16	08:06:01	$GPGGA,080601.00,7247.379189,N,00355.836950,W,2,10,0.9,80.341,M,-13.729,M,4.0,0123*44
GPS	2024/09/16	08:07:01	$GPGGA,080702.00,7247.490390,N,00356.321748,W,2,10,0.9,79.790,M,-13.732,M,5.0,0123*40
GPS	2024/09/16	08:08:01	$GPGGA,080802.00,7247.601261,N,00356.789003,W,2,10,0.9,81.008,M,-13.734,M,5.0,0123*43
GPS	2024/09/16	08:09:01	$GPGGA,080902.00,7247.712884,N,00357.257041,W,2,10,0.8,80.598,M,-13.737,M,5.0,0123*4E
GPS	2024/09/16	08:10:01	$GPGGA,081002.00,7247.824697,N,00357.730542,W,2,11,0.7,81.617,M,-13.739,M,5.0,0123*47
GPS	2024/09/16	08:11:01	$GPGGA,081102.00,7247.931964,N,00358.199596,W,2,11,0.7,82.815,M,-13.742,M,5.0,0123*40
GPS	2024/09/16	08:12:01	$GPGGA,081202.00,7248.041258,N,00358.666807,W,2,11,0.7,82.092,M,-13.745,M,5.0,0123*44
GPS	2024/09/16	08:13:01	$GPGGA,081302.00,7248.147476,N,00359.137511,W,2,11,0.7,82.310,M,-13.747,M,5.0,0123*4B
GPS	2024/09/16	08:14:01	$GPGGA,081402.00,7248.257268,N,00359.603264,W,2,11,0.7,81.514,M,-13.749,M,5.0,0123*4D
GPS	2024/09/16	08:15:01	$GPGGA,081502.00,7248.363675,N,00400.074056,W,2,11,0.7,82.502,M,-13.752,M,5.0,0123*42
GPS	2024/09/16	08:16:01	$GPGGA,081601.00,7248.469608,N,00400.541390,W,2,10,0.8,82.205,M,-13.754,M,5.0,0123*47
GPS	2024/09/16	08:17:01	$GPGGA,081702.00,7248.575267,N,00401.014369,W,2,12,0.7,82.637,M,-13.757,M,4.0,0123*4C
GPS	2024/09/16	08:18:01	$GPGGA,081801.00,7248.684179,N,00401.457956,W,2,11,0.7,83.545,M,-13.759,M,4.0,0123*4E
GPS	2024/09/16	08:19:01	$GPGGA,081902.00,7248.793402,N,00401.934644,W,2,10,0.7,84.643,M,-13.761,M,4.0,0123*4E
GPS	2024/09/16	08:20:01	$GPGGA,082002.00,7248.901411,N,00402.382629,W,2,11,0.8,82.945,M,-13.763,M,4.0,0123*4F
GPS	2024/09/16	08:21:01	$GPGGA,082102.00,7249.005069,N,00402.837202,W,2,11,0.8,82.770,M,-13.766,M,4.0,0123*4C
GPS	2024/09/16	08:22:01	$GPGGA,082202.00,7249.112263,N,00403.293775,W,2,11,0.8,82.826,M,-13.768,M,4.0,0123*42
GPS	2024/09/16	08:23:01	$GPGGA,082302.00,7249.222149,N,00403.753453,W,2,11,0.8,84.347,M,-13.770,M,4.0,0123*45
GPS	2024/09/16	08:24:01	$GPGGA,082402.00,7249.328981,N,00404.217856,W,2,11,0.8,81.901,M,-13.772,M,4.0,0123*41
GPS	2024/09/16	08:25:01	$GPGGA,082502.00,7249.435617,N,00404.671394,W,2,11,0.8,84.150,M,-13.774,M,4.0,0123*45
GPS	2024/09/16	08:26:01	$GPGGA,082601.00,7249.538754,N,00405.123604,W,2,11,0.8,85.343,M,-13.776,M,3.0,0123*46
GPS	2024/09/16	08:27:01	$GPGGA,082702.00,7249.645654,N,00405.597300,W,2,12,0.8,84.993,M,-13.778,M,4.0,0123*4A
GPS	2024/09/16	08:28:01	$GPGGA,082802.00,7249.752951,N,00406.059200,W,2,11,0.8,85.293,M,-13.780,M,4.0,0123*43
GPS	2024/09/16	08:29:01	$GPGGA,082902.00,7249.860528,N,00406.531676,W,2,11,0.8,84.538,M,-13.782,M,4.0,0123*45
GPS	2024/09/16	08:30:01	$GPGGA,083002.00,7249.970065,N,00406.998987,W,2,11,0.8,84.706,M,-13.785,M,4.0,0123*47
GPS	2024/09/16	08:31:01	$GPGGA,083102.00,7250.078857,N,00407.465687,W,2,11,0.8,85.156,M,-13.788,M,4.0,0123*48
GPS	2024/09/16	08:32:01	$GPGGA,083202.00,7250.185064,N,00407.929525,W,2,11,0.8,85.949,M,-13.790,M,4.0,0123*41
GPS	2024/09/16	08:33:01	$GPGGA,083302.00,7250.292348,N,00408.386998,W,2,12,0.8,84.640,M,-13.792,M,4.0,0123*44
GPS	2024/09/16	08:34:01	$GPGGA,083401.00,7250.395358,N,00408.846455,W,2,12,0.8,86.030,M,-13.794,M,4.0,0123*49
GPS	2024/09/16	08:35:01	$GPGGA,083502.00,7250.505283,N,00409.317078,W,2,12,0.8,85.603,M,-13.796,M,4.0,0123*41
GPS	2024/09/16	08:36:01	$GPGGA,083602.00,7250.611780,N,00409.780007,W,2,12,0.8,86.588,M,-13.798,M,4.0,0123*4D
GPS	2024/09/16	08:37:01	$GPGGA,083702.00,7250.720828,N,00410.243523,W,2,11,0.9,85.737,M,-13.801,M,4.0,0123*4B
GPS	2024/09/16	08:38:01	$GPGGA,083801.00,7250.827656,N,00410.697404,W,2,12,0.8,84.734,M,-13.803,M,4.0,0123*43
GPS	2024/09/16	08:39:01	$GPGGA,083902.00,7250.936620,N,00411.175245,W,2,11,0.9,84.055,M,-13.805,M,4.0,0123*4C
GPS	2024/09/16	08:40:01	$GPGGA,084002.00,7251.046362,N,00411.643682,W,2,12,0.8,84.040,M,-13.807,M,4.0,0123*47
GPS	2024/09/16	08:41:01	$GPGGA,084101.00,7251.153141,N,00412.105474,W,2,12,0.8,84.675,M,-13.810,M,4.0,0123*48
GPS	2024/09/16	08:42:01	$GPGGA,084202.00,7251.265371,N,00412.587048,W,2,11,0.9,84.717,M,-13.812,M,4.0,0123*4F
GPS	2024/09/16	08:43:01	$GPGGA,084302.00,7251.374395,N,00413.062930,W,2,12,0.8,84.443,M,-13.814,M,4.0,0123*4A
GPS	2024/09/16	08:44:01	$GPGGA,084402.00,7251.482729,N,00413.535837,W,2,11,0.8,85.759,M,-13.816,M,4.0,0123*49
GPS	2024/09/16	08:45:01	$GPGGA,084502.00,7251.590545,N,00414.000281,W,2,11,0.8,85.801,M,-13.818,M,4.0,0123*4D
GPS	2024/09/16	08:46:01	$GPGGA,084602.00,7251.694725,N,00414.463829,W,2,10,0.9,85.813,M,-13.820,M,4.0,0123*4C
GPS	2024/09/16	08:47:01	$GPGGA,084702.00,7251.800773,N,00414.913493,W,2,11,0.8,86.313,M,-13.822,M,4.0,0123*40
GPS	2024/09/16	08:48:01	$GPGGA,084802.00,7251.906116,N,00415.380548,W,2,11,0.8,84.815,M,-13.824,M,4.0,0123*42
GPS	2024/09/16	08:49:01	$GPGGA,084902.00,7252.016181,N,00415.843667,W,2,11,0.8,85.427,M,-13.826,M,4.0,0123*42
GPS	2024/09/16	08:50:01	$GPGGA,085002.00,7252.122363,N,00416.289760,W,2,11,0.8,86.561,M,-13.829,M,4.0,0123*44
GPS	2024/09/16	08:51:01	$GPGGA,085101.00,7252.227973,N,00416.745360,W,2,11,0.8,86.272,M,-13.831,M,4.0,0123*46
GPS	2024/09/16	08:52:01	$GPGGA,085202.00,7252.338392,N,00417.219537,W,2,11,0.8,87.070,M,-13.834,M,4.0,0123*41
GPS	2024/09/16	08:53:01	$GPGGA,085302.00,7252.445473,N,00417.686791,W,2,11,0.8,86.722,M,-13.836,M,4.0,0123*4A
GPS	2024/09/16	08:54:01	$GPGGA,085402.00,7252.555689,N,00418.152229,W,2,11,0.8,85.915,M,-13.838,M,4.0,0123*4A
GPS	2024/09/16	08:55:01	$GPGGA,085501.00,7252.662705,N,00418.614187,W,2,11,0.8,86.083,M,-13.840,M,4.0,0123*42
GPS	2024/09/16	08:56:01	$GPGGA,085602.00,7252.774041,N,00419.090850,W,2,11,0.8,85.180,M,-13.842,M,4.0,0123*48
GPS	2024/09/16	08:57:01	$GPGGA,085701.00,7252.883154,N,00419.548230,W,2,11,0.8,85.268,M,-13.844,M,4.0,0123*47
GPS	2024/09/16	08:58:01	$GPGGA,085802.00,7252.995306,N,00420.028365,W,2,11,0.8,86.059,M,-13.847,M,4.0,0123*40
GPS	2024/09/16	08:59:01	$GPGGA,085902.00,7253.101617,N,00420.490048,W,2,10,0.8,85.461,M,-13.849,M,4.0,0123*48
GPS	2024/09/16	09:00:01	$GPGGA,090002.00,7253.209858,N,00420.949003,W,2,10,0.8,84.983,M,-13.852,M,4.0,0123*47
GPS	2024/09/16	09:01:01	$GPGGA,090102.00,7253.316006,N,00421.415868,W,2,10,0.8,84.958,M,-13.854,M,4.0,0123*4A
GPS	2024/09/16	09:02:01	$GPGGA,090202.00,7253.419677,N,00421.883671,W,2,10,0.8,85.045,M,-13.855,M,4.0,0123*41
GPS	2024/09/16	09:03:01	$GPGGA,090301.00,7253.522362,N,00422.343573,W,2,10,0.8,85.624,M,-13.857,M,4.0,0123*4D
