NAV 2024/05/28 20:00:00.573 SEAPATH $INGGA,200000.59,4131.443573,N,07040.329538,W,2,12,1.0,0.21,M,-33.66,M,11.0,1015*54
$INVTG,24.88,T,38.95,M,0.0,N,0.0,K,D*37
$INHDT,26.98,T*20
$PSXN,23,-0.78,0.44,26.98,-0.00*02
NAV 2024/05/28 20:00:01.573 SEAPATH $INGGA,200001.59,4131.443571,N,07040.329537,W,2,12,1.0,0.23,M,-33.66,M,7.0,1015*6D
$INVTG,34.46,T,48.54,M,0.0,N,0.0,K,D*3E
$INHDT,26.98,T*20
$PSXN,23,-0.81,0.44,26.98,-0.00*04
NAV 2024/05/28 20:00:02.573 SEAPATH $INGGA,200002.59,4131.443574,N,07040.329536,W,2,12,1.0,0.21,M,-33.66,M,8.0,1015*67
$INVTG,345.54,T,359.61,M,0.0,N,0.0,K,D*3D
$INHDT,26.99,T*21
$PSXN,23,-0.82,0.45,26.99,-0.01*06
NAV 2024/05/28 20:00:03.573 SEAPATH $INGGA,200003.59,4131.443577,N,07040.329539,W,2,12,1.0,0.21,M,-33.66,M,9.0,1015*6B
$INVTG,321.58,T,335.66,M,0.0,N,0.0,K,D*3E
$INHDT,26.98,T*20
$PSXN,23,-0.81,0.46,26.98,-0.01*07
NAV 2024/05/28 20:00:04.573 SEAPATH $INGGA,200004.59,4131.443580,N,07040.329540,W,2,12,1.0,0.22,M,-33.66,M,10.0,1015*51
$INVTG,311.35,T,325.43,M,0.0,N,0.0,K,D*30
$INHDT,26.98,T*20
$PSXN,23,-0.78,0.45,26.98,-0.01*02
NAV 2024/05/28 20:00:05.573 SEAPATH $INGGA,200005.59,4131.443585,N,07040.329551,W,2,12,1.0,0.21,M,-33.66,M,6.0,1015*61
$INVTG,310.69,T,324.77,M,0.0,N,0.0,K,D*3E
$INHDT,26.99,T*21
$PSXN,23,-0.75,0.45,26.99,-0.01*0E
NAV 2024/05/28 20:00:06.573 SEAPATH $INGGA,200006.59,4131.443585,N,07040.329546,W,2,12,1.0,0.25,M,-33.66,M,7.0,1015*61
$INVTG,310.28,T,324.35,M,0.0,N,0.0,K,D*3D
$INHDT,26.99,T*21
$PSXN,23,-0.72,0.45,26.99,-0.00*08
NAV 2024/05/28 20:00:07.573 SEAPATH $INGGA,200007.59,4131.443584,N,07040.329549,W,2,12,1.0,0.25,M,-33.66,M,8.0,1015*61
$INVTG,301.08,T,315.15,M,0.0,N,0.0,K,D*3F
$INHDT,26.99,T*21
$PSXN,23,-0.72,0.46,26.99,-0.00*0B
NAV 2024/05/28 20:00:08.573 SEAPATH $INGGA,200008.59,4131.443581,N,07040.329551,W,2,12,1.0,0.24,M,-33.66,M,9.0,1015*62
$INVTG,303.98,T,318.06,M,0.0,N,0.0,K,D*3B
$INHDT,27.00,T*20
$PSXN,23,-0.74,0.45,27.00,-0.00*0F
NAV 2024/05/28 20:00:09.573 SEAPATH $INGGA,200009.59,4131.443581,N,07040.329551,W,2,12,1.0,0.24,M,-33.66,M,10.0,1015*5B
$INVTG,339.20,T,353.28,M,0.0,N,0.0,K,D*32
$INHDT,27.00,T*20
$PSXN,23,-0.78,0.45,27.00,-0.00*03
NAV 2024/05/28 20:00:10.573 SEAPATH $INGGA,200010.58,4131.443584,N,07040.329552,W,2,12,1.0,0.24,M,-33.66,M,11.0,1015*55
$INVTG,350.24,T,4.31,M,0.0,N,0.0,K,D*30
$INHDT,27.01,T*21
$PSXN,23,-0.82,0.44,27.01,-0.00*06
NAV 2024/05/28 20:00:11.573 SEAPATH $INGGA,200011.59,4131.443586,N,07040.329555,W,2,12,1.0,0.24,M,-33.66,M,7.0,1015*67
$INVTG,306.85,T,320.92,M,0.0,N,0.0,K,D*34
$INHDT,27.02,T*22
$PSXN,23,-0.84,0.45,27.02,-0.01*03
NAV 2024/05/28 20:00:12.573 SEAPATH $INGGA,200012.59,4131.443590,N,07040.329556,W,2,12,1.0,0.24,M,-33.66,M,8.0,1015*6F
$INVTG,288.63,T,302.71,M,0.0,N,0.0,K,D*36
$INHDT,27.01,T*21
$PSXN,23,-0.81,0.46,27.01,-0.01*06
NAV 2024/05/28 20:00:13.573 SEAPATH $INGGA,200013.59,4131.443588,N,07040.329558,W,2,12,1.0,0.24,M,-33.66,M,9.0,1015*68
$INVTG,274.74,T,288.81,M,0.0,N,0.0,K,D*3F
$INHDT,27.01,T*21
$PSXN,23,-0.76,0.47,27.01,-0.00*0E
NAV 2024/05/28 20:00:14.573 SEAPATH $INGGA,200014.59,4131.443586,N,07040.329559,W,2,12,1.0,0.24,M,-33.66,M,10.0,1015*58
$INVTG,247.89,T,261.97,M,0.0,N,0.0,K,D*3D
$INHDT,27.00,T*20
$PSXN,23,-0.71,0.46,27.00,-0.00*09
NAV 2024/05/28 20:00:15.573 SEAPATH $INGGA,200015.59,4131.443584,N,07040.329562,W,2,12,1.0,0.23,M,-33.66,M,11.0,1015*55
$INVTG,238.25,T,252.33,M,0.0,N,0.0,K,D*3D
$INHDT,27.00,T*20
$PSXN,23,-0.69,0.45,27.00,0.00*2E
NAV 2024/05/28 20:00:16.573 SEAPATH $INGGA,200016.59,4131.443579,N,07040.329560,W,2,12,1.0,0.23,M,-33.66,M,12.0,1015*55
$INVTG,336.80,T,350.88,M,0.0,N,0.0,K,D*3E
$INHDT,26.99,T*21
$PSXN,23,-0.71,0.43,26.99,0.00*20
NAV 2024/05/28 20:00:17.573 SEAPATH $INGGA,200017.59,4131.443579,N,07040.329567,W,2,12,1.0,0.24,M,-33.66,M,8.0,1015*6F
$INVTG,20.59,T,34.66,M,0.0,N,0.0,K,D*3F
$INHDT,26.98,T*20
$PSXN,23,-0.75,0.44,26.98,0.00*22
NAV 2024/05/28 20:00:18.573 SEAPATH $INGGA,200018.59,4131.443582,N,07040.329564,W,2,12,1.0,0.24,M,-33.66,M,9.0,1015*66
$INVTG,41.27,T,55.35,M,0.0,N,0.0,K,D*30
$INHDT,26.97,T*2F
$PSXN,23,-0.81,0.46,26.97,-0.00*09
NAV 2024/05/28 20:00:19.573 SEAPATH $INGGA,200019.59,4131.443583,N,07040.329562,W,2,12,1.0,0.24,M,-33.66,M,10.0,1015*58
$INVTG,32.83,T,46.91,M,0.0,N,0.0,K,D*36
$INHDT,26.96,T*2E
$PSXN,23,-0.84,0.47,26.96,-0.01*0D
NAV 2024/05/28 20:00:20.573 SEAPATH $INGGA,200020.59,4131.443587,N,07040.329563,W,2,12,1.0,0.23,M,-33.66,M,11.0,1015*51
$INVTG,23.45,T,37.53,M,0.0,N,0.0,K,D*34
$INHDT,26.95,T*2D
$PSXN,23,-0.83,0.46,26.95,-0.00*09
NAV 2024/05/28 20:00:21.573 SEAPATH $INGGA,200021.59,4131.443589,N,07040.329563,W,2,12,1.0,0.22,M,-33.66,M,12.0,1015*5C
$INVTG,337.25,T,351.33,M,0.0,N,0.0,K,D*31
$INHDT,26.95,T*2D
$PSXN,23,-0.80,0.45,26.95,0.00*24
NAV 2024/05/28 20:00:22.573 SEAPATH $INGGA,200022.59,4131.443587,N,07040.329563,W,2,12,1.0,0.21,M,-33.66,M,13.0,1015*53
$INVTG,352.24,T,6.32,M,0.0,N,0.0,K,D*33
$INHDT,26.95,T*2D
$PSXN,23,-0.76,0.44,26.95,0.00*2C
NAV 2024/05/28 20:00:23.573 SEAPATH $INGGA,200023.59,4131.443574,N,07040.329590,W,2,12,1.0,0.29,M,-33.66,M,8.0,1015*60
$INVTG,21.94,T,36.02,M,0.0,N,0.0,K,D*3F
$INHDT,26.95,T*2D
$PSXN,23,-0.72,0.44,26.95,0.00*28
NAV 2024/05/28 20:00:24.573 SEAPATH $INGGA,200024.59,4131.443577,N,07040.329589,W,2,12,1.0,0.30,M,-33.66,M,9.0,1015*65
$INVTG,21.75,T,35.83,M,0.0,N,0.0,K,D*3A
$INHDT,26.95,T*2D
$PSXN,23,-0.72,0.45,26.95,0.00*29
NAV 2024/05/28 20:00:25.573 SEAPATH $INGGA,200025.59,4131.443579,N,07040.329587,W,2,12,1.0,0.30,M,-33.66,M,10.0,1015*5C
$INVTG,36.14,T,50.21,M,0.0,N,0.0,K,D*30
$INHDT,26.95,T*2D
$PSXN,23,-0.73,0.46,26.95,-0.00*06
NAV 2024/05/28 20:00:26.573 SEAPATH $INGGA,200026.59,4131.443579,N,07040.329585,W,2,12,1.0,0.30,M,-33.66,M,11.0,1015*5C
$INVTG,45.27,T,59.35,M,0.0,N,0.0,K,D*38
$INHDT,26.95,T*2D
$PSXN,23,-0.76,0.46,26.95,-0.00*03
NAV 2024/05/28 20:00:27.573 SEAPATH $INGGA,200027.59,4131.443576,N,07040.329580,W,2,12,1.0,0.31,M,-33.66,M,12.0,1015*55
$INVTG,60.04,T,74.12,M,0.0,N,0.0,K,D*34
$INHDT,26.95,T*2D
$PSXN,23,-0.78,0.45,26.95,-0.00*0E
NAV 2024/05/28 20:00:28.573 SEAPATH $INGGA,200028.59,4131.443578,N,07040.329578,W,2,12,1.0,0.30,M,-33.66,M,13.0,1015*53
$INVTG,60.41,T,74.48,M,0.0,N,0.0,K,D*3A
$INHDT,26.96,T*2E
$PSXN,23,-0.78,0.45,26.96,-0.00*0D
NAV 2024/05/28 20:00:29.573 SEAPATH $INGGA,200029.59,4131.443580,N,07040.329577,W,2,12,1.0,0.29,M,-33.66,M,9.0,1015*69
$INVTG,58.38,T,72.46,M,0.0,N,0.0,K,D*37
$INHDT,26.97,T*2F
$PSXN,23,-0.75,0.45,26.97,0.00*2C
NAV 2024/05/28 20:00:30.573 SEAPATH $INGGA,200030.59,4131.443584,N,07040.329573,W,2,12,1.0,0.28,M,-33.66,M,10.0,1015*58
$INVTG,80.83,T,94.90,M,0.0,N,0.0,K,D*31
$INHDT,26.98,T*20
$PSXN,23,-0.71,0.45,26.98,0.00*27
NAV 2024/05/28 20:00:31.573 SEAPATH $INGGA,200031.59,4131.443588,N,07040.329569,W,2,12,1.0,0.27,M,-33.66,M,6.0,1015*66
$INVTG,63.14,T,77.22,M,0.0,N,0.0,K,D*36
$INHDT,26.99,T*21
$PSXN,23,-0.69,0.45,26.99,-0.00*02
NAV 2024/05/28 20:00:32.573 SEAPATH $INGGA,200032.59,4131.443587,N,07040.329568,W,2,12,1.0,0.27,M,-33.66,M,7.0,1015*6A
$INVTG,93.05,T,107.12,M,0.0,N,0.0,K,D*0C
$INHDT,27.00,T*20
$PSXN,23,-0.69,0.46,27.00,-0.00*00
NAV 2024/05/28 20:00:33.573 SEAPATH $INGGA,200033.59,4131.443585,N,07040.329563,W,2,12,1.0,0.27,M,-33.66,M,8.0,1015*6D
$INVTG,105.50,T,119.58,M,0.0,N,0.0,K,D*33
$INHDT,27.01,T*21
$PSXN,23,-0.73,0.45,27.01,-0.00*09
NAV 2024/05/28 20:00:34.573 SEAPATH $INGGA,200034.59,4131.443581,N,07040.329558,W,2,12,1.0,0.27,M,-33.66,M,9.0,1015*67
$INVTG,111.88,T,125.96,M,0.0,N,0.0,K,D*3E
$INHDT,27.02,T*22
$PSXN,23,-0.77,0.44,27.02,-0.00*0F
NAV 2024/05/28 20:00:35.573 SEAPATH $INGGA,200035.59,4131.443576,N,07040.329556,W,2,12,1.0,0.27,M,-33.66,M,5.0,1015*6C
$INVTG,110.71,T,124.79,M,0.0,N,0.0,K,D*39
$INHDT,27.03,T*23
$PSXN,23,-0.80,0.45,27.03,-0.00*07
NAV 2024/05/28 20:00:36.573 SEAPATH $INGGA,200036.59,4131.443576,N,07040.329552,W,2,12,1.0,0.27,M,-33.66,M,6.0,1015*68
$INVTG,110.72,T,124.79,M,0.0,N,0.0,K,D*3A
$INHDT,27.03,T*23
$PSXN,23,-0.80,0.45,27.03,-0.00*07
NAV 2024/05/28 20:00:37.573 SEAPATH $INGGA,200037.59,4131.443575,N,07040.329546,W,2,12,1.0,0.26,M,-33.66,M,7.0,1015*6F
$INVTG,116.55,T,130.63,M,0.0,N,0.0,K,D*37
$INHDT,27.04,T*24
$PSXN,23,-0.81,0.46,27.04,-0.00*02
NAV 2024/05/28 20:00:38.573 SEAPATH $INGGA,200038.59,4131.443573,N,07040.329546,W,2,12,1.0,0.25,M,-33.66,M,8.0,1015*6A
$INVTG,102.16,T,116.23,M,0.0,N,0.0,K,D*35
$INHDT,27.05,T*25
$PSXN,23,-0.80,0.46,27.05,-0.00*02
NAV 2024/05/28 20:00:39.573 SEAPATH $INGGA,200039.59,4131.443572,N,07040.329544,W,2,12,1.0,0.27,M,-33.66,M,9.0,1015*6B
$INVTG,25.18,T,39.26,M,0.0,N,0.0,K,D*36
$INHDT,27.06,T*26
$PSXN,23,-0.79,0.45,27.06,-0.00*04
NAV 2024/05/28 20:00:40.573 SEAPATH $INGGA,200040.59,4131.443569,N,07040.329546,W,2,12,1.0,0.26,M,-33.66,M,10.0,1015*54
$INVTG,42.74,T,56.82,M,0.0,N,0.0,K,D*3A
$INHDT,27.06,T*26
$PSXN,23,-0.78,0.45,27.06,0.00*28
NAV 2024/05/28 20:00:41.573 SEAPATH $INGGA,200041.59,4131.443572,N,07040.329541,W,2,12,1.0,0.27,M,-33.66,M,6.0,1015*6E
$INVTG,2.87,T,16.95,M,0.0,N,0.0,K,D*00
$INHDT,27.07,T*27
$PSXN,23,-0.76,0.45,27.07,-0.00*0A
NAV 2024/05/28 20:00:42.573 SEAPATH $INGGA,200042.59,4131.443575,N,07040.329546,W,2,12,1.0,0.25,M,-33.66,M,7.0,1015*6E
$INVTG,43.72,T,57.80,M,0.0,N,0.0,K,D*3E
$INHDT,27.07,T*27
$PSXN,23,-0.74,0.46,27.07,-0.00*0B
NAV 2024/05/28 20:00:43.573 SEAPATH $INGGA,200043.59,4131.443578,N,07040.329544,W,2,12,1.0,0.25,M,-33.66,M,8.0,1015*6F
$INVTG,65.65,T,79.73,M,0.0,N,0.0,K,D*3C
$INHDT,27.07,T*27
$PSXN,23,-0.74,0.46,27.07,-0.00*0B
NAV 2024/05/28 20:00:44.573 SEAPATH $INGGA,200044.59,4131.443576,N,07040.329544,W,2,12,1.0,0.25,M,-33.66,M,9.0,1015*67
$INVTG,59.86,T,73.93,M,0.0,N,0.0,K,D*3A
$INHDT,27.07,T*27
$PSXN,23,-0.76,0.45,27.07,-0.00*0A
NAV 2024/05/28 20:00:45.573 SEAPATH $INGGA,200045.59,4131.443576,N,07040.329542,W,2,12,1.0,0.25,M,-33.66,M,5.0,1015*6C
$INVTG,321.06,T,335.14,M,0.0,N,0.0,K,D*30
$INHDT,27.07,T*27
$PSXN,23,-0.79,0.45,27.07,-0.00*05
NAV 2024/05/28 20:00:46.573 SEAPATH $INGGA,200046.59,4131.443579,N,07040.329545,W,2,12,1.0,0.25,M,-33.66,M,6.0,1015*64
$INVTG,294.79,T,308.87,M,0.0,N,0.0,K,D*33
$INHDT,27.06,T*26
$PSXN,23,-0.80,0.45,27.06,0.00*2F
NAV 2024/05/28 20:00:47.573 SEAPATH $INGGA,200047.59,4131.443576,N,07040.329550,W,2,12,1.0,0.25,M,-33.66,M,7.0,1015*6F
$INVTG,276.68,T,290.76,M,0.0,N,0.0,K,D*31
$INHDT,27.05,T*25
$PSXN,23,-0.80,0.45,27.05,0.00*2C
NAV 2024/05/28 20:00:48.573 SEAPATH $INGGA,200048.59,4131.443576,N,07040.329554,W,2,12,1.0,0.25,M,-33.66,M,8.0,1015*6B
$INVTG,269.51,T,283.59,M,0.0,N,0.0,K,D*3A
$INHDT,27.04,T*24
$PSXN,23,-0.79,0.45,27.04,0.00*2B
NAV 2024/05/28 20:00:49.573 SEAPATH $INGGA,200049.59,4131.443575,N,07040.329556,W,2,11,1.1,0.27,M,-33.66,M,9.0,1015*6A
$INVTG,277.21,T,291.28,M,0.0,N,0.0,K,D*37
$INHDT,27.03,T*23
$PSXN,23,-0.76,0.45,27.03,-0.00*0E
NAV 2024/05/28 20:00:50.573 SEAPATH $INGGA,200050.59,4131.443574,N,07040.329562,W,2,11,1.1,0.27,M,-33.66,M,10.0,1015*5C
$INVTG,269.31,T,283.39,M,0.0,N,0.0,K,D*3A
$INHDT,27.02,T*22
$PSXN,23,-0.74,0.46,27.02,-0.00*0E
NAV 2024/05/28 20:00:51.573 SEAPATH $INGGA,200051.59,4131.443573,N,07040.329561,W,2,11,1.1,0.28,M,-33.66,M,11.0,1015*57
$INVTG,258.99,T,273.07,M,0.0,N,0.0,K,D*38
$INHDT,27.01,T*21
$PSXN,23,-0.73,0.46,27.01,-0.00*0A
NAV 2024/05/28 20:00:52.573 SEAPATH $INGGA,200052.59,4131.443573,N,07040.329563,W,2,11,1.1,0.28,M,-33.66,M,12.0,1015*55
$INVTG,233.19,T,247.27,M,0.0,N,0.0,K,D*38
$INHDT,27.01,T*21
$PSXN,23,-0.73,0.46,27.01,0.00*27
NAV 2024/05/28 20:00:53.573 SEAPATH $INGGA,200053.59,4131.443572,N,07040.329568,W,2,11,1.1,0.27,M,-33.66,M,13.0,1015*50
$INVTG,221.49,T,235.57,M,0.0,N,0.0,K,D*3C
$INHDT,27.01,T*21
$PSXN,23,-0.76,0.45,27.01,0.00*21
NAV 2024/05/28 20:00:54.573 SEAPATH $INGGA,200054.59,4131.443570,N,07040.329570,W,2,11,1.1,0.28,M,-33.66,M,14.0,1015*54
$INVTG,260.50,T,274.58,M,0.0,N,0.0,K,D*3B
$INHDT,27.00,T*20
$PSXN,23,-0.79,0.44,27.00,0.00*2E
NAV 2024/05/28 20:00:55.573 SEAPATH $INGGA,200055.59,4131.443569,N,07040.329573,W,2,11,1.1,0.29,M,-33.66,M,15.0,1015*5E
$INVTG,275.83,T,289.91,M,0.0,N,0.0,K,D*36
$INHDT,27.00,T*20
$PSXN,23,-0.81,0.46,27.00,0.00*2B
NAV 2024/05/28 20:00:56.573 SEAPATH $INGGA,200056.59,4131.443569,N,07040.329575,W,2,11,1.1,0.28,M,-33.66,M,16.0,1015*59
$INVTG,268.58,T,282.66,M,0.0,N,0.0,K,D*3F
$INHDT,27.00,T*20
$PSXN,23,-0.81,0.46,27.00,0.00*2B
NAV 2024/05/28 20:00:57.573 SEAPATH $INGGA,200057.59,4131.443563,N,07040.329581,W,2,11,1.1,0.29,M,-33.66,M,10.0,1015*5E
$INVTG,257.54,T,271.61,M,0.0,N,0.0,K,D*34
$INHDT,27.00,T*20
$PSXN,23,-0.79,0.45,27.00,0.00*2F
NAV 2024/05/28 20:00:58.573 SEAPATH $INGGA,200058.59,4131.443567,N,07040.329581,W,2,11,1.1,0.29,M,-33.66,M,11.0,1015*54
$INVTG,255.58,T,269.66,M,0.0,N,0.0,K,D*34
$INHDT,27.00,T*20
$PSXN,23,-0.77,0.44,27.00,0.00*20
NAV 2024/05/28 20:00:59.573 SEAPATH $INGGA,200059.59,4131.443568,N,07040.329581,W,2,11,1.1,0.29,M,-33.66,M,12.0,1015*59
$INVTG,265.98,T,280.06,M,0.0,N,0.0,K,D*3A
$INHDT,27.00,T*20
$PSXN,23,-0.75,0.44,27.00,0.00*22
NAV 2024/05/28 20:01:00.573 SEAPATH $INGGA,200100.59,4131.443570,N,07040.329580,W,2,11,1.1,0.29,M,-33.66,M,13.0,1015*5D
$INVTG,330.77,T,344.84,M,0.0,N,0.0,K,D*39
$INHDT,27.00,T*20
$PSXN,23,-0.74,0.45,27.00,0.00*22
NAV 2024/05/28 20:01:01.573 SEAPATH $INGGA,200101.59,4131.443568,N,07040.329583,W,2,11,1.1,0.28,M,-33.66,M,8.0,1015*6D
$INVTG,333.61,T,347.68,M,0.0,N,0.0,K,D*3C
$INHDT,27.00,T*20
$PSXN,23,-0.75,0.46,27.00,-0.00*0D
NAV 2024/05/28 20:01:02.573 SEAPATH $INGGA,200102.59,4131.443569,N,07040.329583,W,2,11,1.1,0.28,M,-33.66,M,9.0,1015*6E
$INVTG,221.96,T,236.03,M,0.0,N,0.0,K,D*3C
$INHDT,27.00,T*20
$PSXN,23,-0.77,0.47,27.00,-0.00*0E
NAV 2024/05/28 20:01:03.573 SEAPATH $INGGA,200103.59,4131.443568,N,07040.329582,W,2,11,1.1,0.28,M,-33.66,M,10.0,1015*57
$INVTG,230.77,T,244.85,M,0.0,N,0.0,K,D*38
$INHDT,27.00,T*20
$PSXN,23,-0.79,0.46,27.00,0.00*2C
NAV 2024/05/28 20:01:04.573 SEAPATH $INGGA,200104.59,4131.443570,N,07040.329584,W,2,11,1.1,0.27,M,-33.66,M,11.0,1015*51
$INVTG,235.20,T,249.27,M,0.0,N,0.0,K,D*3A
$INHDT,26.99,T*21
$PSXN,23,-0.80,0.44,26.99,0.00*29
NAV 2024/05/28 20:01:05.573 SEAPATH $INGGA,200105.59,4131.443566,N,07040.329585,W,2,11,1.1,0.27,M,-33.66,M,12.0,1015*55
$INVTG,235.05,T,249.13,M,0.0,N,0.0,K,D*3A
$INHDT,26.98,T*20
$PSXN,23,-0.79,0.44,26.98,0.00*2E
NAV 2024/05/28 20:01:06.573 SEAPATH $INGGA,200106.59,4131.443563,N,07040.329589,W,2,11,1.1,0.28,M,-33.66,M,13.0,1015*51
$INVTG,270.94,T,285.02,M,0.0,N,0.0,K,D*33
$INHDT,26.98,T*20
$PSXN,23,-0.78,0.45,26.98,0.00*2E
NAV 2024/05/28 20:01:07.573 SEAPATH $INGGA,200107.59,4131.443565,N,07040.329590,W,2,11,1.1,0.29,M,-33.66,M,9.0,1015*64
$INVTG,196.11,T,210.19,M,0.0,N,0.0,K,D*33
$INHDT,26.98,T*20
$PSXN,23,-0.77,0.46,26.98,-0.00*0F
NAV 2024/05/28 20:01:08.573 SEAPATH $INGGA,200108.59,4131.443563,N,07040.329591,W,2,11,1.1,0.29,M,-33.66,M,10.0,1015*54
$INVTG,277.37,T,291.45,M,0.0,N,0.0,K,D*3B
$INHDT,26.98,T*20
$PSXN,23,-0.77,0.46,26.98,-0.00*0F
NAV 2024/05/28 20:01:09.573 SEAPATH $INGGA,200109.59,4131.443565,N,07040.329593,W,2,11,1.1,0.29,M,-33.66,M,11.0,1015*50
$INVTG,275.84,T,289.91,M,0.0,N,0.0,K,D*31
$INHDT,26.98,T*20
$PSXN,23,-0.77,0.46,26.98,-0.00*0F
NAV 2024/05/28 20:01:10.573 SEAPATH $INGGA,200110.59,4131.443564,N,07040.329594,W,2,11,1.1,0.29,M,-33.66,M,12.0,1015*5D
$INVTG,261.86,T,275.94,M,0.0,N,0.0,K,D*30
$INHDT,26.98,T*20
$PSXN,23,-0.77,0.46,26.98,0.00*22
NAV 2024/05/28 20:01:11.573 SEAPATH $INGGA,200111.59,4131.443564,N,07040.329597,W,2,11,1.1,0.29,M,-33.66,M,8.0,1015*64
$INVTG,242.17,T,256.25,M,0.0,N,0.0,K,D*32
$INHDT,26.99,T*21
$PSXN,23,-0.77,0.44,26.99,0.00*21
NAV 2024/05/28 20:01:12.573 SEAPATH $INGGA,200112.59,4131.443562,N,07040.329597,W,2,11,1.1,0.30,M,-33.66,M,9.0,1015*68
$INVTG,324.09,T,338.17,M,0.0,N,0.0,K,D*34
$INHDT,26.98,T*20
$PSXN,23,-0.77,0.43,26.98,0.01*26
NAV 2024/05/28 20:01:13.573 SEAPATH $INGGA,200113.59,4131.443566,N,07040.329597,W,2,11,1.1,0.30,M,-33.66,M,10.0,1015*55
$INVTG,13.88,T,27.96,M,0.0,N,0.0,K,D*3E
$INHDT,26.98,T*20
$PSXN,23,-0.76,0.45,26.98,0.00*20
NAV 2024/05/28 20:01:14.573 SEAPATH $INGGA,200114.59,4131.443564,N,07040.329600,W,2,11,1.1,0.29,M,-33.66,M,11.0,1015*54
$INVTG,42.32,T,56.39,M,0.0,N,0.0,K,D*38
$INHDT,26.97,T*2F
$PSXN,23,-0.74,0.46,26.97,-0.00*03
NAV 2024/05/28 20:01:15.573 SEAPATH $INGGA,200115.59,4131.443572,N,07040.329598,W,2,11,1.1,0.28,M,-33.66,M,7.0,1015*66
$INVTG,94.76,T,108.84,M,0.0,N,0.0,K,D*0F
$INHDT,26.97,T*2F
$PSXN,23,-0.73,0.47,26.97,-0.01*04
NAV 2024/05/28 20:01:16.573 SEAPATH $INGGA,200116.59,4131.443571,N,07040.329593,W,2,11,1.1,0.28,M,-33.66,M,8.0,1015*62
$INVTG,129.30,T,143.38,M,0.0,N,0.0,K,D*32
$INHDT,26.97,T*2F
$PSXN,23,-0.74,0.46,26.97,-0.00*03
NAV 2024/05/28 20:01:17.573 SEAPATH $INGGA,200117.59,4131.443571,N,07040.329590,W,2,11,1.1,0.27,M,-33.66,M,9.0,1015*6E
$INVTG,130.61,T,144.69,M,0.0,N,0.0,K,D*3D
$INHDT,26.98,T*20
$PSXN,23,-0.75,0.45,26.98,0.00*23
NAV 2024/05/28 20:01:18.573 SEAPATH $INGGA,200118.59,4131.443575,N,07040.329585,W,2,11,1.1,0.28,M,-33.66,M,10.0,1015*56
$INVTG,120.73,T,134.80,M,0.0,N,0.0,K,D*3F
$INHDT,26.98,T*20
$PSXN,23,-0.76,0.44,26.98,0.00*21
NAV 2024/05/28 20:01:19.573 SEAPATH $INGGA,200119.59,4131.443573,N,07040.329582,W,2,11,1.1,0.28,M,-33.66,M,11.0,1015*57
$INVTG,75.19,T,89.27,M,0.0,N,0.0,K,D*38
$INHDT,26.98,T*20
$PSXN,23,-0.77,0.45,26.98,0.00*21
NAV 2024/05/28 20:01:20.573 SEAPATH $INGGA,200120.59,4131.443573,N,07040.329582,W,2,11,1.1,0.28,M,-33.66,M,12.0,1015*5E
$INVTG,64.67,T,78.75,M,0.0,N,0.0,K,D*38
$INHDT,26.98,T*20
$PSXN,23,-0.77,0.45,26.98,0.00*21
NAV 2024/05/28 20:01:21.573 SEAPATH $INGGA,200121.59,4131.443576,N,07040.329577,W,2,11,1.1,0.29,M,-33.66,M,13.0,1015*50
$INVTG,57.19,T,71.27,M,0.0,N,0.0,K,D*3F
$INHDT,26.98,T*20
$PSXN,23,-0.76,0.46,26.98,-0.00*0E
NAV 2024/05/28 20:01:22.573 SEAPATH $INGGA,200122.59,4131.443572,N,07040.329577,W,2,11,1.1,0.28,M,-33.66,M,14.0,1015*51
$INVTG,87.16,T,101.24,M,0.0,N,0.0,K,D*08
$INHDT,26.99,T*21
$PSXN,23,-0.76,0.46,26.99,-0.00*0F
NAV 2024/05/28 20:01:23.573 SEAPATH $INGGA,200123.59,4131.443573,N,07040.329572,W,2,11,1.1,0.28,M,-33.66,M,15.0,1015*55
$INVTG,116.33,T,130.41,M,0.0,N,0.0,K,D*37
$INHDT,27.00,T*20
$PSXN,23,-0.76,0.46,27.00,-0.00*0E
NAV 2024/05/28 20:01:24.573 SEAPATH $INGGA,200124.59,4131.443575,N,07040.329570,W,2,11,1.1,0.27,M,-33.66,M,16.0,1015*5A
$INVTG,143.92,T,157.99,M,0.0,N,0.0,K,D*38
$INHDT,27.01,T*21
$PSXN,23,-0.75,0.45,27.01,0.00*22
NAV 2024/05/28 20:01:25.573 SEAPATH $INGGA,200125.59,4131.443578,N,07040.329567,W,2,11,1.1,0.27,M,-33.66,M,7.0,1015*60
$INVTG,169.78,T,183.85,M,0.0,N,0.0,K,D*30
$INHDT,27.01,T*21
$PSXN,23,-0.74,0.44,27.01,0.00*22
NAV 2024/05/28 20:01:26.573 SEAPATH $INGGA,200126.59,4131.443577,N,07040.329565,W,2,11,1.1,0.27,M,-33.66,M,8.0,1015*61
$INVTG,125.61,T,139.68,M,0.0,N,0.0,K,D*32
$INHDT,27.01,T*21
$PSXN,23,-0.73,0.45,27.01,0.00*24
NAV 2024/05/28 20:01:27.573 SEAPATH $INGGA,200127.59,4131.443578,N,07040.329558,W,2,11,1.1,0.28,M,-33.66,M,9.0,1015*6F
$INVTG,122.17,T,136.24,M,0.0,N,0.0,K,D*33
$INHDT,27.01,T*21
$PSXN,23,-0.73,0.46,27.01,-0.00*0A
NAV 2024/05/28 20:01:28.573 SEAPATH $INGGA,200128.59,4131.443575,N,07040.329556,W,2,11,1.1,0.28,M,-33.66,M,10.0,1015*5B
$INVTG,125.10,T,139.18,M,0.0,N,0.0,K,D*33
$INHDT,27.01,T*21
$PSXN,23,-0.74,0.45,27.01,-0.00*0E
NAV 2024/05/28 20:01:29.573 SEAPATH $INGGA,200129.59,4131.443570,N,07040.329556,W,2,11,1.1,0.28,M,-33.66,M,11.0,1015*5E
$INVTG,135.62,T,149.70,M,0.0,N,0.0,K,D*3E
$INHDT,27.02,T*22
$PSXN,23,-0.76,0.45,27.02,-0.00*0F
NAV 2024/05/28 20:01:30.573 SEAPATH $INGGA,200130.59,4131.443569,N,07040.329558,W,2,11,1.1,0.27,M,-33.66,M,12.0,1015*5C
$INVTG,101.05,T,115.13,M,0.0,N,0.0,K,D*34
$INHDT,27.02,T*22
$PSXN,23,-0.78,0.45,27.02,0.00*2C
NAV 2024/05/28 20:01:31.573 SEAPATH $INGGA,200131.59,4131.443570,N,07040.329556,W,2,11,1.1,0.26,M,-33.66,M,8.0,1015*61
$INVTG,96.75,T,110.82,M,0.0,N,0.0,K,D*01
$INHDT,27.03,T*23
$PSXN,23,-0.79,0.45,27.03,0.00*2C
NAV 2024/05/28 20:01:32.573 SEAPATH $INGGA,200132.59,4131.443568,N,07040.329555,W,2,11,1.1,0.27,M,-33.66,M,9.0,1015*68
$INVTG,110.10,T,124.17,M,0.0,N,0.0,K,D*36
$INHDT,27.03,T*23
$PSXN,23,-0.78,0.46,27.03,0.00*2E
NAV 2024/05/28 20:01:33.573 SEAPATH $INGGA,200133.59,4131.443567,N,07040.329554,W,2,11,1.1,0.28,M,-33.66,M,10.0,1015*50
$INVTG,185.17,T,199.25,M,0.0,N,0.0,K,D*3A
$INHDT,27.04,T*24
$PSXN,23,-0.76,0.46,27.04,-0.00*0A
NAV 2024/05/28 20:01:34.573 SEAPATH $INGGA,200134.59,4131.443564,N,07040.329554,W,2,11,1.1,0.29,M,-33.66,M,11.0,1015*54
$INVTG,285.96,T,300.04,M,0.0,N,0.0,K,D*31
$INHDT,27.05,T*25
$PSXN,23,-0.74,0.45,27.05,-0.00*0A
NAV 2024/05/28 20:01:35.573 SEAPATH $INGGA,200135.59,4131.443562,N,07040.329553,W,2,11,1.1,0.31,M,-33.66,M,7.0,1015*6A
$INVTG,298.14,T,312.22,M,0.0,N,0.0,K,D*30
$INHDT,27.05,T*25
$PSXN,23,-0.74,0.44,27.05,0.00*26
NAV 2024/05/28 20:01:36.573 SEAPATH $INGGA,200136.59,4131.443561,N,07040.329556,W,2,11,1.1,0.31,M,-33.66,M,8.0,1015*60
$INVTG,266.17,T,280.24,M,0.0,N,0.0,K,D*3E
$INHDT,27.05,T*25
$PSXN,23,-0.74,0.45,27.05,0.00*27
NAV 2024/05/28 20:01:37.573 SEAPATH $INGGA,200137.59,4131.443560,N,07040.329556,W,2,11,1.1,0.31,M,-33.66,M,9.0,1015*61
$INVTG,223.68,T,237.76,M,0.0,N,0.0,K,D*3C
$INHDT,27.05,T*25
$PSXN,23,-0.74,0.46,27.05,-0.00*09
NAV 2024/05/28 20:01:38.573 SEAPATH $INGGA,200138.59,4131.443558,N,07040.329553,W,2,11,1.1,0.32,M,-33.66,M,10.0,1015*5B
$INVTG,196.72,T,210.80,M,0.0,N,0.0,K,D*36
$INHDT,27.05,T*25
$PSXN,23,-0.76,0.46,27.05,-0.00*0B
NAV 2024/05/28 20:01:39.573 SEAPATH $INGGA,200139.59,4131.443558,N,07040.329553,W,2,11,1.1,0.32,M,-33.66,M,6.0,1015*6D
$INVTG,233.87,T,247.95,M,0.0,N,0.0,K,D*36
$INHDT,27.04,T*24
$PSXN,23,-0.78,0.46,27.04,0.00*29
NAV 2024/05/28 20:01:40.573 SEAPATH $INGGA,200140.59,4131.443560,N,07040.329554,W,2,11,1.1,0.32,M,-33.66,M,7.0,1015*6E
$INVTG,239.21,T,253.29,M,0.0,N,0.0,K,D*32
$INHDT,27.03,T*23
$PSXN,23,-0.80,0.45,27.03,0.00*2A
NAV 2024/05/28 20:01:41.573 SEAPATH $INGGA,200141.59,4131.443560,N,07040.329559,W,2,11,1.1,0.30,M,-33.66,M,8.0,1015*6F
$INVTG,259.09,T,273.17,M,0.0,N,0.0,K,D*31
$INHDT,27.03,T*23
$PSXN,23,-0.80,0.44,27.03,0.00*2B
NAV 2024/05/28 20:01:42.573 SEAPATH $INGGA,200142.59,4131.443561,N,07040.329561,W,2,11,1.1,0.30,M,-33.66,M,9.0,1015*67
$INVTG,293.73,T,307.81,M,0.0,N,0.0,K,D*37
$INHDT,27.02,T*22
$PSXN,23,-0.79,0.44,27.02,0.00*2C
NAV 2024/05/28 20:01:43.573 SEAPATH $INGGA,200143.59,4131.443562,N,07040.329566,W,2,11,1.1,0.30,M,-33.66,M,10.0,1015*5A
$INVTG,314.00,T,328.08,M,0.0,N,0.0,K,D*31
$INHDT,27.02,T*22
$PSXN,23,-0.76,0.45,27.02,0.00*22
NAV 2024/05/28 20:01:44.573 SEAPATH $INGGA,200144.59,4131.443564,N,07040.329568,W,2,11,1.1,0.31,M,-33.66,M,11.0,1015*55
$INVTG,302.87,T,316.95,M,0.0,N,0.0,K,D*30
$INHDT,27.02,T*22
$PSXN,23,-0.74,0.46,27.02,-0.00*0E
NAV 2024/05/28 20:01:45.573 SEAPATH $INGGA,200145.59,4131.443571,N,07040.329569,W,2,11,1.1,0.30,M,-33.66,M,7.0,1015*67
$INVTG,291.86,T,305.94,M,0.0,N,0.0,K,D*39
$INHDT,27.02,T*22
$PSXN,23,-0.72,0.46,27.02,-0.00*08
NAV 2024/05/28 20:01:46.573 SEAPATH $INGGA,200146.59,4131.443572,N,07040.329570,W,2,11,1.1,0.30,M,-33.66,M,8.0,1015*60
$INVTG,262.28,T,276.36,M,0.0,N,0.0,K,D*3C
$INHDT,27.02,T*22
$PSXN,23,-0.72,0.46,27.02,0.00*25
NAV 2024/05/28 20:01:47.573 SEAPATH $INGGA,200147.59,4131.443571,N,07040.329573,W,2,11,1.1,0.30,M,-33.66,M,9.0,1015*60
$INVTG,218.34,T,232.42,M,0.0,N,0.0,K,D*3F
$INHDT,27.01,T*21
$PSXN,23,-0.73,0.45,27.01,0.00*24
NAV 2024/05/28 20:01:48.573 SEAPATH $INGGA,200148.59,4131.443568,N,07040.329572,W,2,11,1.1,0.30,M,-33.66,M,10.0,1015*5E
$INVTG,187.56,T,201.64,M,0.0,N,0.0,K,D*3A
$INHDT,27.01,T*21
$PSXN,23,-0.75,0.44,27.01,0.00*23
NAV 2024/05/28 20:01:49.573 SEAPATH $INGGA,200149.59,4131.443568,N,07040.329574,W,2,11,1.1,0.29,M,-33.66,M,11.0,1015*50
$INVTG,284.87,T,298.94,M,0.0,N,0.0,K,D*39
$INHDT,27.01,T*21
$PSXN,23,-0.76,0.45,27.01,0.00*21
NAV 2024/05/28 20:01:50.573 SEAPATH $INGGA,200150.59,4131.443567,N,07040.329576,W,2,11,1.1,0.30,M,-33.66,M,12.0,1015*5E
$INVTG,296.96,T,311.04,M,0.0,N,0.0,K,D*33
$INHDT,27.00,T*20
$PSXN,23,-0.77,0.45,27.00,0.00*21
NAV 2024/05/28 20:01:51.573 SEAPATH $INGGA,200151.59,4131.443569,N,07040.329580,W,2,11,1.1,0.30,M,-33.66,M,13.0,1015*59
$INVTG,280.42,T,294.49,M,0.0,N,0.0,K,D*38
$INHDT,26.99,T*21
$PSXN,23,-0.77,0.46,26.99,0.00*23
NAV 2024/05/28 20:01:52.573 SEAPATH $INGGA,200152.59,4131.443571,N,07040.329582,W,2,11,1.1,0.29,M,-33.66,M,14.0,1015*5E
$INVTG,282.07,T,296.14,M,0.0,N,0.0,K,D*31
$INHDT,26.99,T*21
$PSXN,23,-0.77,0.45,26.99,0.00*20
NAV 2024/05/28 20:01:53.573 SEAPATH $INGGA,200153.59,4131.443570,N,07040.329584,W,2,11,1.1,0.29,M,-33.66,M,9.0,1015*64
$INVTG,242.77,T,256.85,M,0.0,N,0.0,K,D*3E
$INHDT,26.99,T*21
$PSXN,23,-0.75,0.46,26.99,-0.00*0C
NAV 2024/05/28 20:01:54.573 SEAPATH $INGGA,200154.59,4131.443569,N,07040.329584,W,2,11,1.1,0.29,M,-33.66,M,10.0,1015*53
$INVTG,266.01,T,280.08,M,0.0,N,0.0,K,D*37
$INHDT,26.99,T*21
$PSXN,23,-0.73,0.46,26.99,0.00*27
NAV 2024/05/28 20:01:55.573 SEAPATH $INGGA,200155.59,4131.443567,N,07040.329585,W,2,11,1.1,0.30,M,-33.66,M,11.0,1015*54
$INVTG,193.32,T,207.39,M,0.0,N,0.0,K,D*33
$INHDT,27.00,T*20
$PSXN,23,-0.71,0.45,27.00,0.01*26
NAV 2024/05/28 20:01:56.573 SEAPATH $INGGA,200156.59,4131.443565,N,07040.329582,W,2,11,1.1,0.30,M,-33.66,M,12.0,1015*51
$INVTG,203.27,T,217.34,M,0.0,N,0.0,K,D*31
$INHDT,26.99,T*21
$PSXN,23,-0.71,0.45,26.99,0.01*27
NAV 2024/05/28 20:01:57.573 SEAPATH $INGGA,200157.59,4131.443567,N,07040.329579,W,2,11,1.1,0.32,M,-33.66,M,8.0,1015*6F
$INVTG,70.83,T,84.91,M,0.0,N,0.0,K,D*3E
$INHDT,26.99,T*21
$PSXN,23,-0.73,0.45,26.99,0.00*24
NAV 2024/05/28 20:01:58.573 SEAPATH $INGGA,200158.59,4131.443566,N,07040.329577,W,2,11,1.1,0.33,M,-33.66,M,9.0,1015*6F
$INVTG,84.45,T,98.53,M,0.0,N,0.0,K,D*3C
$INHDT,26.99,T*21
$PSXN,23,-0.76,0.45,26.99,-0.00*0C
NAV 2024/05/28 20:01:59.573 SEAPATH $INGGA,200159.59,4131.443567,N,07040.329577,W,2,11,1.1,0.32,M,-33.66,M,5.0,1015*62
$INVTG,99.35,T,113.43,M,0.0,N,0.0,K,D*04
$INHDT,27.00,T*20
$PSXN,23,-0.78,0.46,27.00,-0.00*00
NAV 2024/05/28 20:02:00.573 SEAPATH $INGGA,200200.59,4131.443565,N,07040.329580,W,2,11,1.1,0.31,M,-33.66,M,6.0,1015*67
$INVTG,231.89,T,245.96,M,0.0,N,0.0,K,D*3B
$INHDT,27.00,T*20
$PSXN,23,-0.78,0.46,27.00,-0.00*00
NAV 2024/05/28 20:02:01.573 SEAPATH $INGGA,200201.59,4131.443563,N,07040.329578,W,2,11,1.1,0.31,M,-33.66,M,7.0,1015*66
$INVTG,211.11,T,225.19,M,0.0,N,0.0,K,D*39
$INHDT,27.00,T*20
$PSXN,23,-0.76,0.45,27.00,0.00*20
NAV 2024/05/28 20:02:02.573 SEAPATH $INGGA,200202.59,4131.443561,N,07040.329577,W,2,11,1.1,0.30,M,-33.66,M,8.0,1015*66
$INVTG,193.09,T,207.17,M,0.0,N,0.0,K,D*37
$INHDT,27.00,T*20
$PSXN,23,-0.74,0.44,27.00,0.01*22
NAV 2024/05/28 20:02:03.573 SEAPATH $INGGA,200203.59,4131.443562,N,07040.329579,W,2,11,1.1,0.30,M,-33.66,M,9.0,1015*6B
$INVTG,286.55,T,300.63,M,0.0,N,0.0,K,D*3C
$INHDT,27.00,T*20
$PSXN,23,-0.72,0.45,27.00,0.00*24
NAV 2024/05/28 20:02:04.573 SEAPATH $INGGA,200204.59,4131.443564,N,07040.329580,W,2,11,1.1,0.30,M,-33.66,M,10.0,1015*54
$INVTG,79.31,T,93.39,M,0.0,N,0.0,K,D*3A
$INHDT,27.00,T*20
$PSXN,23,-0.72,0.45,27.00,0.00*24
NAV 2024/05/28 20:02:05.573 SEAPATH $INGGA,200205.59,4131.443564,N,07040.329579,W,2,11,1.1,0.30,M,-33.66,M,11.0,1015*52
$INVTG,93.20,T,107.28,M,0.0,N,0.0,K,D*02
$INHDT,27.00,T*20
$PSXN,23,-0.75,0.46,27.00,-0.00*0D
NAV 2024/05/28 20:02:06.573 SEAPATH $INGGA,200206.59,4131.443561,N,07040.329580,W,2,11,1.1,0.30,M,-33.66,M,12.0,1015*51
$INVTG,140.93,T,155.01,M,0.0,N,0.0,K,D*39
$INHDT,27.01,T*21
$PSXN,23,-0.78,0.46,27.01,0.00*2C
NAV 2024/05/28 20:02:07.573 SEAPATH $INGGA,200207.59,4131.443569,N,07040.329580,W,2,11,1.1,0.28,M,-33.66,M,8.0,1015*6A
$INVTG,154.93,T,169.00,M,0.0,N,0.0,K,D*32
$INHDT,27.01,T*21
$PSXN,23,-0.79,0.46,27.01,0.00*2D
NAV 2024/05/28 20:02:08.573 SEAPATH $INGGA,200208.59,4131.443570,N,07040.329582,W,2,11,1.1,0.27,M,-33.66,M,9.0,1015*61
$INVTG,189.65,T,203.73,M,0.0,N,0.0,K,D*30
$INHDT,27.02,T*22
$PSXN,23,-0.79,0.44,27.02,0.00*2C
NAV 2024/05/28 20:02:09.573 SEAPATH $INGGA,200209.59,4131.443568,N,07040.329584,W,2,11,1.1,0.27,M,-33.66,M,5.0,1015*63
$INVTG,278.31,T,292.39,M,0.0,N,0.0,K,D*3A
$INHDT,27.02,T*22
$PSXN,23,-0.75,0.44,27.02,0.00*20
NAV 2024/05/28 20:02:10.573 SEAPATH $INGGA,200210.59,4131.443566,N,07040.329588,W,2,11,1.1,0.27,M,-33.66,M,6.0,1015*6A
$INVTG,307.66,T,321.74,M,0.0,N,0.0,K,D*31
$INHDT,27.01,T*21
$PSXN,23,-0.72,0.46,27.01,-0.00*0B
NAV 2024/05/28 20:02:11.573 SEAPATH $INGGA,200211.59,4131.443565,N,07040.329591,W,2,11,1.1,0.29,M,-33.66,M,7.0,1015*6F
$INVTG,14.55,T,28.63,M,0.0,N,0.0,K,D*3C
$INHDT,27.01,T*21
$PSXN,23,-0.70,0.46,27.01,-0.00*09
NAV 2024/05/28 20:02:12.573 SEAPATH $INGGA,200212.59,4131.443565,N,07040.329589,W,2,11,1.1,0.30,M,-33.66,M,8.0,1015*62
$INVTG,7.37,T,21.45,M,0.0,N,0.0,K,D*07
$INHDT,27.00,T*20
$PSXN,23,-0.71,0.46,27.00,-0.00*09
NAV 2024/05/28 20:02:13.573 SEAPATH $INGGA,200213.59,4131.443560,N,07040.329592,W,2,11,1.1,0.29,M,-33.66,M,9.0,1015*65
$INVTG,91.81,T,105.89,M,0.0,N,0.0,K,D*02
$INHDT,27.00,T*20
$PSXN,23,-0.74,0.45,27.00,0.00*22
NAV 2024/05/28 20:02:14.573 SEAPATH $INGGA,200214.59,4131.443560,N,07040.329588,W,2,11,1.1,0.30,M,-33.66,M,10.0,1015*59
$INVTG,102.01,T,116.09,M,0.0,N,0.0,K,D*3B
$INHDT,27.01,T*21
$PSXN,23,-0.78,0.45,27.01,0.00*2F
NAV 2024/05/28 20:02:15.573 SEAPATH $INGGA,200215.59,4131.443563,N,07040.329586,W,2,11,1.1,0.31,M,-33.66,M,6.0,1015*63
$INVTG,54.45,T,68.53,M,0.0,N,0.0,K,D*3E
$INHDT,27.01,T*21
$PSXN,23,-0.80,0.44,27.01,0.00*29
NAV 2024/05/28 20:02:16.573 SEAPATH $INGGA,200216.59,4131.443565,N,07040.329587,W,2,11,1.1,0.31,M,-33.66,M,7.0,1015*66
$INVTG,322.63,T,336.71,M,0.0,N,0.0,K,D*30
$INHDT,27.00,T*20
$PSXN,23,-0.78,0.45,27.00,0.00*2E
NAV 2024/05/28 20:02:17.573 SEAPATH $INGGA,200217.59,4131.443567,N,07040.329592,W,2,11,1.1,0.32,M,-33.66,M,8.0,1015*6D
$INVTG,324.97,T,339.05,M,0.0,N,0.0,K,D*31
$INHDT,26.99,T*21
$PSXN,23,-0.74,0.46,26.99,0.00*20
NAV 2024/05/28 20:02:18.573 SEAPATH $INGGA,200218.59,4131.443565,N,07040.329597,W,2,11,1.1,0.32,M,-33.66,M,9.0,1015*64
$INVTG,317.88,T,331.96,M,0.0,N,0.0,K,D*3D
$INHDT,26.99,T*21
$PSXN,23,-0.71,0.45,26.99,-0.00*0B
NAV 2024/05/28 20:02:19.573 SEAPATH $INGGA,200219.59,4131.443561,N,07040.329598,W,2,11,1.1,0.33,M,-33.66,M,10.0,1015*57
$INVTG,331.72,T,345.80,M,0.0,N,0.0,K,D*38
$INHDT,26.99,T*21
$PSXN,23,-0.68,0.46,26.99,0.00*2D
NAV 2024/05/28 20:02:20.573 SEAPATH $INGGA,200220.59,4131.443559,N,07040.329603,W,2,11,1.1,0.33,M,-33.66,M,11.0,1015*56
$INVTG,69.90,T,83.98,M,0.0,N,0.0,K,D*3A
$INHDT,26.99,T*21
$PSXN,23,-0.68,0.45,26.99,0.00*2E
NAV 2024/05/28 20:02:21.573 SEAPATH $INGGA,200221.59,4131.443562,N,07040.329602,W,2,11,1.1,0.32,M,-33.66,M,12.0,1015*5C
$INVTG,106.02,T,120.10,M,0.0,N,0.0,K,D*31
$INHDT,26.98,T*20
$PSXN,23,-0.70,0.45,26.98,0.00*26
NAV 2024/05/28 20:02:22.573 SEAPATH $INGGA,200222.59,4131.443566,N,07040.329602,W,2,11,1.1,0.31,M,-33.66,M,13.0,1015*59
$INVTG,138.03,T,152.11,M,0.0,N,0.0,K,D*39
$INHDT,26.98,T*20
$PSXN,23,-0.73,0.45,26.98,0.00*25
NAV 2024/05/28 20:02:23.573 SEAPATH $INGGA,200223.59,4131.443576,N,07040.329598,W,2,11,1.1,0.29,M,-33.66,M,8.0,1015*6A
$INVTG,151.61,T,165.69,M,0.0,N,0.0,K,D*39
$INHDT,26.98,T*20
$PSXN,23,-0.76,0.47,26.98,-0.00*0F
NAV 2024/05/28 20:02:24.573 SEAPATH $INGGA,200224.59,4131.443577,N,07040.329598,W,2,11,1.1,0.27,M,-33.66,M,9.0,1015*63
$INVTG,206.38,T,220.46,M,0.0,N,0.0,K,D*3B
$INHDT,26.97,T*2F
$PSXN,23,-0.77,0.46,26.97,-0.00*00
NAV 2024/05/28 20:02:25.573 SEAPATH $INGGA,200225.59,4131.443571,N,07040.329601,W,2,11,1.1,0.27,M,-33.66,M,10.0,1015*5F
$INVTG,218.94,T,233.01,M,0.0,N,0.0,K,D*33
$INHDT,26.97,T*2F
$PSXN,23,-0.76,0.44,26.97,0.00*2E
NAV 2024/05/28 20:02:26.573 SEAPATH $INGGA,200226.59,4131.443568,N,07040.329597,W,2,11,1.1,0.28,M,-33.66,M,11.0,1015*56
$INVTG,219.48,T,233.56,M,0.0,N,0.0,K,D*31
$INHDT,26.98,T*20
$PSXN,23,-0.74,0.44,26.98,0.00*23
NAV 2024/05/28 20:02:27.573 SEAPATH $INGGA,200227.59,4131.443570,N,07040.329597,W,2,11,1.1,0.28,M,-33.66,M,7.0,1015*69
$INVTG,354.87,T,8.94,M,0.0,N,0.0,K,D*3E
$INHDT,26.98,T*20
$PSXN,23,-0.71,0.45,26.98,0.00*27
NAV 2024/05/28 20:02:28.573 SEAPATH $INGGA,200228.59,4131.443569,N,07040.329597,W,2,11,1.1,0.28,M,-33.66,M,8.0,1015*61
$INVTG,326.66,T,340.74,M,0.0,N,0.0,K,D*35
$INHDT,26.99,T*21
$PSXN,23,-0.68,0.47,26.99,0.00*2C
NAV 2024/05/28 20:02:29.573 SEAPATH $INGGA,200229.59,4131.443571,N,07040.329597,W,2,11,1.1,0.28,M,-33.66,M,9.0,1015*68
$INVTG,151.32,T,165.40,M,0.0,N,0.0,K,D*34
$INHDT,26.99,T*21
$PSXN,23,-0.68,0.46,26.99,0.00*2D
NAV 2024/05/28 20:02:30.573 SEAPATH $INGGA,200230.59,4131.443573,N,07040.329593,W,2,11,1.1,0.28,M,-33.66,M,10.0,1015*5E
$INVTG,153.45,T,167.53,M,0.0,N,0.0,K,D*36
$INHDT,27.01,T*21
$PSXN,23,-0.71,0.45,27.01,0.00*26
NAV 2024/05/28 20:02:31.573 SEAPATH $INGGA,200231.59,4131.443571,N,07040.329590,W,2,11,1.1,0.28,M,-33.66,M,6.0,1015*69
$INVTG,135.08,T,149.16,M,0.0,N,0.0,K,D*32
$INHDT,27.02,T*22
$PSXN,23,-0.74,0.44,27.02,0.00*21
NAV 2024/05/28 20:02:32.573 SEAPATH $INGGA,200232.59,4131.443570,N,07040.329584,W,2,11,1.1,0.28,M,-33.66,M,7.0,1015*6F
$INVTG,140.81,T,154.88,M,0.0,N,0.0,K,D*3A
$INHDT,27.02,T*22
$PSXN,23,-0.76,0.44,27.02,0.00*23
NAV 2024/05/28 20:02:33.573 SEAPATH $INGGA,200233.59,4131.443568,N,07040.329584,W,2,11,1.1,0.28,M,-33.66,M,8.0,1015*68
$INVTG,194.42,T,208.50,M,0.0,N,0.0,K,D*33
$INHDT,27.02,T*22
$PSXN,23,-0.76,0.46,27.02,0.00*21
NAV 2024/05/28 20:02:34.573 SEAPATH $INGGA,200234.59,4131.443568,N,07040.329585,W,2,11,1.1,0.28,M,-33.66,M,9.0,1015*6F
$INVTG,147.16,T,161.24,M,0.0,N,0.0,K,D*33
$INHDT,27.01,T*21
$PSXN,23,-0.75,0.47,27.01,-0.00*0D
NAV 2024/05/28 20:02:35.573 SEAPATH $INGGA,200235.59,4131.443562,N,07040.329585,W,2,11,1.1,0.28,M,-33.66,M,10.0,1015*5C
$INVTG,177.79,T,191.87,M,0.0,N,0.0,K,D*3F
$INHDT,27.01,T*21
$PSXN,23,-0.73,0.47,27.01,-0.00*0B
NAV 2024/05/28 20:02:36.573 SEAPATH $INGGA,200236.59,4131.443561,N,07040.329583,W,2,11,1.1,0.28,M,-33.66,M,11.0,1015*5B
$INVTG,245.78,T,259.85,M,0.0,N,0.0,K,D*39
$INHDT,27.01,T*21
$PSXN,23,-0.72,0.45,27.01,0.00*25
NAV 2024/05/28 20:02:37.573 SEAPATH $INGGA,200237.59,4131.443559,N,07040.329583,W,2,11,1.1,0.29,M,-33.66,M,7.0,1015*67
$INVTG,86.15,T,100.23,M,0.0,N,0.0,K,D*0C
$INHDT,27.02,T*22
$PSXN,23,-0.71,0.44,27.02,0.00*24
NAV 2024/05/28 20:02:38.573 SEAPATH $INGGA,200238.59,4131.443560,N,07040.329579,W,2,11,1.1,0.29,M,-33.66,M,8.0,1015*68
$INVTG,39.81,T,53.88,M,0.0,N,0.0,K,D*33
$INHDT,27.02,T*22
$PSXN,23,-0.71,0.44,27.02,0.00*24
NAV 2024/05/28 20:02:39.573 SEAPATH $INGGA,200239.59,4131.443563,N,07040.329576,W,2,11,1.1,0.28,M,-33.66,M,9.0,1015*65
$INVTG,47.99,T,62.07,M,0.0,N,0.0,K,D*36
$INHDT,27.02,T*22
$PSXN,23,-0.71,0.46,27.02,-0.00*0B
NAV 2024/05/28 20:02:40.573 SEAPATH $INGGA,200240.59,4131.443567,N,07040.329577,W,2,11,1.1,0.27,M,-33.66,M,10.0,1015*59
$INVTG,36.26,T,50.34,M,0.0,N,0.0,K,D*35
$INHDT,27.01,T*21
$PSXN,23,-0.70,0.47,27.01,-0.00*08
NAV 2024/05/28 20:02:41.573 SEAPATH $INGGA,200241.59,4131.443572,N,07040.329574,W,2,11,1.1,0.27,M,-33.66,M,6.0,1015*68
$INVTG,355.89,T,9.97,M,0.0,N,0.0,K,D*33
$INHDT,27.01,T*21
$PSXN,23,-0.70,0.45,27.01,0.00*27
NAV 2024/05/28 20:02:42.573 SEAPATH $INGGA,200242.59,4131.443576,N,07040.329573,W,2,11,1.1,0.27,M,-33.66,M,7.0,1015*69
$INVTG,20.94,T,35.02,M,0.0,N,0.0,K,D*3D
$INHDT,27.01,T*21
$PSXN,23,-0.70,0.43,27.01,0.01*20
NAV 2024/05/28 20:02:43.573 SEAPATH $INGGA,200243.59,4131.443580,N,07040.329569,W,2,11,1.1,0.27,M,-33.66,M,8.0,1015*65
$INVTG,36.93,T,51.01,M,0.0,N,0.0,K,D*3C
$INHDT,27.01,T*21
$PSXN,23,-0.69,0.44,27.01,0.01*2F
NAV 2024/05/28 20:02:44.573 SEAPATH $INGGA,200244.59,4131.443583,N,07040.329563,W,2,11,1.1,0.29,M,-33.66,M,9.0,1015*64
$INVTG,49.89,T,63.97,M,0.0,N,0.0,K,D*31
$INHDT,27.01,T*21
$PSXN,23,-0.68,0.46,27.01,0.00*2D
NAV 2024/05/28 20:02:45.573 SEAPATH $INGGA,200245.59,4131.443585,N,07040.329559,W,2,11,1.1,0.31,M,-33.66,M,10.0,1015*5B
$INVTG,51.26,T,65.34,M,0.0,N,0.0,K,D*32
$INHDT,27.00,T*20
$PSXN,23,-0.67,0.46,27.00,-0.00*0E
NAV 2024/05/28 20:02:46.573 SEAPATH $INGGA,200246.59,4131.443585,N,07040.329554,W,2,11,1.1,0.32,M,-33.66,M,11.0,1015*57
$INVTG,93.09,T,107.17,M,0.0,N,0.0,K,D*05
$INHDT,26.99,T*21
$PSXN,23,-0.67,0.46,26.99,-0.00*0F
NAV 2024/05/28 20:02:47.573 SEAPATH $INGGA,200247.59,4131.443588,N,07040.329549,W,2,11,1.1,0.33,M,-33.66,M,7.0,1015*61
$INVTG,129.50,T,143.58,M,0.0,N,0.0,K,D*32
$INHDT,27.00,T*20
$PSXN,23,-0.70,0.45,27.00,0.00*26
NAV 2024/05/28 20:02:48.573 SEAPATH $INGGA,200248.59,4131.443584,N,07040.329548,W,2,11,1.1,0.33,M,-33.66,M,8.0,1015*6C
$INVTG,141.13,T,155.21,M,0.0,N,0.0,K,D*32
$INHDT,27.00,T*20
$PSXN,23,-0.73,0.44,27.00,0.00*24
NAV 2024/05/28 20:02:49.573 SEAPATH $INGGA,200249.59,4131.443583,N,07040.329545,W,2,11,1.1,0.34,M,-33.66,M,9.0,1015*61
$INVTG,142.89,T,156.96,M,0.0,N,0.0,K,D*3D
$INHDT,27.01,T*21
$PSXN,23,-0.74,0.45,27.01,0.00*23
NAV 2024/05/28 20:02:50.573 SEAPATH $INGGA,200250.59,4131.443583,N,07040.329544,W,2,11,1.1,0.34,M,-33.66,M,10.0,1015*50
$INVTG,174.48,T,188.56,M,0.0,N,0.0,K,D*3A
$INHDT,27.01,T*21
$PSXN,23,-0.73,0.46,27.01,0.00*27
NAV 2024/05/28 20:02:51.573 SEAPATH $INGGA,200251.59,4131.443579,N,07040.329544,W,2,11,1.1,0.34,M,-33.66,M,11.0,1015*55
$INVTG,183.64,T,197.71,M,0.0,N,0.0,K,D*37
$INHDT,27.02,T*22
$PSXN,23,-0.71,0.46,27.02,0.00*26
NAV 2024/05/28 20:02:52.573 SEAPATH $INGGA,200252.59,4131.443578,N,07040.329543,W,2,11,1.1,0.34,M,-33.66,M,12.0,1015*53
$INVTG,192.68,T,206.76,M,0.0,N,0.0,K,D*37
$INHDT,27.02,T*22
$PSXN,23,-0.70,0.45,27.02,0.00*24
NAV 2024/05/28 20:02:53.573 SEAPATH $INGGA,200253.59,4131.443574,N,07040.329550,W,2,11,1.1,0.30,M,-33.66,M,6.0,1015*6D
$INVTG,205.42,T,219.50,M,0.0,N,0.0,K,D*38
$INHDT,27.02,T*22
$PSXN,23,-0.69,0.44,27.02,0.00*2D
NAV 2024/05/28 20:02:54.573 SEAPATH $INGGA,200254.59,4131.443575,N,07040.329550,W,2,11,1.1,0.29,M,-33.66,M,7.0,1015*62
$INVTG,148.70,T,162.78,M,0.0,N,0.0,K,D*36
$INHDT,27.03,T*23
$PSXN,23,-0.71,0.45,27.03,-0.00*09
NAV 2024/05/28 20:02:55.573 SEAPATH $INGGA,200255.59,4131.443572,N,07040.329547,W,2,11,1.1,0.30,M,-33.66,M,8.0,1015*65
$INVTG,125.09,T,139.17,M,0.0,N,0.0,K,D*34
$INHDT,27.05,T*25
$PSXN,23,-0.74,0.46,27.05,-0.00*09
NAV 2024/05/28 20:02:56.573 SEAPATH $INGGA,200256.59,4131.443572,N,07040.329548,W,2,11,1.1,0.29,M,-33.66,M,9.0,1015*60
$INVTG,184.39,T,198.46,M,0.0,N,0.0,K,D*33
$INHDT,27.05,T*25
$PSXN,23,-0.75,0.46,27.05,0.00*25
NAV 2024/05/28 20:02:57.573 SEAPATH $INGGA,200257.59,4131.443571,N,07040.329546,W,2,11,1.1,0.30,M,-33.66,M,10.0,1015*5C
$INVTG,206.42,T,220.50,M,0.0,N,0.0,K,D*31
$INHDT,27.05,T*25
$PSXN,23,-0.75,0.46,27.05,0.00*25
NAV 2024/05/28 20:02:58.573 SEAPATH $INGGA,200258.59,4131.443572,N,07040.329548,W,2,11,1.1,0.30,M,-33.66,M,11.0,1015*5F
$INVTG,219.85,T,233.93,M,0.0,N,0.0,K,D*39
$INHDT,27.05,T*25
$PSXN,23,-0.76,0.45,27.05,0.00*25
NAV 2024/05/28 20:02:59.573 SEAPATH $INGGA,200259.59,4131.443571,N,07040.329550,W,2,11,1.1,0.31,M,-33.66,M,6.0,1015*63
$INVTG,250.10,T,264.18,M,0.0,N,0.0,K,D*39
$INHDT,27.05,T*25
$PSXN,23,-0.76,0.45,27.05,0.00*25
NAV 2024/05/28 20:03:00.573 SEAPATH $INGGA,200300.59,4131.443571,N,07040.329555,W,2,11,1.1,0.31,M,-33.66,M,7.0,1015*6A
$INVTG,253.87,T,267.95,M,0.0,N,0.0,K,D*32
$INHDT,27.05,T*25
$PSXN,23,-0.77,0.45,27.05,0.00*24
NAV 2024/05/28 20:03:01.573 SEAPATH $INGGA,200301.59,4131.443564,N,07040.329562,W,2,11,1.1,0.31,M,-33.66,M,8.0,1015*64
$INVTG,281.75,T,295.83,M,0.0,N,0.0,K,D*3A
$INHDT,27.04,T*24
$PSXN,23,-0.77,0.45,27.04,0.00*25
NAV 2024/05/28 20:03:02.573 SEAPATH $INGGA,200302.59,4131.443563,N,07040.329565,W,2,11,1.1,0.31,M,-33.66,M,9.0,1015*66
$INVTG,289.86,T,303.94,M,0.0,N,0.0,K,D*36
$INHDT,27.03,T*23
$PSXN,23,-0.76,0.45,27.03,0.00*23
NAV 2024/05/28 20:03:03.573 SEAPATH $INGGA,200303.59,4131.443561,N,07040.329574,W,2,11,1.1,0.31,M,-33.66,M,5.0,1015*69
$INVTG,282.91,T,296.99,M,0.0,N,0.0,K,D*3B
$INHDT,27.02,T*22
$PSXN,23,-0.76,0.46,27.02,0.00*21
NAV 2024/05/28 20:03:04.573 SEAPATH $INGGA,200304.59,4131.443562,N,07040.329576,W,2,11,1.1,0.31,M,-33.66,M,6.0,1015*6C
$INVTG,223.78,T,237.86,M,0.0,N,0.0,K,D*32
$INHDT,27.02,T*22
$PSXN,23,-0.77,0.46,27.02,0.00*20
NAV 2024/05/28 20:03:05.573 SEAPATH $INGGA,200305.59,4131.443559,N,07040.329581,W,2,11,1.1,0.31,M,-33.66,M,7.0,1015*6C
$INVTG,257.11,T,271.18,M,0.0,N,0.0,K,D*3B
$INHDT,27.01,T*21
$PSXN,23,-0.77,0.45,27.01,0.00*20
NAV 2024/05/28 20:03:06.573 SEAPATH $INGGA,200306.59,4131.443558,N,07040.329590,W,2,11,1.1,0.30,M,-33.66,M,8.0,1015*60
$INVTG,274.43,T,288.51,M,0.0,N,0.0,K,D*36
$INHDT,27.00,T*20
$PSXN,23,-0.76,0.45,27.00,0.00*20
NAV 2024/05/28 20:03:07.573 SEAPATH $INGGA,200307.59,4131.443559,N,07040.329596,W,2,11,1.1,0.31,M,-33.66,M,9.0,1015*66
$INVTG,277.40,T,291.48,M,0.0,N,0.0,K,D*36
$INHDT,26.98,T*20
$PSXN,23,-0.74,0.45,26.98,0.00*22
NAV 2024/05/28 20:03:08.573 SEAPATH $INGGA,200308.59,4131.443561,N,07040.329597,W,2,11,1.1,0.31,M,-33.66,M,10.0,1015*5B
$INVTG,280.77,T,294.85,M,0.0,N,0.0,K,D*3E
$INHDT,26.97,T*2F
$PSXN,23,-0.73,0.46,26.97,0.00*29
NAV 2024/05/28 20:03:09.573 SEAPATH $INGGA,200309.59,4131.443563,N,07040.329606,W,2,11,1.1,0.31,M,-33.66,M,6.0,1015*64
$INVTG,274.99,T,289.07,M,0.0,N,0.0,K,D*33
$INHDT,26.96,T*2E
$PSXN,23,-0.74,0.46,26.96,0.00*2F
NAV 2024/05/28 20:03:10.573 SEAPATH $INGGA,200310.59,4131.443562,N,07040.329609,W,2,11,1.1,0.32,M,-33.66,M,7.0,1015*60
$INVTG,266.01,T,280.08,M,0.0,N,0.0,K,D*37
$INHDT,26.95,T*2D
$PSXN,23,-0.76,0.45,26.95,0.00*2D
NAV 2024/05/28 20:03:11.573 SEAPATH $INGGA,200311.59,4131.443566,N,07040.329610,W,2,11,1.1,0.32,M,-33.66,M,8.0,1015*62
$INVTG,263.19,T,277.27,M,0.0,N,0.0,K,D*3E
$INHDT,26.95,T*2D
$PSXN,23,-0.78,0.46,26.95,0.00*20
NAV 2024/05/28 20:03:12.573 SEAPATH $INGGA,200312.59,4131.443564,N,07040.329614,W,2,11,1.1,0.33,M,-33.66,M,9.0,1015*67
$INVTG,260.45,T,274.52,M,0.0,N,0.0,K,D*35
$INHDT,26.94,T*2C
$PSXN,23,-0.78,0.45,26.94,0.01*23
NAV 2024/05/28 20:03:13.573 SEAPATH $INGGA,200313.59,4131.443563,N,07040.329621,W,2,11,1.1,0.32,M,-33.66,M,10.0,1015*5E
$INVTG,243.37,T,257.44,M,0.0,N,0.0,K,D*37
$INHDT,26.93,T*2B
$PSXN,23,-0.77,0.45,26.93,0.01*2B
NAV 2024/05/28 20:03:14.573 SEAPATH $INGGA,200314.59,4131.443561,N,07040.329626,W,2,11,1.1,0.33,M,-33.66,M,11.0,1015*5C
$INVTG,252.49,T,266.57,M,0.0,N,0.0,K,D*3E
$INHDT,26.93,T*2B
$PSXN,23,-0.76,0.45,26.93,0.01*2A
NAV 2024/05/28 20:03:15.573 SEAPATH $INGGA,200315.59,4131.443560,N,07040.329630,W,2,11,1.1,0.34,M,-33.66,M,12.0,1015*5F
$INVTG,240.41,T,254.49,M,0.0,N,0.0,K,D*3B
$INHDT,26.92,T*2A
$PSXN,23,-0.75,0.45,26.92,0.01*28
NAV 2024/05/28 20:03:16.573 SEAPATH $INGGA,200316.59,4131.443557,N,07040.329638,W,2,11,1.1,0.33,M,-33.66,M,13.0,1015*56
$INVTG,268.48,T,282.56,M,0.0,N,0.0,K,D*3D
$INHDT,26.92,T*2A
$PSXN,23,-0.76,0.44,26.92,0.01*2A
NAV 2024/05/28 20:03:17.573 SEAPATH $INGGA,200317.59,4131.443559,N,07040.329643,W,2,11,1.1,0.34,M,-33.66,M,9.0,1015*69
$INVTG,264.16,T,278.24,M,0.0,N,0.0,K,D*3A
$INHDT,26.91,T*29
$PSXN,23,-0.75,0.44,26.91,0.01*2A
NAV 2024/05/28 20:03:18.573 SEAPATH $INGGA,200318.59,4131.443562,N,07040.329642,W,2,11,1.1,0.36,M,-33.66,M,10.0,1015*55
$INVTG,257.91,T,271.99,M,0.0,N,0.0,K,D*3A
$INHDT,26.90,T*28
$PSXN,23,-0.75,0.46,26.90,0.00*28
NAV 2024/05/28 20:03:19.573 SEAPATH $INGGA,200319.59,4131.443565,N,07040.329644,W,2,11,1.1,0.36,M,-33.66,M,11.0,1015*54
$INVTG,232.95,T,247.03,M,0.0,N,0.0,K,D*3B
$INHDT,26.90,T*28
$PSXN,23,-0.75,0.47,26.90,0.00*29
NAV 2024/05/28 20:03:20.573 SEAPATH $INGGA,200320.59,4131.443564,N,07040.329645,W,2,11,1.1,0.37,M,-33.66,M,12.0,1015*5C
$INVTG,210.47,T,224.55,M,0.0,N,0.0,K,D*32
$INHDT,26.89,T*20
$PSXN,23,-0.74,0.46,26.89,0.00*21
NAV 2024/05/28 20:03:21.573 SEAPATH $INGGA,200321.59,4131.443563,N,07040.329647,W,2,11,1.1,0.37,M,-33.66,M,13.0,1015*59
$INVTG,255.75,T,269.83,M,0.0,N,0.0,K,D*30
$INHDT,26.88,T*21
$PSXN,23,-0.74,0.44,26.88,0.01*23
NAV 2024/05/28 20:03:22.573 SEAPATH $INGGA,200322.59,4131.443559,N,07040.329655,W,2,11,1.1,0.37,M,-33.66,M,14.0,1015*57
$INVTG,255.87,T,269.94,M,0.0,N,0.0,K,D*3B
$INHDT,26.88,T*21
$PSXN,23,-0.74,0.44,26.88,0.01*23
NAV 2024/05/28 20:03:23.573 SEAPATH $INGGA,200323.59,4131.443559,N,07040.329656,W,2,11,1.1,0.37,M,-33.66,M,15.0,1015*54
$INVTG,304.74,T,318.82,M,0.0,N,0.0,K,D*32
$INHDT,26.87,T*2E
$PSXN,23,-0.74,0.45,26.87,0.01*2D
NAV 2024/05/28 20:03:24.573 SEAPATH $INGGA,200324.59,4131.443560,N,07040.329660,W,2,11,1.1,0.37,M,-33.66,M,16.0,1015*5F
$INVTG,314.31,T,328.38,M,0.0,N,0.0,K,D*30
$INHDT,26.87,T*2E
$PSXN,23,-0.75,0.46,26.87,0.01*2F
NAV 2024/05/28 20:03:25.573 SEAPATH $INGGA,200325.59,4131.443561,N,07040.329662,W,2,11,1.1,0.37,M,-33.66,M,17.0,1015*5C
$INVTG,167.68,T,181.76,M,0.0,N,0.0,K,D*31
$INHDT,26.87,T*2E
$PSXN,23,-0.76,0.46,26.87,0.01*2C
NAV 2024/05/28 20:03:26.573 SEAPATH $INGGA,200326.59,4131.443561,N,07040.329661,W,2,11,1.1,0.38,M,-33.66,M,18.0,1015*5C
$INVTG,201.24,T,215.32,M,0.0,N,0.0,K,D*34
$INHDT,26.87,T*2E
$PSXN,23,-0.76,0.46,26.87,0.01*2C
NAV 2024/05/28 20:03:27.573 SEAPATH $INGGA,200327.59,4131.443565,N,07040.329665,W,2,11,1.1,0.35,M,-33.66,M,8.0,1015*61
$INVTG,196.18,T,210.26,M,0.0,N,0.0,K,D*36
$INHDT,26.87,T*2E
$PSXN,23,-0.75,0.45,26.87,0.01*2C
NAV 2024/05/28 20:03:28.573 SEAPATH $INGGA,200328.59,4131.443566,N,07040.329664,W,2,11,1.1,0.34,M,-33.66,M,9.0,1015*6C
$INVTG,157.41,T,171.49,M,0.0,N,0.0,K,D*3A
$INHDT,26.87,T*2E
$PSXN,23,-0.74,0.43,26.87,0.01*2B
NAV 2024/05/28 20:03:29.573 SEAPATH $INGGA,200329.59,4131.443565,N,07040.329663,W,2,11,1.1,0.33,M,-33.66,M,10.0,1015*56
$INVTG,98.08,T,112.16,M,0.0,N,0.0,K,D*0A
$INHDT,26.87,T*2E
$PSXN,23,-0.74,0.43,26.87,0.01*2B
NAV 2024/05/28 20:03:30.573 SEAPATH $INGGA,200330.59,4131.443567,N,07040.329661,W,2,11,1.1,0.34,M,-33.66,M,11.0,1015*58
$INVTG,72.41,T,86.48,M,0.0,N,0.0,K,D*34
$INHDT,26.87,T*2E
$PSXN,23,-0.74,0.45,26.87,0.01*2D
NAV 2024/05/28 20:03:31.573 SEAPATH $INGGA,200331.59,4131.443572,N,07040.329659,W,2,11,1.1,0.32,M,-33.66,M,7.0,1015*67
$INVTG,100.26,T,114.33,M,0.0,N,0.0,K,D*37
$INHDT,26.88,T*21
$PSXN,23,-0.76,0.47,26.88,0.00*23
NAV 2024/05/28 20:03:32.573 SEAPATH $INGGA,200332.59,4131.443569,N,07040.329658,W,2,11,1.1,0.32,M,-33.66,M,8.0,1015*60
$INVTG,174.31,T,188.39,M,0.0,N,0.0,K,D*3D
$INHDT,26.87,T*2E
$PSXN,23,-0.77,0.47,26.87,0.00*2D
NAV 2024/05/28 20:03:33.573 SEAPATH $INGGA,200333.59,4131.443566,N,07040.329656,W,2,11,1.1,0.31,M,-33.66,M,9.0,1015*62
$INVTG,178.62,T,192.70,M,0.0,N,0.0,K,D*31
$INHDT,26.88,T*21
$PSXN,23,-0.77,0.46,26.88,0.01*22
NAV 2024/05/28 20:03:34.573 SEAPATH $INGGA,200334.59,4131.443567,N,07040.329653,W,2,11,1.1,0.31,M,-33.66,M,10.0,1015*59
$INVTG,162.67,T,176.75,M,0.0,N,0.0,K,D*30
$INHDT,26.88,T*21
$PSXN,23,-0.75,0.44,26.88,0.01*22
NAV 2024/05/28 20:03:35.573 SEAPATH $INGGA,200335.59,4131.443566,N,07040.329648,W,2,11,1.1,0.32,M,-33.66,M,6.0,1015*67
$INVTG,133.53,T,147.60,M,0.0,N,0.0,K,D*35
$INHDT,26.88,T*21
$PSXN,23,-0.74,0.43,26.88,0.01*24
NAV 2024/05/28 20:03:36.573 SEAPATH $INGGA,200336.59,4131.443566,N,07040.329642,W,2,11,1.1,0.33,M,-33.66,M,7.0,1015*6E
$INVTG,97.87,T,111.94,M,0.0,N,0.0,K,D*0B
$INHDT,26.88,T*21
$PSXN,23,-0.74,0.44,26.88,0.01*23
NAV 2024/05/28 20:03:37.573 SEAPATH $INGGA,200337.59,4131.443563,N,07040.329646,W,2,11,1.2,0.32,M,-33.66,M,8.0,1015*63
$INVTG,80.94,T,95.02,M,0.0,N,0.0,K,D*3D
$INHDT,26.89,T*20
$PSXN,23,-0.75,0.46,26.89,0.00*20
NAV 2024/05/28 20:03:38.573 SEAPATH $INGGA,200338.59,4131.443565,N,07040.329641,W,2,11,1.2,0.32,M,-33.66,M,9.0,1015*6C
$INVTG,99.99,T,114.07,M,0.0,N,0.0,K,D*05
$INHDT,26.90,T*28
$PSXN,23,-0.78,0.47,26.90,0.00*24
NAV 2024/05/28 20:03:39.573 SEAPATH $INGGA,200339.59,4131.443568,N,07040.329631,W,2,11,1.2,0.32,M,-33.66,M,10.0,1015*5F
$INVTG,113.17,T,127.25,M,0.0,N,0.0,K,D*30
$INHDT,26.92,T*2A
$PSXN,23,-0.79,0.46,26.92,0.00*26
NAV 2024/05/28 20:03:40.573 SEAPATH $INGGA,200340.59,4131.443568,N,07040.329629,W,2,11,1.2,0.31,M,-33.66,M,11.0,1015*5A
$INVTG,132.34,T,146.42,M,0.0,N,0.0,K,D*34
$INHDT,26.92,T*2A
$PSXN,23,-0.80,0.45,26.92,0.01*22
NAV 2024/05/28 20:03:41.573 SEAPATH $INGGA,200341.59,4131.443567,N,07040.329626,W,2,11,1.2,0.32,M,-33.66,M,7.0,1015*6F
$INVTG,120.30,T,134.37,M,0.0,N,0.0,K,D*34
$INHDT,26.93,T*2B
$PSXN,23,-0.78,0.44,26.93,0.01*25
NAV 2024/05/28 20:03:42.573 SEAPATH $INGGA,200342.59,4131.443566,N,07040.329622,W,2,11,1.2,0.32,M,-33.66,M,8.0,1015*66
$INVTG,98.84,T,112.92,M,0.0,N,0.0,K,D*02
$INHDT,26.93,T*2B
$PSXN,23,-0.77,0.44,26.93,0.01*2A
NAV 2024/05/28 20:03:43.573 SEAPATH $INGGA,200343.59,4131.443565,N,07040.329617,W,2,11,1.2,0.33,M,-33.66,M,9.0,1015*62
$INVTG,83.48,T,97.56,M,0.0,N,0.0,K,D*3C
$INHDT,26.94,T*2C
$PSXN,23,-0.75,0.46,26.94,0.00*2C
NAV 2024/05/28 20:03:44.573 SEAPATH $INGGA,200344.59,4131.443568,N,07040.329614,W,2,11,1.2,0.32,M,-33.66,M,10.0,1015*52
$INVTG,65.45,T,79.53,M,0.0,N,0.0,K,D*3C
$INHDT,26.95,T*2D
$PSXN,23,-0.75,0.46,26.95,0.00*2D
NAV 2024/05/28 20:03:45.573 SEAPATH $INGGA,200345.59,4131.443578,N,07040.329607,W,2,11,1.2,0.30,M,-33.66,M,6.0,1015*65
$INVTG,68.04,T,82.12,M,0.0,N,0.0,K,D*35
$INHDT,26.95,T*2D
$PSXN,23,-0.76,0.46,26.95,0.00*2E
NAV 2024/05/28 20:03:46.573 SEAPATH $INGGA,200346.59,4131.443579,N,07040.329603,W,2,11,1.2,0.31,M,-33.66,M,7.0,1015*63
$INVTG,82.91,T,96.99,M,0.0,N,0.0,K,D*3B
$INHDT,26.95,T*2D
$PSXN,23,-0.77,0.45,26.95,0.01*2D
NAV 2024/05/28 20:03:47.573 SEAPATH $INGGA,200347.59,4131.443579,N,07040.329600,W,2,11,1.2,0.29,M,-33.66,M,8.0,1015*67
$INVTG,101.69,T,115.77,M,0.0,N,0.0,K,D*3C
$INHDT,26.95,T*2D
$PSXN,23,-0.77,0.45,26.95,0.01*2D
NAV 2024/05/28 20:03:48.573 SEAPATH $INGGA,200348.59,4131.443579,N,07040.329593,W,2,11,1.2,0.30,M,-33.66,M,9.0,1015*68
$INVTG,98.02,T,112.10,M,0.0,N,0.0,K,D*06
$INHDT,26.95,T*2D
$PSXN,23,-0.76,0.45,26.95,0.01*2C
NAV 2024/05/28 20:03:49.573 SEAPATH $INGGA,200349.59,4131.443578,N,07040.329589,W,2,11,1.2,0.30,M,-33.66,M,10.0,1015*5B
$INVTG,73.66,T,87.74,M,0.0,N,0.0,K,D*3E
$INHDT,26.96,T*2E
$PSXN,23,-0.76,0.45,26.96,0.00*2E
NAV 2024/05/28 20:03:50.573 SEAPATH $INGGA,200350.59,4131.443580,N,07040.329585,W,2,11,1.2,0.29,M,-33.66,M,11.0,1015*51
$INVTG,47.87,T,61.95,M,0.0,N,0.0,K,D*31
$INHDT,26.96,T*2E
$PSXN,23,-0.77,0.45,26.96,0.00*2F
NAV 2024/05/28 20:03:51.573 SEAPATH $INGGA,200351.59,4131.443582,N,07040.329581,W,2,11,1.2,0.29,M,-33.66,M,7.0,1015*61
$INVTG,89.48,T,103.56,M,0.0,N,0.0,K,D*0A
$INHDT,26.97,T*2F
$PSXN,23,-0.78,0.45,26.97,0.00*21
NAV 2024/05/28 20:03:52.573 SEAPATH $INGGA,200352.59,4131.443584,N,07040.329577,W,2,11,1.2,0.29,M,-33.66,M,8.0,1015*62
$INVTG,74.57,T,88.64,M,0.0,N,0.0,K,D*35
$INHDT,26.97,T*2F
$PSXN,23,-0.77,0.46,26.97,0.00*2D
NAV 2024/05/28 20:03:53.573 SEAPATH $INGGA,200353.59,4131.443585,N,07040.329573,W,2,11,1.2,0.29,M,-33.66,M,9.0,1015*67
$INVTG,102.52,T,116.60,M,0.0,N,0.0,K,D*32
$INHDT,26.97,T*2F
$PSXN,23,-0.76,0.46,26.97,0.00*2C
NAV 2024/05/28 20:03:54.573 SEAPATH $INGGA,200354.59,4131.443584,N,07040.329571,W,2,11,1.2,0.28,M,-33.66,M,10.0,1015*5A
$INVTG,115.21,T,129.29,M,0.0,N,0.0,K,D*31
$INHDT,26.99,T*21
$PSXN,23,-0.76,0.45,26.99,0.00*21
NAV 2024/05/28 20:03:55.573 SEAPATH $INGGA,200355.59,4131.443582,N,07040.329567,W,2,11,1.2,0.29,M,-33.66,M,6.0,1015*6C
$INVTG,116.50,T,130.58,M,0.0,N,0.0,K,D*3A
$INHDT,27.00,T*20
$PSXN,23,-0.76,0.45,27.00,0.00*20
NAV 2024/05/28 20:03:56.573 SEAPATH $INGGA,200356.59,4131.443581,N,07040.329565,W,2,11,1.2,0.30,M,-33.66,M,7.0,1015*67
$INVTG,105.13,T,119.21,M,0.0,N,0.0,K,D*3A
$INHDT,27.01,T*21
$PSXN,23,-0.76,0.45,27.01,0.00*21
NAV 2024/05/28 20:03:57.573 SEAPATH $INGGA,200357.59,4131.443578,N,07040.329565,W,2,11,1.2,0.32,M,-33.66,M,8.0,1015*6D
$INVTG,74.04,T,88.11,M,0.0,N,0.0,K,D*31
$INHDT,27.01,T*21
$PSXN,23,-0.77,0.45,27.01,0.00*20
NAV 2024/05/28 20:03:58.573 SEAPATH $INGGA,200358.59,4131.443577,N,07040.329561,W,2,11,1.2,0.32,M,-33.66,M,9.0,1015*68
$INVTG,78.76,T,92.84,M,0.0,N,0.0,K,D*3F
$INHDT,27.01,T*21
$PSXN,23,-0.77,0.45,27.01,0.00*20
NAV 2024/05/28 20:03:59.573 SEAPATH $INGGA,200359.59,4131.443578,N,07040.329558,W,2,11,1.2,0.33,M,-33.66,M,10.0,1015*55
$INVTG,88.84,T,102.92,M,0.0,N,0.0,K,D*02
$INHDT,27.01,T*21
$PSXN,23,-0.77,0.46,27.01,-0.00*0E
NAV 2024/05/28 20:04:00.573 SEAPATH $INGGA,200400.59,4131.443579,N,07040.329551,W,2,11,1.2,0.34,M,-33.66,M,11.0,1015*50
$INVTG,114.96,T,129.04,M,0.0,N,0.0,K,D*33
$INHDT,27.02,T*22
$PSXN,23,-0.77,0.46,27.02,0.00*20
NAV 2024/05/28 20:04:01.573 SEAPATH $INGGA,200401.59,4131.443587,N,07040.329540,W,2,11,1.2,0.33,M,-33.66,M,7.0,1015*60
$INVTG,130.28,T,144.36,M,0.0,N,0.0,K,D*3A
$INHDT,27.02,T*22
$PSXN,23,-0.77,0.45,27.02,0.00*23
NAV 2024/05/28 20:04:02.573 SEAPATH $INGGA,200402.59,4131.443589,N,07040.329537,W,2,11,1.2,0.33,M,-33.66,M,8.0,1015*62
$INVTG,21.44,T,35.51,M,0.0,N,0.0,K,D*37
$INHDT,27.02,T*22
$PSXN,23,-0.77,0.44,27.02,0.01*23
NAV 2024/05/28 20:04:03.573 SEAPATH $INGGA,200403.59,4131.443596,N,07040.329538,W,2,11,1.2,0.32,M,-33.66,M,9.0,1015*62
$INVTG,59.50,T,73.58,M,0.0,N,0.0,K,D*36
$INHDT,27.02,T*22
$PSXN,23,-0.77,0.44,27.02,0.01*23
NAV 2024/05/28 20:04:04.573 SEAPATH $INGGA,200404.59,4131.443601,N,07040.329536,W,2,11,1.2,0.32,M,-33.66,M,10.0,1015*5E
$INVTG,58.28,T,72.36,M,0.0,N,0.0,K,D*31
$INHDT,27.03,T*23
$PSXN,23,-0.77,0.45,27.03,0.00*22
NAV 2024/05/28 20:04:05.573 SEAPATH $INGGA,200405.59,4131.443608,N,07040.329533,W,2,11,1.2,0.31,M,-33.66,M,6.0,1015*67
$INVTG,339.09,T,353.17,M,0.0,N,0.0,K,D*35
$INHDT,27.02,T*22
$PSXN,23,-0.77,0.45,27.02,-0.00*0E
NAV 2024/05/28 20:04:06.573 SEAPATH $INGGA,200406.59,4131.443611,N,07040.329537,W,2,11,1.2,0.31,M,-33.66,M,7.0,1015*69
$INVTG,322.05,T,336.13,M,0.0,N,0.0,K,D*34
$INHDT,27.02,T*22
$PSXN,23,-0.78,0.46,27.02,-0.00*02
NAV 2024/05/28 20:04:07.573 SEAPATH $INGGA,200407.59,4131.443615,N,07040.329538,W,2,11,1.2,0.29,M,-33.66,M,8.0,1015*65
$INVTG,286.74,T,300.82,M,0.0,N,0.0,K,D*30
$INHDT,27.02,T*22
$PSXN,23,-0.78,0.46,27.02,0.00*2F
NAV 2024/05/28 20:04:08.573 SEAPATH $INGGA,200408.59,4131.443616,N,07040.329540,W,2,11,1.2,0.29,M,-33.66,M,9.0,1015*67
$INVTG,265.08,T,279.16,M,0.0,N,0.0,K,D*34
$INHDT,27.02,T*22
$PSXN,23,-0.77,0.45,27.02,0.00*23
NAV 2024/05/28 20:04:09.573 SEAPATH $INGGA,200409.59,4131.443616,N,07040.329541,W,2,11,1.2,0.29,M,-33.66,M,10.0,1015*5F
$INVTG,269.37,T,283.44,M,0.0,N,0.0,K,D*36
$INHDT,27.01,T*21
$PSXN,23,-0.76,0.45,27.01,0.00*21
NAV 2024/05/28 20:04:10.573 SEAPATH $INGGA,200410.59,4131.443615,N,07040.329543,W,2,11,1.2,0.29,M,-33.66,M,11.0,1015*57
$INVTG,282.90,T,296.98,M,0.0,N,0.0,K,D*3B
$INHDT,27.01,T*21
$PSXN,23,-0.76,0.45,27.01,0.00*21
NAV 2024/05/28 20:04:11.573 SEAPATH $INGGA,200411.59,4131.443610,N,07040.329547,W,2,11,1.2,0.30,M,-33.66,M,7.0,1015*68
$INVTG,298.90,T,312.98,M,0.0,N,0.0,K,D*3D
$INHDT,27.00,T*20
$PSXN,23,-0.77,0.45,27.00,0.00*21
NAV 2024/05/28 20:04:12.573 SEAPATH $INGGA,200412.59,4131.443614,N,07040.329550,W,2,11,1.2,0.30,M,-33.66,M,8.0,1015*66
$INVTG,301.81,T,315.89,M,0.0,N,0.0,K,D*3B
$INHDT,27.00,T*20
$PSXN,23,-0.79,0.46,27.00,0.00*2C
NAV 2024/05/28 20:04:13.573 SEAPATH $INGGA,200413.59,4131.443617,N,07040.329552,W,2,11,1.2,0.29,M,-33.66,M,9.0,1015*6F
$INVTG,300.14,T,314.22,M,0.0,N,0.0,K,D*36
$INHDT,26.99,T*21
$PSXN,23,-0.81,0.45,26.99,0.00*29
NAV 2024/05/28 20:04:14.573 SEAPATH $INGGA,200414.59,4131.443618,N,07040.329556,W,2,11,1.2,0.29,M,-33.66,M,10.0,1015*5B
$INVTG,296.47,T,310.54,M,0.0,N,0.0,K,D*3B
$INHDT,26.99,T*21
$PSXN,23,-0.82,0.45,26.99,-0.00*07
NAV 2024/05/28 20:04:15.573 SEAPATH $INGGA,200415.59,4131.443613,N,07040.329563,W,2,11,1.2,0.29,M,-33.66,M,6.0,1015*60
$INVTG,290.14,T,304.22,M,0.0,N,0.0,K,D*3F
$INHDT,26.99,T*21
$PSXN,23,-0.82,0.46,26.99,-0.00*04
NAV 2024/05/28 20:04:16.573 SEAPATH $INGGA,200416.59,4131.443613,N,07040.329569,W,2,11,1.2,0.28,M,-33.66,M,7.0,1015*69
$INVTG,290.27,T,304.35,M,0.0,N,0.0,K,D*39
$INHDT,26.98,T*20
$PSXN,23,-0.80,0.46,26.98,0.00*2A
NAV 2024/05/28 20:04:17.573 SEAPATH $INGGA,200417.59,4131.443612,N,07040.329574,W,2,11,1.2,0.28,M,-33.66,M,8.0,1015*6A
$INVTG,288.43,T,302.51,M,0.0,N,0.0,K,D*36
$INHDT,26.98,T*20
$PSXN,23,-0.78,0.45,26.98,0.00*2E
NAV 2024/05/28 20:04:18.573 SEAPATH $INGGA,200418.59,4131.443612,N,07040.329578,W,2,11,1.2,0.28,M,-33.66,M,9.0,1015*68
$INVTG,298.50,T,312.57,M,0.0,N,0.0,K,D*32
$INHDT,26.97,T*2F
$PSXN,23,-0.77,0.44,26.97,0.01*2E
NAV 2024/05/28 20:04:19.573 SEAPATH $INGGA,200419.59,4131.443607,N,07040.329583,W,2,11,1.2,0.28,M,-33.66,M,10.0,1015*51
$INVTG,307.62,T,321.69,M,0.0,N,0.0,K,D*39
$INHDT,26.96,T*2E
$PSXN,23,-0.77,0.45,26.96,0.00*2F
NAV 2024/05/28 20:04:20.573 SEAPATH $INGGA,200420.59,4131.443609,N,07040.329590,W,2,11,1.2,0.28,M,-33.66,M,11.0,1015*56
$INVTG,322.56,T,336.64,M,0.0,N,0.0,K,D*32
$INHDT,26.95,T*2D
$PSXN,23,-0.77,0.45,26.95,0.00*2C
NAV 2024/05/28 20:04:21.573 SEAPATH $INGGA,200421.59,4131.443593,N,07040.329601,W,2,11,1.2,0.29,M,-33.66,M,7.0,1015*6A
$INVTG,318.26,T,332.33,M,0.0,N,0.0,K,D*3A
$INHDT,26.95,T*2D
$PSXN,23,-0.79,0.46,26.95,-0.00*0C
NAV 2024/05/28 20:04:22.573 SEAPATH $INGGA,200422.59,4131.443593,N,07040.329604,W,2,11,1.2,0.29,M,-33.66,M,8.0,1015*63
$INVTG,312.96,T,327.04,M,0.0,N,0.0,K,D*3B
$INHDT,26.94,T*2C
$PSXN,23,-0.79,0.46,26.94,-0.00*0D
NAV 2024/05/28 20:04:23.573 SEAPATH $INGGA,200423.59,4131.443595,N,07040.329608,W,2,11,1.2,0.28,M,-33.66,M,9.0,1015*68
$INVTG,302.25,T,316.33,M,0.0,N,0.0,K,D*34
$INHDT,26.93,T*2B
$PSXN,23,-0.79,0.46,26.93,-0.00*0A
NAV 2024/05/28 20:04:24.573 SEAPATH $INGGA,200424.59,4131.443595,N,07040.329609,W,2,11,1.2,0.29,M,-33.66,M,10.0,1015*57
$INVTG,299.03,T,313.10,M,0.0,N,0.0,K,D*37
$INHDT,26.92,T*2A
$PSXN,23,-0.77,0.45,26.92,0.00*2B
NAV 2024/05/28 20:04:25.573 SEAPATH $INGGA,200425.59,4131.443592,N,07040.329612,W,2,11,1.2,0.30,M,-33.66,M,11.0,1015*52
$INVTG,304.04,T,318.11,M,0.0,N,0.0,K,D*3F
$INHDT,26.92,T*2A
$PSXN,23,-0.76,0.45,26.92,0.00*2A
NAV 2024/05/28 20:04:26.573 SEAPATH $INGGA,200426.59,4131.443592,N,07040.329615,W,2,11,1.2,0.30,M,-33.66,M,12.0,1015*55
$INVTG,317.19,T,331.26,M,0.0,N,0.0,K,D*3E
$INHDT,26.91,T*29
$PSXN,23,-0.75,0.45,26.91,0.00*2A
NAV 2024/05/28 20:04:27.573 SEAPATH $INGGA,200427.59,4131.443590,N,07040.329616,W,2,11,1.2,0.30,M,-33.66,M,8.0,1015*6E
$INVTG,325.68,T,339.76,M,0.0,N,0.0,K,D*34
$INHDT,26.90,T*28
$PSXN,23,-0.74,0.46,26.90,0.00*29
NAV 2024/05/28 20:04:28.573 SEAPATH $INGGA,200428.59,4131.443590,N,07040.329614,W,2,11,1.2,0.31,M,-33.66,M,9.0,1015*63
$INVTG,5.44,T,19.51,M,0.0,N,0.0,K,D*0F
$INHDT,26.89,T*20
$PSXN,23,-0.75,0.45,26.89,0.00*23
NAV 2024/05/28 20:04:29.573 SEAPATH $INGGA,200429.59,4131.443593,N,07040.329612,W,2,11,1.2,0.29,M,-33.66,M,10.0,1015*56
$INVTG,42.94,T,57.01,M,0.0,N,0.0,K,D*3E
$INHDT,26.89,T*20
$PSXN,23,-0.76,0.46,26.89,-0.00*0E
NAV 2024/05/28 20:04:30.573 SEAPATH $INGGA,200430.59,4131.443596,N,07040.329611,W,2,11,1.2,0.29,M,-33.66,M,11.0,1015*59
$INVTG,357.47,T,11.55,M,0.0,N,0.0,K,D*04
$INHDT,26.89,T*20
$PSXN,23,-0.78,0.46,26.89,-0.00*00
NAV 2024/05/28 20:04:31.573 SEAPATH $INGGA,200431.59,4131.443595,N,07040.329610,W,2,11,1.2,0.27,M,-33.66,M,7.0,1015*63
$INVTG,338.51,T,352.59,M,0.0,N,0.0,K,D*32
$INHDT,26.89,T*20
$PSXN,23,-0.80,0.45,26.89,0.00*29
NAV 2024/05/28 20:04:32.573 SEAPATH $INGGA,200432.59,4131.443595,N,07040.329612,W,2,11,1.2,0.27,M,-33.66,M,8.0,1015*6D
$INVTG,7.35,T,21.43,M,0.0,N,0.0,K,D*03
$INHDT,26.90,T*28
$PSXN,23,-0.80,0.44,26.90,0.00*20
NAV 2024/05/28 20:04:33.573 SEAPATH $INGGA,200433.59,4131.443595,N,07040.329615,W,2,11,1.2,0.28,M,-33.66,M,9.0,1015*65
$INVTG,14.93,T,29.01,M,0.0,N,0.0,K,D*33
$INHDT,26.90,T*28
$PSXN,23,-0.78,0.45,26.90,-0.00*0B
NAV 2024/05/28 20:04:34.573 SEAPATH $INGGA,200434.59,4131.443598,N,07040.329612,W,2,11,1.2,0.27,M,-33.66,M,10.0,1015*5F
$INVTG,30.11,T,44.19,M,0.0,N,0.0,K,D*3D
$INHDT,26.91,T*29
$PSXN,23,-0.77,0.46,26.91,-0.01*07
NAV 2024/05/28 20:04:35.573 SEAPATH $INGGA,200435.59,4131.443594,N,07040.329605,W,2,11,1.2,0.29,M,-33.66,M,6.0,1015*6D
$INVTG,57.21,T,71.29,M,0.0,N,0.0,K,D*3A
$INHDT,26.92,T*2A
$PSXN,23,-0.76,0.46,26.92,-0.01*05
